TimeSinceCollection,Timestamp,AccX,AccY,AccZ,AngleRoll,AnglePitch,AngleYaw,AngularVelX,AngularVelY,             AngularVelZ,Q1,Q2,Q3,Q4,MagX,MagY,MagZ,Height,Airpressure
0,440415,-0.631641,-9.72822,-0.626855,-93.6255,3.49915,-17.7264,-0.183105,0.0610352,-0.0610352,-0.679291,0.716827,-0.132965,0.0834045,65095,6740,3209,2534,-30051
6,440421,-0.598145,-9.73301,-0.626855,-93.6255,3.49915,-17.7264,-0.183105,0.0610352,-0.12207,-0.679291,0.716827,-0.132965,0.0834045,65093,6741,3210,2534,-30051
12,440427,-0.588574,-9.72822,-0.650781,-93.6255,3.49915,-17.7264,0,0.0610352,-0.0610352,-0.67926,0.716827,-0.132965,0.0834045,65093,6744,3210,2534,-30051
18,440433,-0.588574,-9.67559,-0.617285,-93.6255,3.49915,-17.7264,-0.0610352,0,-0.366211,-0.67926,0.716827,-0.132935,0.0834045,65093,6744,3212,2534,-30051
24,440439,-0.62207,-9.69951,-0.583789,-93.6255,3.49915,-17.7264,0,0,-0.244141,-0.67926,0.716858,-0.132935,0.0834045,65095,6745,3213,2534,-30051
30,440445,-0.607715,-9.72344,-0.650781,-93.631,3.49365,-17.7264,-0.305176,0.0610352,-0.244141,-0.67926,0.716858,-0.132935,0.0834045,65098,6745,3213,2534,-30051
36,440451,-0.60293,-9.73779,-0.650781,-93.631,3.49365,-17.7264,-0.366211,0,-0.244141,-0.67923,0.716858,-0.132935,0.0834045,65100,6744,3213,2534,-30051
42,440457,-0.631641,-9.7665,-0.703418,-93.631,3.49365,-17.7209,0,0,-0.366211,-0.67923,0.716888,-0.132904,0.083374,65103,6742,3216,2534,-30051
48,440463,-0.62207,-9.75215,-0.674707,-93.631,3.49365,-17.7209,0.0610352,-0.12207,-0.427246,-0.67923,0.716888,-0.132874,0.0834045,65103,6741,3216,2534,-30051
54,440469,-0.579004,-9.73301,-0.636426,-93.631,3.48816,-17.7209,0.183105,-0.0610352,-0.366211,-0.67923,0.716888,-0.132874,0.0834045,65105,6741,3214,2534,-30051
60,440475,-0.631641,-9.73301,-0.655566,-93.631,3.48816,-17.7209,0.12207,-0.0610352,-0.305176,-0.67923,0.716888,-0.132843,0.0834045,65107,6741,3213,2534,-30051
66,440481,-0.598145,-9.73301,-0.641211,-93.631,3.48816,-17.7155,0.305176,-0.0610352,-0.366211,-0.67923,0.716888,-0.132813,0.0834045,65110,6741,3212,2534,-30051
72,440487,-0.574219,-9.73301,-0.6125,-93.6255,3.48267,-17.7155,0.610352,-0.12207,-0.610352,-0.67926,0.716888,-0.132813,0.0834045,65113,6741,3210,2534,-30051
78,440493,-0.579004,-9.68037,-0.588574,-93.6255,3.48267,-17.71,0.610352,-0.12207,-0.549316,-0.679291,0.716858,-0.132751,0.0834045,65113,6741,3209,2525,-30050
84,440499,-0.588574,-9.69473,-0.607715,-93.62,3.47717,-17.71,0.183105,0,-0.427246,-0.679291,0.716858,-0.132721,0.0834045,65114,6739,3207,2525,-30050
90,440505,-0.607715,-9.7043,-0.6125,-93.62,3.47717,-17.7045,0.0610352,0,-0.366211,-0.679291,0.716858,-0.13269,0.0834045,65115,6736,3204,2525,-30050
96,440511,-0.579004,-9.69951,-0.631641,-93.6255,3.47717,-17.7045,0,0,-0.488281,-0.679291,0.716858,-0.13266,0.0834045,65116,6734,3201,2534,-30051
102,440517,-0.607715,-9.72344,-0.598145,-93.6255,3.47168,-17.7045,-0.0610352,0.12207,-0.244141,-0.679291,0.716858,-0.13266,0.0834045,65115,6732,3201,2534,-30051
108,440523,-0.60293,-9.69473,-0.559863,-93.6255,3.47168,-17.699,0,0.0610352,-0.427246,-0.679291,0.716888,-0.132629,0.0834045,65114,6732,3204,2534,-30051
114,440529,-0.574219,-9.69951,-0.598145,-93.6255,3.46619,-17.699,-0.183105,0.0610352,-0.488281,-0.67926,0.716888,-0.132599,0.0834045,65115,6733,3206,2534,-30051
120,440535,-0.579004,-9.69951,-0.593359,-93.6255,3.46619,-17.699,-0.244141,0.12207,-0.427246,-0.67926,0.716919,-0.132568,0.0834045,65116,6733,3210,2534,-30051
126,440541,-0.583789,-9.69473,-0.60293,-93.6255,3.46619,-17.699,-0.12207,0.305176,-0.549316,-0.67926,0.716919,-0.132568,0.0834351,65117,6733,3212,2534,-30051
132,440547,-0.60293,-9.72822,-0.617285,-93.631,3.46069,-17.6935,-0.305176,0.244141,-0.366211,-0.67926,0.716919,-0.132538,0.0834351,65116,6733,3218,2534,-30051
138,440553,-0.583789,-9.71387,-0.6125,-93.631,3.46069,-17.6935,-0.488281,0.427246,-0.366211,-0.67923,0.716949,-0.132507,0.0834351,65116,6735,3222,2534,-30051
144,440559,-0.588574,-9.73779,-0.631641,-93.6365,3.4552,-17.6935,-0.488281,0.305176,-0.427246,-0.679199,0.71698,-0.132507,0.0834351,65116,6736,3225,2534,-30051
150,440565,-0.607715,-9.73779,-0.655566,-93.6365,3.4552,-17.6935,-0.427246,0.366211,-0.488281,-0.679199,0.71698,-0.132477,0.0834656,65116,6738,3228,2534,-30051
156,440571,-0.583789,-9.72344,-0.631641,-93.642,3.4552,-17.6935,-0.305176,0.427246,-0.366211,-0.679169,0.71701,-0.132477,0.0834656,65118,6739,3229,2534,-30051
162,440577,-0.62207,-9.7043,-0.607715,-93.642,3.44971,-17.6935,-0.488281,0.488281,-0.305176,-0.679169,0.71701,-0.132446,0.0834656,65124,6740,3229,2534,-30051
168,440583,-0.60293,-9.73301,-0.636426,-93.6475,3.44971,-17.688,-0.366211,0.427246,-0.366211,-0.679138,0.717041,-0.132446,0.0834656,65125,6739,3225,2534,-30051
174,440589,-0.598145,-9.71387,-0.636426,-93.6475,3.44421,-17.688,-0.305176,0.366211,-0.488281,-0.679108,0.717072,-0.132416,0.0834656,65127,6739,3221,2534,-30051
180,440595,-0.583789,-9.69473,-0.636426,-93.6475,3.44421,-17.688,-0.305176,0.427246,-0.305176,-0.679108,0.717072,-0.132416,0.0834656,65126,6739,3219,2534,-30051
186,440601,-0.550293,-9.71865,-0.645996,-93.653,3.44421,-17.688,-0.366211,0.366211,-0.305176,-0.679108,0.717102,-0.132385,0.0834656,65127,6740,3216,2534,-30051
192,440607,-0.598145,-9.73779,-0.631641,-93.653,3.43872,-17.688,-0.305176,0.549316,-0.366211,-0.679077,0.717102,-0.132385,0.0834961,65128,6740,3217,2534,-30051
198,440613,-0.588574,-9.69951,-0.607715,-93.6584,3.43872,-17.688,-0.244141,0.610352,-0.305176,-0.679047,0.717133,-0.132355,0.0834961,65128,6740,3219,2534,-30051
204,440619,-0.598145,-9.71865,-0.631641,-93.6584,3.43872,-17.688,-0.366211,0.610352,-0.305176,-0.679047,0.717133,-0.132355,0.0834961,65128,6739,3223,2534,-30051
210,440625,-0.607715,-9.71865,-0.62207,-93.6639,3.43323,-17.688,-0.549316,0.549316,-0.366211,-0.679016,0.717163,-0.132355,0.0834961,65128,6739,3226,2534,-30051
216,440631,-0.6125,-9.70908,-0.607715,-93.6639,3.43323,-17.6825,-0.366211,0.549316,-0.244141,-0.679016,0.717194,-0.132324,0.0834961,65128,6739,3226,2534,-30051
222,440637,-0.617285,-9.68037,-0.60293,-93.6694,3.42773,-17.6825,-0.488281,0.488281,-0.427246,-0.678986,0.717194,-0.132324,0.0835266,65125,6740,3223,2534,-30051
228,440643,-0.60293,-9.70908,-0.636426,-93.6694,3.42773,-17.6825,-0.488281,0.549316,-0.244141,-0.678955,0.717224,-0.132294,0.0835266,65124,6741,3220,2534,-30051
234,440649,-0.593359,-9.71387,-0.62207,-93.6749,3.42773,-17.6825,-0.549316,0.549316,-0.183105,-0.678955,0.717255,-0.132294,0.0835266,65123,6741,3219,2534,-30051
240,440655,-0.641211,-9.73301,-0.631641,-93.6749,3.42773,-17.6825,-0.549316,0.671387,-0.183105,-0.678925,0.717255,-0.132294,0.0835266,65120,6741,3219,2534,-30051
246,440661,-0.588574,-9.69473,-0.636426,-93.6804,3.42224,-17.6825,-0.366211,0.549316,-0.366211,-0.678894,0.717285,-0.132294,0.0835571,65119,6739,3216,2534,-30051
252,440667,-0.593359,-9.70908,-0.617285,-93.6859,3.42224,-17.688,-0.488281,0.610352,-0.244141,-0.678894,0.717316,-0.132294,0.0835571,65118,6737,3208,2534,-30051
258,440673,-0.588574,-9.73779,-0.636426,-93.6859,3.42224,-17.688,-0.549316,0.549316,-0.12207,-0.678833,0.717346,-0.132294,0.0835571,65118,6736,3206,2534,-30051
264,440679,-0.569434,-9.71865,-0.650781,-93.6914,3.42224,-17.688,-0.305176,0.732422,-0.244141,-0.678833,0.717346,-0.132294,0.0835876,65118,6735,3204,2534,-30051
270,440685,-0.617285,-9.72822,-0.674707,-93.6914,3.42224,-17.688,-0.427246,0.549316,0,-0.678833,0.717346,-0.132294,0.0835876,65117,6735,3203,2534,-30051
276,440691,-0.588574,-9.73779,-0.665137,-93.6969,3.42224,-17.688,-0.549316,0.549316,-0.183105,-0.678802,0.717377,-0.132324,0.0835876,65116,6736,3202,2534,-30051
282,440697,-0.598145,-9.7043,-0.626855,-93.6969,3.41675,-17.688,0,0.366211,-0.244141,-0.678802,0.717377,-0.132294,0.0835876,65116,6738,3202,2534,-30051
288,440703,-0.564648,-9.68037,-0.593359,-93.6969,3.41675,-17.688,-0.0610352,0.366211,-0.244141,-0.678772,0.717377,-0.132294,0.0836182,65117,6739,3203,2534,-30051
294,440709,-0.617285,-9.69951,-0.60293,-93.6969,3.41675,-17.688,-0.366211,0.366211,-0.244141,-0.678772,0.717407,-0.132294,0.0836182,65119,6739,3204,2534,-30051
300,440715,-0.60293,-9.75215,-0.626855,-93.7024,3.41125,-17.688,-0.549316,0.488281,-0.305176,-0.678741,0.717438,-0.132263,0.0836182,65123,6737,3205,2534,-30051
306,440721,-0.593359,-9.72822,-0.665137,-93.7024,3.41125,-17.688,-0.488281,0.549316,-0.305176,-0.678741,0.717438,-0.132263,0.0836182,65125,6736,3204,2534,-30051
312,440727,-0.598145,-9.74736,-0.636426,-93.7079,3.41125,-17.688,-0.366211,0.549316,-0.183105,-0.678711,0.717468,-0.132263,0.0836182,65128,6735,3203,2534,-30051
318,440733,-0.593359,-9.71387,-0.650781,-93.7134,3.41125,-17.688,-0.488281,0.671387,-0.244141,-0.67868,0.717468,-0.132263,0.0836487,65128,6734,3205,2534,-30051
324,440739,-0.6125,-9.69951,-0.641211,-93.7134,3.40576,-17.688,-0.244141,0.305176,-0.183105,-0.67868,0.717499,-0.132233,0.0836182,65128,6734,3205,2534,-30051
330,440745,-0.6125,-9.72344,-0.665137,-93.7134,3.40576,-17.688,-0.366211,0.549316,-0.12207,-0.67868,0.717499,-0.132233,0.0836182,65129,6734,3208,2534,-30051
336,440751,-0.579004,-9.72822,-0.674707,-93.7134,3.40576,-17.688,-0.183105,0.244141,-0.366211,-0.67865,0.717529,-0.132233,0.0836182,65131,6734,3210,2534,-30051
342,440757,-0.60293,-9.73301,-0.636426,-93.7189,3.40576,-17.6825,0,0,-0.427246,-0.67865,0.717529,-0.132202,0.0836182,65131,6734,3216,2534,-30051
348,440763,-0.583789,-9.68516,-0.617285,-93.7189,3.40027,-17.6825,0,0.244141,-0.12207,-0.67865,0.717529,-0.132172,0.0836182,65131,6734,3217,2534,-30051
354,440769,-0.564648,-9.71387,-0.607715,-93.7189,3.40027,-17.677,-0.12207,0.183105,-0.183105,-0.67865,0.717529,-0.132141,0.0835876,65131,6735,3216,2534,-30051
360,440775,-0.564648,-9.69951,-0.650781,-93.7189,3.40027,-17.677,-0.183105,0.244141,-0.244141,-0.67865,0.71756,-0.132141,0.0835876,65130,6736,3215,2534,-30051
366,440781,-0.583789,-9.73779,-0.641211,-93.7189,3.40027,-17.677,-0.12207,0.244141,-0.183105,-0.67865,0.71756,-0.132111,0.0835876,65129,6736,3214,2534,-30051
372,440787,-0.607715,-9.71387,-0.665137,-93.7189,3.40027,-17.6715,0.0610352,0.244141,-0.244141,-0.67865,0.71756,-0.13208,0.0835876,65132,6738,3217,2534,-30051
378,440793,-0.574219,-9.73779,-0.679492,-93.7189,3.39478,-17.666,-0.12207,0.12207,-0.183105,-0.67865,0.71759,-0.13205,0.0835571,65134,6738,3220,2534,-30051
384,440799,-0.60293,-9.73301,-0.631641,-93.7189,3.39478,-17.6605,-0.12207,-0.0610352,-0.244141,-0.67865,0.71759,-0.132019,0.0835571,65137,6738,3225,2534,-30051
390,440805,-0.583789,-9.68037,-0.679492,-93.7189,3.39478,-17.6605,0.244141,0.12207,-0.244141,-0.67865,0.71759,-0.131989,0.0835266,65138,6738,3227,2534,-30051
396,440811,-0.598145,-9.72822,-0.650781,-93.7189,3.39478,-17.655,0,0.0610352,-0.244141,-0.67865,0.71759,-0.131958,0.0835266,65137,6738,3228,2534,-30051
402,440817,-0.583789,-9.71865,-0.660352,-93.7189,3.39478,-17.6495,0.183105,0,-0.305176,-0.67865,0.71759,-0.131927,0.0834961,65134,6739,3228,2534,-30051
408,440823,-0.583789,-9.69951,-0.60293,-93.7189,3.38928,-17.644,0.12207,0,-0.183105,-0.67865,0.71759,-0.131897,0.0834656,65133,6740,3230,2534,-30051
414,440829,-0.574219,-9.75693,-0.669922,-93.7189,3.38928,-17.644,-0.12207,0,-0.12207,-0.67865,0.717621,-0.131866,0.0834656,65133,6740,3229,2534,-30051
420,440835,-0.583789,-9.72822,-0.607715,-93.7189,3.38928,-17.6385,-0.183105,0.0610352,-0.0610352,-0.67865,0.717621,-0.131836,0.0834351,65132,6742,3228,2534,-30051
426,440841,-0.564648,-9.69473,-0.669922,-93.7189,3.38928,-17.6385,-0.0610352,0.0610352,-0.244141,-0.67865,0.717621,-0.131805,0.0834351,65134,6743,3222,2534,-30051
432,440847,-0.574219,-9.73301,-0.650781,-93.7244,3.38928,-17.6331,-0.183105,0.0610352,-0.12207,-0.67865,0.717621,-0.131805,0.0834045,65137,6748,3213,2534,-30051
438,440853,-0.559863,-9.73779,-0.665137,-93.7244,3.38928,-17.6276,0,0.12207,-0.305176,-0.67865,0.717651,-0.131744,0.0834045,65138,6751,3211,2534,-30051
444,440859,-0.583789,-9.73779,-0.650781,-93.7244,3.38928,-17.6221,0,0,-0.183105,-0.67865,0.717651,-0.131714,0.083374,65140,6753,3211,2534,-30051
450,440865,-0.583789,-9.71387,-0.655566,-93.7189,3.38379,-17.6221,0.305176,0.12207,-0.12207,-0.67865,0.717651,-0.131714,0.083374,65140,6755,3209,2534,-30051
456,440871,-0.588574,-9.72344,-0.617285,-93.7189,3.38379,-17.6166,0.305176,0,-0.0610352,-0.67868,0.717651,-0.131683,0.0833435,65140,6755,3209,2534,-30051
462,440877,-0.607715,-9.6708,-0.60293,-93.7189,3.38379,-17.6111,0.183105,-0.12207,-0.183105,-0.67868,0.717651,-0.131622,0.083313,65137,6752,3209,2534,-30051
468,440883,-0.579004,-9.70908,-0.62207,-93.7189,3.38379,-17.6056,0.183105,0,-0.366211,-0.67868,0.717651,-0.131592,0.083313,65136,6751,3209,2534,-30051
474,440889,-0.60293,-9.70908,-0.62207,-93.7189,3.38379,-17.6056,0.305176,-0.0610352,-0.12207,-0.678711,0.717651,-0.131561,0.0832825,65136,6751,3210,2534,-30051
480,440895,-0.564648,-9.70908,-0.607715,-93.7189,3.38379,-17.6001,0.12207,0,-0.12207,-0.678711,0.717651,-0.131531,0.0832825,65136,6751,3211,2534,-30051
486,440901,-0.574219,-9.69951,-0.60293,-93.7134,3.38379,-17.6001,0.12207,0,-0.0610352,-0.678711,0.717651,-0.131531,0.083252,65136,6751,3213,2534,-30051
492,440907,-0.607715,-9.75693,-0.645996,-93.7189,3.3783,-17.5891,0,0.0610352,-0.12207,-0.678711,0.717651,-0.13147,0.0832214,65137,6748,3221,2534,-30051
498,440913,-0.588574,-9.73301,-0.650781,-93.7189,3.3783,-17.5891,-0.183105,0,-0.0610352,-0.678711,0.717682,-0.131439,0.0831909,65137,6747,3223,2534,-30051
504,440919,-0.607715,-9.72344,-0.689063,-93.7189,3.3783,-17.5836,0,0,-0.305176,-0.678711,0.717682,-0.131439,0.0831909,65136,6748,3223,2534,-30051
510,440925,-0.588574,-9.68994,-0.636426,-93.7189,3.3783,-17.5781,0.183105,-0.0610352,-0.366211,-0.678711,0.717682,-0.131378,0.0831909,65137,6749,3222,2534,-30051
516,440931,-0.574219,-9.68516,-0.626855,-93.7134,3.3783,-17.5781,0.183105,-0.183105,-0.366211,-0.678711,0.717682,-0.131348,0.0831604,65135,6749,3219,2534,-30051
522,440937,-0.588574,-9.69473,-0.631641,-93.7189,3.3728,-17.5671,0,-0.0610352,-0.305176,-0.678711,0.717682,-0.131287,0.0831299,65132,6751,3215,2534,-30051
528,440943,-0.569434,-9.70908,-0.669922,-93.7189,3.3728,-17.5671,-0.12207,-0.0610352,-0.488281,-0.678711,0.717712,-0.131256,0.0831299,65131,6751,3213,2534,-30051
534,440949,-0.579004,-9.73779,-0.689063,-93.7189,3.36731,-17.5616,0,0,-0.305176,-0.678711,0.717712,-0.131226,0.0831299,65131,6752,3212,2534,-30051
540,440955,-0.564648,-9.74258,-0.669922,-93.7189,3.36731,-17.5562,0,-0.0610352,-0.427246,-0.678711,0.717712,-0.131195,0.0830994,65131,6753,3210,2534,-30051
546,440961,-0.583789,-9.7043,-0.645996,-93.7189,3.36731,-17.5562,0.183105,-0.0610352,-0.366211,-0.678711,0.717712,-0.131165,0.0830994,65131,6755,3211,2534,-30051
552,440967,-0.574219,-9.71387,-0.626855,-93.7134,3.36182,-17.5507,0.12207,0,-0.244141,-0.678741,0.717712,-0.131104,0.0830688,65131,6755,3210,2534,-30051
558,440973,-0.583789,-9.69951,-0.631641,-93.7134,3.36182,-17.5452,0.305176,-0.0610352,-0.244141,-0.678741,0.717712,-0.131073,0.0830688,65131,6756,3209,2534,-30051
564,440979,-0.574219,-9.71387,-0.617285,-93.7134,3.36182,-17.5397,0.305176,-0.0610352,-0.366211,-0.678741,0.717712,-0.131042,0.0830688,65131,6757,3211,2534,-30051
570,440985,-0.583789,-9.68516,-0.636426,-93.7134,3.36182,-17.5397,0.366211,-0.183105,-0.427246,-0.678772,0.717712,-0.131012,0.0830383,65132,6759,3211,2534,-30051
576,440991,-0.588574,-9.75693,-0.689063,-93.7134,3.35632,-17.5342,0.0610352,-0.12207,-0.427246,-0.678772,0.717712,-0.130981,0.0830383,65132,6759,3211,2534,-30051
582,440997,-0.60293,-9.74258,-0.669922,-93.7079,3.35083,-17.5232,0.427246,-0.12207,-0.610352,-0.678772,0.717712,-0.13089,0.0830078,65133,6760,3214,2534,-30051
588,441003,-0.545508,-9.66123,-0.574219,-93.7079,3.35083,-17.5232,0.610352,-0.305176,-0.549316,-0.678802,0.717712,-0.130859,0.0830078,65134,6760,3216,2534,-30051
594,441009,-0.583789,-9.68516,-0.60293,-93.7024,3.34534,-17.5177,0.305176,-0.12207,-0.549316,-0.678802,0.717712,-0.130798,0.0830078,65135,6759,3221,2534,-30051
600,441015,-0.579004,-9.72822,-0.645996,-93.7024,3.34534,-17.5122,-0.0610352,0,-0.610352,-0.678802,0.717712,-0.130768,0.0830078,65135,6759,3222,2534,-30051
606,441021,-0.579004,-9.73301,-0.636426,-93.7079,3.34534,-17.5122,-0.12207,-0.0610352,-0.549316,-0.678802,0.717712,-0.130737,0.0830078,65135,6758,3219,2534,-30051
612,441027,-0.583789,-9.70908,-0.645996,-93.7024,3.33435,-17.5012,0.183105,-0.0610352,-0.671387,-0.678802,0.717743,-0.130646,0.0830078,65135,6755,3207,2534,-30051
618,441033,-0.559863,-9.70908,-0.650781,-93.7024,3.33435,-17.5012,0.366211,-0.12207,-0.549316,-0.678833,0.717743,-0.130615,0.0830078,65135,6753,3204,2534,-30051
624,441039,-0.574219,-9.70908,-0.6125,-93.7024,3.32886,-17.4957,0.12207,-0.0610352,-0.610352,-0.678833,0.717743,-0.130585,0.0829773,65136,6753,3201,2534,-30051
630,441045,-0.583789,-9.72344,-0.645996,-93.7024,3.32886,-17.4957,0.0610352,-0.0610352,-0.366211,-0.678833,0.717743,-0.130554,0.0829773,65137,6753,3199,2534,-30051
636,441051,-0.60293,-9.73779,-0.698633,-93.7024,3.32886,-17.4902,0,-0.0610352,-0.610352,-0.678833,0.717743,-0.130524,0.0829773,65137,6752,3199,2534,-30051
642,441057,-0.569434,-9.67559,-0.626855,-93.6969,3.32336,-17.4792,0.488281,-0.244141,-0.549316,-0.678864,0.717743,-0.130432,0.0829773,65140,6749,3208,2534,-30051
648,441063,-0.550293,-9.68037,-0.607715,-93.6969,3.31787,-17.4792,0.366211,-0.183105,-0.610352,-0.678864,0.717743,-0.130402,0.0829468,65139,6747,3211,2534,-30051
654,441069,-0.574219,-9.70908,-0.655566,-93.6969,3.31787,-17.4738,0.305176,-0.183105,-0.671387,-0.678864,0.717743,-0.130341,0.0829468,65140,6746,3215,2534,-30051
660,441075,-0.569434,-9.71865,-0.636426,-93.6969,3.31238,-17.4683,0.0610352,-0.183105,-0.732422,-0.678864,0.717743,-0.13031,0.0829468,65140,6744,3217,2534,-30051
666,441081,-0.564648,-9.7043,-0.650781,-93.6969,3.31238,-17.4683,0.12207,-0.0610352,-0.549316,-0.678864,0.717743,-0.130249,0.0829468,65140,6744,3216,2534,-30051
672,441087,-0.564648,-9.72822,-0.660352,-93.6969,3.30688,-17.4573,0.12207,-0.183105,-0.610352,-0.678894,0.717773,-0.130188,0.0829468,65140,6744,3220,2534,-30051
678,441093,-0.579004,-9.72344,-0.636426,-93.6914,3.30139,-17.4573,0.366211,-0.0610352,-0.488281,-0.678894,0.717743,-0.130157,0.0829468,65139,6743,3219,2534,-30051
684,441099,-0.559863,-9.7043,-0.655566,-93.6914,3.30139,-17.4518,0.244141,-0.183105,-0.366211,-0.678894,0.717743,-0.130127,0.0829163,65139,6743,3219,2534,-30051
690,441105,-0.574219,-9.72344,-0.626855,-93.6914,3.30139,-17.4463,0.12207,0,-0.366211,-0.678894,0.717773,-0.130096,0.0829163,65139,6744,3217,2534,-30051
696,441111,-0.559863,-9.72344,-0.626855,-93.6914,3.2959,-17.4463,0.244141,-0.0610352,-0.427246,-0.678925,0.717773,-0.130066,0.0829163,65139,6745,3216,2534,-30051
702,441117,-0.540723,-9.69951,-0.60293,-93.6914,3.2959,-17.4408,0.0610352,0,-0.488281,-0.678925,0.717773,-0.130005,0.0828857,65141,6746,3215,2534,-30051
708,441123,-0.559863,-9.69951,-0.593359,-93.6914,3.2959,-17.4353,0.0610352,0,-0.244141,-0.678925,0.717773,-0.129974,0.0828857,65142,6747,3214,2534,-30051
714,441129,-0.559863,-9.73779,-0.631641,-93.6914,3.29041,-17.4353,0,0,-0.305176,-0.678925,0.717773,-0.129944,0.0828857,65142,6747,3213,2534,-30051
720,441135,-0.555078,-9.72344,-0.650781,-93.6914,3.29041,-17.4298,0.12207,0.0610352,-0.244141,-0.678925,0.717773,-0.129913,0.0828552,65143,6748,3211,2534,-30051
726,441141,-0.583789,-9.69473,-0.636426,-93.6914,3.29041,-17.4298,0.0610352,0,-0.366211,-0.678925,0.717773,-0.129883,0.0828552,65144,6749,3208,2534,-30051
732,441147,-0.555078,-9.70908,-0.6125,-93.6859,3.28491,-17.4243,0.12207,0.0610352,-0.305176,-0.678925,0.717773,-0.129852,0.0828552,65145,6750,3203,2534,-30051
738,441153,-0.559863,-9.71387,-0.645996,-93.6859,3.28491,-17.4188,0,-0.0610352,-0.244141,-0.678925,0.717804,-0.129822,0.0828247,65144,6750,3202,2534,-30051
744,441159,-0.569434,-9.73301,-0.669922,-93.6859,3.28491,-17.4188,0.0610352,0,-0.244141,-0.678925,0.717804,-0.129791,0.0828247,65144,6750,3202,2534,-30051
750,441165,-0.588574,-9.74736,-0.689063,-93.6859,3.28491,-17.4133,0.0610352,0,-0.366211,-0.678925,0.717804,-0.129761,0.0828247,65144,6750,3203,2534,-30051
756,441171,-0.564648,-9.73301,-0.660352,-93.6859,3.27942,-17.4078,0.12207,-0.12207,-0.427246,-0.678955,0.717804,-0.12973,0.0828247,65144,6748,3209,2534,-30051
762,441177,-0.550293,-9.66123,-0.588574,-93.6859,3.27942,-17.4023,0.427246,-0.244141,-0.427246,-0.678955,0.717804,-0.129669,0.0827942,65145,6747,3212,2534,-30051
768,441183,-0.559863,-9.68037,-0.6125,-93.6804,3.27393,-17.3969,0.183105,-0.0610352,-0.427246,-0.678986,0.717804,-0.129639,0.0827942,65145,6747,3213,2534,-30051
774,441189,-0.559863,-9.72344,-0.60293,-93.6804,3.27393,-17.3969,0.0610352,0.12207,-0.244141,-0.678986,0.717804,-0.129608,0.0827942,65145,6746,3213,2534,-30051
780,441195,-0.555078,-9.72344,-0.641211,-93.6804,3.27393,-17.3969,0,0.0610352,-0.244141,-0.678986,0.717804,-0.129578,0.0827637,65147,6747,3211,2534,-30051
786,441201,-0.574219,-9.69951,-0.641211,-93.6804,3.27393,-17.3914,0,0,-0.0610352,-0.678986,0.717804,-0.129578,0.0827637,65149,6748,3212,2534,-30051
792,441207,-0.574219,-9.7043,-0.588574,-93.6804,3.26843,-17.3859,0.0610352,-0.0610352,-0.366211,-0.678986,0.717804,-0.129517,0.0827332,65152,6751,3218,2534,-30051
798,441213,-0.574219,-9.71865,-0.655566,-93.6859,3.26843,-17.3859,0,0,-0.366211,-0.678986,0.717834,-0.129486,0.0827332,65152,6751,3222,2534,-30051
804,441219,-0.579004,-9.73301,-0.645996,-93.6859,3.26843,-17.3804,0,0,-0.305176,-0.678986,0.717834,-0.129456,0.0827332,65150,6750,3228,2534,-30051
810,441225,-0.598145,-9.73301,-0.641211,-93.6859,3.26843,-17.3804,0,0,-0.244141,-0.678986,0.717834,-0.129456,0.0827026,65150,6749,3228,2534,-30051
816,441231,-0.550293,-9.74258,-0.636426,-93.6804,3.26294,-17.3749,0.0610352,-0.183105,-0.366211,-0.678986,0.717834,-0.129425,0.0827026,65150,6749,3227,2534,-30051
822,441237,-0.574219,-9.70908,-0.636426,-93.6804,3.26294,-17.3694,0.305176,-0.0610352,-0.305176,-0.678986,0.717834,-0.129364,0.0826721,65150,6750,3220,2534,-30051
828,441243,-0.540723,-9.70908,-0.617285,-93.6804,3.26294,-17.3639,0.305176,-0.12207,-0.427246,-0.679016,0.717834,-0.129333,0.0826721,65150,6751,3216,2534,-30051
834,441249,-0.569434,-9.70908,-0.607715,-93.6804,3.25745,-17.3639,0.183105,0,-0.366211,-0.679016,0.717834,-0.129303,0.0826721,65152,6751,3214,2534,-30051
840,441255,-0.550293,-9.7043,-0.636426,-93.6804,3.25745,-17.3584,0.183105,-0.183105,-0.305176,-0.679016,0.717834,-0.129272,0.0826721,65153,6752,3210,2534,-30051
846,441261,-0.564648,-9.70908,-0.631641,-93.6749,3.25745,-17.3529,0.305176,-0.12207,-0.366211,-0.679016,0.717834,-0.129242,0.0826416,65154,6750,3207,2534,-30051
852,441267,-0.574219,-9.71865,-0.60293,-93.6749,3.25195,-17.3474,0.305176,-0.0610352,-0.244141,-0.679047,0.717834,-0.129181,0.0826416,65153,6751,3198,2534,-30051
858,441273,-0.559863,-9.69951,-0.607715,-93.6749,3.25195,-17.3474,0.305176,-0.12207,-0.12207,-0.679047,0.717804,-0.12915,0.0826111,65152,6752,3195,2534,-30051
864,441279,-0.583789,-9.72344,-0.626855,-93.6694,3.25195,-17.3419,0.183105,-0.12207,-0.305176,-0.679077,0.717804,-0.12912,0.0826111,65154,6753,3194,2534,-30051
870,441285,-0.583789,-9.74258,-0.6125,-93.6694,3.25195,-17.3364,0.183105,-0.12207,-0.427246,-0.679077,0.717804,-0.129089,0.0826111,65154,6753,3192,2534,-30051
876,441291,-0.559863,-9.70908,-0.598145,-93.6694,3.24646,-17.3364,0.244141,0,-0.488281,-0.679077,0.717804,-0.129059,0.0825806,65154,6752,3193,2534,-30051
882,441297,-0.540723,-9.68994,-0.559863,-93.6694,3.24646,-17.3309,0.305176,-0.12207,-0.427246,-0.679108,0.717804,-0.128998,0.0825806,65151,6749,3192,2534,-30051
888,441303,-0.559863,-9.69473,-0.559863,-93.6694,3.24097,-17.3254,-0.0610352,-0.12207,-0.366211,-0.679108,0.717834,-0.128967,0.0825806,65147,6747,3191,2534,-30051
894,441309,-0.531152,-9.7043,-0.617285,-93.6694,3.24097,-17.3254,-0.0610352,0,-0.427246,-0.679108,0.717834,-0.128937,0.0825806,65146,6745,3191,2534,-30051
900,441315,-0.564648,-9.73779,-0.636426,-93.6694,3.24097,-17.3199,-0.427246,0.12207,-0.549316,-0.679077,0.717834,-0.128906,0.0825806,65146,6745,3189,2534,-30051
906,441321,-0.540723,-9.71865,-0.660352,-93.6694,3.23547,-17.3199,-0.12207,0.0610352,-0.366211,-0.679077,0.717865,-0.128876,0.08255,65148,6744,3190,2534,-30051
912,441327,-0.550293,-9.70908,-0.645996,-93.6749,3.23547,-17.3145,-0.0610352,0.183105,-0.427246,-0.679077,0.717865,-0.128845,0.08255,65056,6746,3184,2534,-30051
918,441333,-0.564648,-9.75215,-0.660352,-93.6749,3.22998,-17.309,-0.183105,0,-0.366211,-0.679047,0.717896,-0.128815,0.08255,65017,6747,3182,2534,-30051
924,441339,-0.559863,-9.73779,-0.645996,-93.6749,3.22998,-17.309,-0.183105,0.0610352,-0.366211,-0.679047,0.717896,-0.128784,0.08255,64982,6748,3183,2534,-30051
930,441345,-0.574219,-9.73301,-0.674707,-93.6749,3.22998,-17.309,-0.0610352,0,-0.305176,-0.679047,0.717896,-0.128784,0.08255,64950,6748,3185,2534,-30051
936,441351,-0.559863,-9.73301,-0.631641,-93.6749,3.22998,-17.3035,0.183105,-0.12207,-0.366211,-0.679047,0.717896,-0.128754,0.08255,64921,6747,3189,2534,-30051
942,441357,-0.579004,-9.73779,-0.650781,-93.6749,3.22449,-17.298,0.244141,-0.0610352,-0.427246,-0.679077,0.717896,-0.128693,0.0825195,64923,6746,3197,2534,-30051
948,441363,-0.550293,-9.71387,-0.665137,-93.6694,3.22449,-17.2925,0.244141,-0.244141,-0.366211,-0.679077,0.717896,-0.128662,0.0825195,64947,6745,3200,2534,-30051
954,441369,-0.516797,-9.70908,-0.650781,-93.6694,3.21899,-17.2925,0.366211,-0.244141,-0.305176,-0.679108,0.717896,-0.128632,0.082489,64968,6745,3202,2534,-30051
960,441375,-0.540723,-9.71865,-0.593359,-93.6694,3.21899,-17.287,0.366211,-0.0610352,-0.427246,-0.679108,0.717896,-0.128601,0.082489,64987,6747,3207,2534,-30051
966,441381,-0.559863,-9.69951,-0.6125,-93.6639,3.21899,-17.2815,0.12207,0,-0.244141,-0.679108,0.717896,-0.128571,0.082489,65003,6748,3209,2534,-30051
972,441387,-0.555078,-9.69951,-0.626855,-93.6639,3.21899,-17.2815,0.12207,-0.0610352,-0.305176,-0.679138,0.717896,-0.12851,0.0824585,65032,6754,3212,2534,-30051
978,441393,-0.526367,-9.7043,-0.641211,-93.6639,3.2135,-17.276,0,0,-0.12207,-0.679138,0.717896,-0.12851,0.0824585,65045,6756,3211,2534,-30051
984,441399,-0.559863,-9.72344,-0.641211,-93.6639,3.2135,-17.276,-0.183105,-0.0610352,-0.305176,-0.679108,0.717896,-0.128479,0.0824585,65057,6757,3209,2534,-30051
990,441405,-0.545508,-9.71387,-0.62207,-93.6694,3.2135,-17.2705,-0.12207,0,-0.0610352,-0.679108,0.717896,-0.128448,0.082428,65066,6758,3207,2534,-30051
996,441411,-0.564648,-9.72344,-0.641211,-93.6694,3.2135,-17.2705,0,0,0,-0.679108,0.717926,-0.128448,0.082428,65075,6756,3206,2534,-30051
1002,441417,-0.540723,-9.70908,-0.60293,-93.6694,3.2135,-17.265,0,0,-0.183105,-0.679108,0.717926,-0.128418,0.0823975,65088,6757,3204,2534,-30051
1008,441423,-0.574219,-9.72822,-0.60293,-93.6694,3.2135,-17.2595,0,0,-0.0610352,-0.679108,0.717926,-0.128387,0.0823669,65093,6758,3206,2534,-30051
1014,441429,-0.545508,-9.71387,-0.62207,-93.6694,3.2135,-17.2595,0,0.12207,0.0610352,-0.679108,0.717926,-0.128387,0.0823669,65098,6760,3206,2534,-30051
1020,441435,-0.555078,-9.73301,-0.650781,-93.6694,3.2135,-17.254,0,-0.183105,0,-0.679138,0.717926,-0.128357,0.0823364,65102,6761,3207,2534,-30051
1026,441441,-0.559863,-9.70908,-0.62207,-93.6694,3.2135,-17.254,0.183105,-0.0610352,0,-0.679138,0.717926,-0.128357,0.0823364,65105,6761,3209,2525,-30050
1032,441447,-0.540723,-9.69951,-0.607715,-93.6639,3.2135,-17.2485,0.12207,-0.0610352,0,-0.679138,0.717926,-0.128326,0.0823059,65116,6757,3209,2525,-30050
1038,441453,-0.559863,-9.68994,-0.617285,-93.6639,3.2135,-17.2485,0,0,-0.12207,-0.679138,0.717926,-0.128296,0.0822754,65121,6755,3211,2525,-30050
1044,441459,-0.545508,-9.71387,-0.6125,-93.6639,3.2135,-17.243,0.12207,-0.183105,0,-0.679138,0.717926,-0.128296,0.0822754,65075,6753,3214,2525,-30050
1050,441465,-0.564648,-9.71865,-0.62207,-93.6639,3.2135,-17.243,-0.0610352,0,0,-0.679138,0.717926,-0.128265,0.0822449,65084,6751,3217,2525,-30050
1056,441471,-0.540723,-9.72822,-0.641211,-93.6639,3.2135,-17.2375,-0.12207,-0.0610352,0,-0.679138,0.717926,-0.128265,0.0822449,65092,6749,3220,2525,-30050
1062,441477,-0.559863,-9.73301,-0.660352,-93.6694,3.2135,-17.2321,0,0,-0.0610352,-0.679138,0.717957,-0.128235,0.0822144,65011,6745,3218,2525,-30050
1068,441483,-0.526367,-9.74736,-0.679492,-93.6694,3.2135,-17.2321,0.12207,0,0.0610352,-0.679138,0.717957,-0.128204,0.0821838,64976,6745,3214,2525,-30050
1074,441489,-0.540723,-9.73779,-0.674707,-93.6639,3.2135,-17.2266,0.0610352,-0.0610352,0,-0.679138,0.717957,-0.128204,0.0821838,64945,6744,3209,2525,-30050
1080,441495,-0.564648,-9.74258,-0.660352,-93.6639,3.2135,-17.2266,0.244141,0,-0.0610352,-0.679169,0.717957,-0.128174,0.0821533,64917,6745,3208,2525,-30050
1086,441501,-0.559863,-9.72822,-0.636426,-93.6639,3.2135,-17.2266,0.305176,-0.12207,0,-0.679169,0.717957,-0.128174,0.0821533,64941,6743,3210,2525,-30050
1092,441507,-0.550293,-9.71387,-0.641211,-93.6639,3.2135,-17.2211,0.305176,-0.12207,-0.0610352,-0.679199,0.717926,-0.128143,0.0821228,64979,6740,3216,2525,-30050
1098,441513,-0.531152,-9.72822,-0.617285,-93.6584,3.2135,-17.2156,0.305176,0,-0.0610352,-0.679199,0.717926,-0.128113,0.0821228,64995,6740,3219,2525,-30050
1104,441519,-0.516797,-9.73301,-0.631641,-93.6584,3.2135,-17.2156,0.305176,0,-0.0610352,-0.679199,0.717926,-0.128113,0.0820923,65010,6741,3221,2525,-30050
1110,441525,-0.531152,-9.66602,-0.583789,-93.6584,3.2135,-17.2101,0.244141,-0.12207,0.12207,-0.679199,0.717926,-0.128082,0.0820923,65025,6743,3219,2525,-30050
1116,441531,-0.545508,-9.7043,-0.6125,-93.6584,3.21899,-17.2101,0.12207,-0.12207,0,-0.67923,0.717926,-0.128082,0.0820618,64989,6746,3222,2525,-30050
1122,441537,-0.559863,-9.72822,-0.60293,-93.6584,3.21899,-17.2046,0.183105,0,0,-0.67923,0.717926,-0.128052,0.0820313,64928,6750,3227,2525,-30050
1128,441543,-0.564648,-9.70908,-0.607715,-93.6584,3.21899,-17.1991,0.244141,-0.0610352,0.0610352,-0.67923,0.717926,-0.128021,0.0820007,64952,6752,3234,2525,-30050
1134,441549,-0.550293,-9.7043,-0.583789,-93.653,3.21899,-17.1991,0.244141,-0.183105,-0.0610352,-0.67926,0.717926,-0.128021,0.0820007,64923,6752,3240,2525,-30050
1140,441555,-0.564648,-9.72344,-0.641211,-93.653,3.21899,-17.1936,0.0610352,0,0.0610352,-0.67926,0.717926,-0.127991,0.0819702,64947,6751,3244,2525,-30050
1146,441561,-0.550293,-9.72344,-0.6125,-93.653,3.21899,-17.1936,0.244141,0,0.0610352,-0.67926,0.717926,-0.127991,0.0819702,64969,6748,3248,2525,-30050
1152,441567,-0.535937,-9.71387,-0.607715,-93.653,3.21899,-17.1881,0.244141,0.12207,0.12207,-0.67926,0.717926,-0.12796,0.0819397,64956,6744,3250,2525,-30050
1158,441573,-0.564648,-9.71387,-0.636426,-93.653,3.21899,-17.1881,0.244141,0.0610352,0,-0.679291,0.717896,-0.12796,0.0819397,64976,6745,3252,2525,-30050
1164,441579,-0.545508,-9.68994,-0.617285,-93.6475,3.21899,-17.1826,0.305176,-0.183105,0.244141,-0.679291,0.717896,-0.12793,0.0819092,64944,6746,3254,2525,-30050
1170,441585,-0.559863,-9.68516,-0.588574,-93.6475,3.21899,-17.1826,0.244141,0,0.0610352,-0.679291,0.717896,-0.12793,0.0819092,64965,6747,3255,2525,-30050
1176,441591,-0.545508,-9.7043,-0.598145,-93.6475,3.21899,-17.1826,0.244141,-0.0610352,0.0610352,-0.679321,0.717896,-0.127899,0.0818787,64984,6747,3255,2525,-30050
1182,441597,-0.531152,-9.70908,-0.631641,-93.6475,3.21899,-17.1771,0.0610352,0,0,-0.679321,0.717896,-0.127899,0.0818481,65017,6746,3247,2525,-30050
1188,441603,-0.564648,-9.73301,-0.617285,-93.6475,3.21899,-17.1771,0.0610352,0,0.0610352,-0.679321,0.717896,-0.127869,0.0818481,65031,6747,3241,2525,-30050
1194,441609,-0.540723,-9.71387,-0.6125,-93.6475,3.21899,-17.1716,0.12207,0.0610352,0.0610352,-0.679321,0.717896,-0.127869,0.0818176,65045,6748,3231,2525,-30050
1200,441615,-0.545508,-9.71387,-0.6125,-93.6475,3.22449,-17.1716,0,-0.12207,0.0610352,-0.679321,0.717896,-0.127838,0.0818176,65056,6749,3223,2525,-30050
1206,441621,-0.555078,-9.70908,-0.574219,-93.6475,3.22449,-17.1661,0.0610352,0,0.183105,-0.679321,0.717896,-0.127838,0.0817871,65066,6750,3218,2525,-30050
1212,441627,-0.559863,-9.73301,-0.588574,-93.642,3.22449,-17.1606,0.12207,-0.0610352,0.305176,-0.679352,0.717896,-0.127838,0.0817566,65082,6753,3214,2525,-30050
1218,441633,-0.574219,-9.71387,-0.631641,-93.642,3.22449,-17.1606,0.0610352,-0.0610352,0.183105,-0.679352,0.717896,-0.127808,0.0817261,65088,6754,3215,2525,-30050
1224,441639,-0.579004,-9.73779,-0.617285,-93.642,3.22449,-17.1606,-0.12207,-0.0610352,0.305176,-0.679352,0.717896,-0.127808,0.0817261,65094,6754,3216,2525,-30050
1230,441645,-0.535937,-9.72344,-0.631641,-93.642,3.22998,-17.1552,0.183105,-0.0610352,0.183105,-0.679352,0.717896,-0.127808,0.0816956,65101,6754,3218,2525,-30050
1236,441651,-0.550293,-9.71865,-0.588574,-93.642,3.22998,-17.1552,0,-0.0610352,0.244141,-0.679352,0.717896,-0.127808,0.081665,65107,6752,3219,2525,-30050
1242,441657,-0.550293,-9.72822,-0.631641,-93.642,3.22998,-17.1497,-0.0610352,-0.12207,0.183105,-0.679352,0.717896,-0.127777,0.0816345,65116,6751,3218,2525,-30050
1248,441663,-0.574219,-9.73301,-0.626855,-93.642,3.22998,-17.1497,-0.0610352,0,0.0610352,-0.679352,0.717896,-0.127777,0.081604,65119,6752,3218,2525,-30050
1254,441669,-0.569434,-9.72344,-0.617285,-93.6475,3.22998,-17.1442,-0.12207,0,0.0610352,-0.679352,0.717896,-0.127747,0.081604,65122,6752,3217,2525,-30050
1260,441675,-0.564648,-9.71865,-0.617285,-93.6475,3.23547,-17.1442,-0.12207,-0.0610352,0.183105,-0.679352,0.717896,-0.127747,0.0815735,65124,6752,3218,2534,-30051
1266,441681,-0.559863,-9.72822,-0.593359,-93.6475,3.23547,-17.1387,0,-0.0610352,0.0610352,-0.679352,0.717896,-0.127747,0.0815735,65128,6752,3218,2534,-30051
1272,441687,-0.555078,-9.71387,-0.626855,-93.6475,3.23547,-17.1387,-0.244141,0,0.0610352,-0.679352,0.717926,-0.127716,0.081543,65134,6752,3215,2534,-30051
1278,441693,-0.540723,-9.71865,-0.631641,-93.6475,3.23547,-17.1332,-0.183105,0,0.0610352,-0.679352,0.717926,-0.127716,0.0815125,65136,6753,3216,2534,-30051
1284,441699,-0.583789,-9.71387,-0.626855,-93.6475,3.23547,-17.1332,0,-0.0610352,0.0610352,-0.679352,0.717926,-0.127686,0.0815125,65136,6754,3217,2534,-30051
1290,441705,-0.545508,-9.72344,-0.650781,-93.6475,3.23547,-17.1277,-0.12207,-0.12207,0.0610352,-0.679352,0.717926,-0.127686,0.0814819,65138,6754,3218,2534,-30051
1296,441711,-0.559863,-9.73301,-0.6125,-93.6475,3.23547,-17.1277,0.0610352,-0.0610352,0,-0.679352,0.717926,-0.127686,0.0814514,65141,6755,3218,2534,-30051
1302,441717,-0.569434,-9.71865,-0.6125,-93.6475,3.24097,-17.1222,0,0,0.183105,-0.679352,0.717926,-0.127655,0.0814209,65145,6754,3211,2534,-30051
1308,441723,-0.588574,-9.70908,-0.6125,-93.6475,3.23547,-17.1222,-0.0610352,-0.0610352,-0.0610352,-0.679352,0.717957,-0.127655,0.0814209,65144,6755,3206,2534,-30051
1314,441729,-0.545508,-9.72344,-0.636426,-93.6475,3.24097,-17.1167,-0.0610352,-0.0610352,0.12207,-0.679352,0.717957,-0.127625,0.0813904,65144,6755,3203,2534,-30051
1320,441735,-0.555078,-9.72344,-0.617285,-93.6475,3.24097,-17.1167,0,0,0.0610352,-0.679352,0.717957,-0.127625,0.0813904,65143,6755,3199,2534,-30051
1326,441741,-0.550293,-9.72822,-0.631641,-93.6475,3.24097,-17.1167,0,0,0.183105,-0.679352,0.717957,-0.127625,0.0813599,65142,6755,3197,2534,-30051
1332,441747,-0.569434,-9.72344,-0.598145,-93.6475,3.24097,-17.1112,0,0,0,-0.679352,0.717957,-0.127594,0.0813293,65094,6756,3198,2534,-30051
1338,441753,-0.550293,-9.71865,-0.60293,-93.6475,3.24097,-17.1057,0,-0.12207,0.12207,-0.679352,0.717957,-0.127594,0.0813293,65051,6756,3197,2534,-30051
1344,441759,-0.564648,-9.72344,-0.626855,-93.6475,3.24097,-17.1057,0,0,0,-0.679352,0.717957,-0.127563,0.0812988,65062,6756,3198,2534,-30051
1350,441765,-0.545508,-9.74258,-0.6125,-93.653,3.24097,-17.1057,-0.183105,0.12207,0.0610352,-0.679352,0.717957,-0.127563,0.0812988,65072,6755,3201,2534,-30051
1356,441771,-0.559863,-9.72344,-0.636426,-93.653,3.24097,-17.1002,0,0,0,-0.679352,0.717957,-0.127563,0.0812683,65079,6754,3203,2534,-30051
1362,441777,-0.540723,-9.70908,-0.60293,-93.653,3.24646,-17.1002,0,0,0.183105,-0.679352,0.717987,-0.127533,0.0812378,65095,6752,3214,2534,-30051
1368,441783,-0.526367,-9.7043,-0.607715,-93.653,3.24646,-17.1002,0.12207,0.0610352,0.0610352,-0.679382,0.717957,-0.127533,0.0812378,65100,6751,3216,2534,-30051
1374,441789,-0.579004,-9.73779,-0.641211,-93.653,3.24646,-17.0947,-0.0610352,0.0610352,-0.12207,-0.679382,0.717987,-0.127533,0.0812378,65105,6751,3216,2534,-30051
1380,441795,-0.564648,-9.71865,-0.645996,-93.653,3.24646,-17.0947,0,0,0,-0.679382,0.717987,-0.127502,0.0812073,65110,6750,3215,2534,-30051
1386,441801,-0.559863,-9.71387,-0.607715,-93.653,3.24646,-17.0947,0,0,-0.0610352,-0.679382,0.717987,-0.127502,0.0812073,65114,6749,3213,2534,-30051
1392,441807,-0.555078,-9.71865,-0.641211,-93.6475,3.24646,-17.0892,0.12207,0,0.0610352,-0.679382,0.717987,-0.127472,0.0811768,65122,6746,3212,2534,-30051
1398,441813,-0.555078,-9.70908,-0.607715,-93.653,3.24646,-17.0837,-0.0610352,0,0.0610352,-0.679382,0.717987,-0.127472,0.0811768,65127,6746,3212,2534,-30051
1404,441819,-0.569434,-9.71387,-0.650781,-93.6475,3.24646,-17.0837,0.0610352,0.0610352,-0.12207,-0.679382,0.717987,-0.127441,0.0811462,65130,6747,3211,2534,-30051
1410,441825,-0.559863,-9.72344,-0.62207,-93.653,3.24646,-17.0837,-0.0610352,0,0,-0.679382,0.717987,-0.127441,0.0811462,65134,6748,3209,2534,-30051
1416,441831,-0.579004,-9.7043,-0.631641,-93.653,3.24646,-17.0837,-0.12207,0,0,-0.679382,0.717987,-0.127441,0.0811462,65136,6748,3205,2534,-30051
1422,441837,-0.550293,-9.69473,-0.607715,-93.653,3.24646,-17.0782,0,0,0,-0.679382,0.717987,-0.127411,0.0811157,65090,6746,3199,2534,-30051
1428,441843,-0.540723,-9.70908,-0.593359,-93.653,3.24646,-17.0782,-0.12207,0,-0.12207,-0.679382,0.718018,-0.127411,0.0811157,65098,6744,3201,2534,-30051
1434,441849,-0.579004,-9.72344,-0.607715,-93.653,3.24097,-17.0728,-0.183105,0,-0.12207,-0.679382,0.718018,-0.12738,0.0810852,65055,6743,3202,2534,-30051
1440,441855,-0.579004,-9.71865,-0.607715,-93.653,3.24646,-17.0728,0,0.0610352,0,-0.679382,0.718018,-0.12738,0.0810852,65018,6743,3203,2534,-30051
1446,441861,-0.555078,-9.71387,-0.626855,-93.653,3.24097,-17.0728,-0.0610352,0.0610352,0.0610352,-0.679352,0.718018,-0.12735,0.0810852,64984,6743,3204,2534,-30051
1452,441867,-0.545508,-9.72822,-0.636426,-93.653,3.24097,-17.0673,-0.12207,0,-0.0610352,-0.679352,0.718018,-0.12735,0.0810547,64927,6743,3203,2534,-30051
1458,441873,-0.559863,-9.69951,-0.636426,-93.653,3.24646,-17.0673,-0.0610352,0,0.0610352,-0.679352,0.718048,-0.127319,0.0810547,64901,6743,3204,2534,-30051
1464,441879,-0.545508,-9.73301,-0.607715,-93.653,3.24646,-17.0618,0,0,0,-0.679352,0.718048,-0.127319,0.0810242,64926,6744,3203,2534,-30051
1470,441885,-0.598145,-9.71865,-0.598145,-93.653,3.24646,-17.0618,0.183105,0,0.12207,-0.679382,0.718048,-0.127319,0.0810242,64947,6745,3203,2534,-30051
1476,441891,-0.559863,-9.69473,-0.607715,-93.653,3.24646,-17.0618,0,0,0,-0.679382,0.718018,-0.127319,0.0809937,64965,6747,3205,2534,-30051
1482,441897,-0.540723,-9.69951,-0.655566,-93.653,3.24646,-17.0563,-0.0610352,0,0.0610352,-0.679382,0.718048,-0.127289,0.0809631,64999,6751,3208,2534,-30051
1488,441903,-0.559863,-9.71387,-0.641211,-93.653,3.24646,-17.0563,-0.0610352,0.0610352,0,-0.679382,0.718048,-0.127289,0.0809631,65015,6752,3211,2534,-30051
1494,441909,-0.574219,-9.74736,-0.636426,-93.653,3.24646,-17.0508,0,0,0,-0.679382,0.718048,-0.127258,0.0809631,65031,6753,3212,2534,-30051
1500,441915,-0.559863,-9.74258,-0.60293,-93.653,3.24646,-17.0508,0,0.0610352,0.0610352,-0.679382,0.718048,-0.127258,0.0809326,65044,6752,3214,2534,-30051
1506,441921,-0.574219,-9.72344,-0.626855,-93.653,3.24646,-17.0508,0,-0.183105,0.12207,-0.679382,0.718048,-0.127258,0.0809326,65056,6752,3215,2534,-30051
1512,441927,-0.555078,-9.70908,-0.62207,-93.653,3.24646,-17.0453,-0.0610352,-0.0610352,0.0610352,-0.679382,0.718048,-0.127228,0.0809021,65074,6753,3220,2534,-30051
1518,441933,-0.569434,-9.72822,-0.669922,-93.653,3.24646,-17.0453,0,0.12207,0.0610352,-0.679382,0.718048,-0.127228,0.0809021,65082,6755,3222,2534,-30051
1524,441939,-0.540723,-9.71387,-0.645996,-93.6584,3.25195,-17.0453,-0.183105,0,0,-0.679382,0.718048,-0.127228,0.0808716,65088,6756,3223,2534,-30051
1530,441945,-0.555078,-9.72822,-0.641211,-93.6584,3.24646,-17.0398,0,0,-0.0610352,-0.679382,0.718048,-0.127228,0.0808716,65094,6757,3221,2534,-30051
1536,441951,-0.550293,-9.73779,-0.631641,-93.6584,3.25195,-17.0398,0.244141,-0.12207,0,-0.679382,0.718079,-0.127197,0.0808411,65100,6758,3217,2534,-30051
1542,441957,-0.579004,-9.69473,-0.6125,-93.653,3.25195,-17.0343,0,0,0,-0.679382,0.718048,-0.127167,0.0808411,65112,6756,3211,2534,-30051
1548,441963,-0.559863,-9.7043,-0.607715,-93.653,3.25195,-17.0343,0,0,0.12207,-0.679382,0.718079,-0.127167,0.0808105,65067,6754,3206,2534,-30051
1554,441969,-0.588574,-9.72344,-0.617285,-93.653,3.25195,-17.0343,-0.0610352,0,-0.244141,-0.679382,0.718079,-0.127167,0.0808105,65076,6753,3201,2534,-30051
1560,441975,-0.555078,-9.72822,-0.650781,-93.653,3.25195,-17.0288,0,-0.0610352,0.12207,-0.679382,0.718079,-0.127136,0.08078,65083,6751,3194,2534,-30051
1566,441981,-0.559863,-9.74258,-0.626855,-93.653,3.25195,-17.0288,0.0610352,-0.0610352,-0.12207,-0.679382,0.718079,-0.127136,0.08078,65089,6750,3190,2534,-30051
1572,441987,-0.559863,-9.70908,-0.62207,-93.6584,3.25195,-17.0233,-0.12207,-0.0610352,0.0610352,-0.679382,0.718079,-0.127106,0.0807495,65098,6749,3192,2534,-30051
1578,441993,-0.550293,-9.73301,-0.6125,-93.6584,3.25195,-17.0233,0,0,-0.0610352,-0.679382,0.718079,-0.127106,0.0807495,65103,6750,3199,2534,-30051
1584,441999,-0.545508,-9.73301,-0.636426,-93.6584,3.25195,-17.0233,-0.0610352,-0.0610352,-0.0610352,-0.679382,0.718079,-0.127106,0.0807495,65107,6750,3207,2534,-30051
1590,442005,-0.598145,-9.70908,-0.617285,-93.6584,3.25195,-17.0178,0,0,0,-0.679382,0.718079,-0.127075,0.080719,65112,6750,3210,2534,-30051
1596,442011,-0.564648,-9.69951,-0.617285,-93.6584,3.25195,-17.0178,0,0,0,-0.679382,0.718079,-0.127075,0.080719,65117,6750,3212,2534,-30051
1602,442017,-0.555078,-9.71387,-0.6125,-93.6584,3.25195,-17.0123,0,0,-0.12207,-0.679382,0.718109,-0.127045,0.0806885,65078,6751,3210,2534,-30051
1608,442023,-0.574219,-9.70908,-0.60293,-93.6584,3.25195,-17.0123,0.244141,0,-0.0610352,-0.679413,0.718079,-0.127045,0.0806885,65085,6750,3207,2534,-30051
1614,442029,-0.593359,-9.69473,-0.617285,-93.653,3.25195,-17.0123,0.0610352,0,-0.12207,-0.679413,0.718079,-0.127014,0.0806885,65092,6750,3207,2534,-30051
1620,442035,-0.559863,-9.71387,-0.636426,-93.6584,3.25195,-17.0068,-0.183105,-0.0610352,0,-0.679382,0.718109,-0.127014,0.080658,65097,6749,3207,2534,-30051
1626,442041,-0.550293,-9.73779,-0.665137,-93.6584,3.25195,-17.0068,-0.183105,0,0.0610352,-0.679382,0.718109,-0.127014,0.080658,65101,6748,3206,2534,-30051
1632,442047,-0.521582,-9.68037,-0.598145,-93.6584,3.25195,-17.0013,0,-0.183105,-0.0610352,-0.679382,0.718109,-0.126984,0.0806274,65108,6751,3214,2534,-30051
1638,442053,-0.579004,-9.70908,-0.564648,-93.6584,3.25195,-17.0013,0,-0.0610352,0.0610352,-0.679382,0.718109,-0.126984,0.0806274,65112,6751,3215,2534,-30051
1644,442059,-0.569434,-9.70908,-0.650781,-93.6584,3.25195,-17.0013,0,0,0,-0.679382,0.718109,-0.126953,0.0805969,65116,6751,3216,2534,-30051
1650,442065,-0.583789,-9.77607,-0.660352,-93.6584,3.25195,-16.9958,-0.488281,-0.0610352,0,-0.679382,0.71814,-0.126953,0.0805969,65118,6751,3215,2534,-30051
1656,442071,-0.564648,-9.72822,-0.679492,-93.6639,3.25195,-16.9958,0,0,-0.183105,-0.679382,0.71814,-0.126953,0.0805664,65121,6751,3213,2534,-30051
1662,442077,-0.559863,-9.70908,-0.669922,-93.6639,3.25195,-16.9958,0,0,0,-0.679382,0.71814,-0.126923,0.0805664,65126,6749,3213,2534,-30051
1668,442083,-0.526367,-9.74736,-0.636426,-93.6639,3.25195,-16.9904,-0.12207,0,-0.0610352,-0.679382,0.71817,-0.126923,0.0805664,65130,6748,3216,2534,-30051
1674,442089,-0.545508,-9.68994,-0.631641,-93.6639,3.25195,-16.9904,0.0610352,0,-0.183105,-0.679382,0.71817,-0.126892,0.0805359,65132,6746,3217,2534,-30051
1680,442095,-0.555078,-9.70908,-0.598145,-93.6639,3.25195,-16.9904,0.12207,0,0.0610352,-0.679382,0.71817,-0.126892,0.0805359,65133,6746,3218,2534,-30051
1686,442101,-0.540723,-9.73301,-0.636426,-93.6639,3.25195,-16.9849,0,0,0.12207,-0.679382,0.71817,-0.126892,0.0805359,65135,6747,3218,2534,-30051
1692,442107,-0.545508,-9.69951,-0.626855,-93.6639,3.25195,-16.9849,0.244141,0,0,-0.679382,0.71817,-0.126862,0.0805054,65140,6748,3218,2534,-30051
1698,442113,-0.550293,-9.69951,-0.617285,-93.6639,3.25195,-16.9849,0.12207,0.0610352,0.0610352,-0.679382,0.71817,-0.126862,0.0805054,65143,6750,3213,2534,-30051
1704,442119,-0.593359,-9.69951,-0.60293,-93.6584,3.25195,-16.9794,0.244141,0.0610352,0,-0.679382,0.71814,-0.126862,0.0804749,65094,6750,3213,2534,-30051
1710,442125,-0.559863,-9.72344,-0.636426,-93.6584,3.25195,-16.9794,-0.0610352,0,0,-0.679382,0.71817,-0.126831,0.0804749,65102,6751,3212,2534,-30051
1716,442131,-0.588574,-9.74736,-0.655566,-93.6584,3.25195,-16.9794,-0.0610352,0,-0.0610352,-0.679382,0.71817,-0.126831,0.0804749,65108,6752,3212,2534,-30051
1722,442137,-0.559863,-9.69951,-0.588574,-93.6584,3.25195,-16.9739,0.183105,-0.0610352,0,-0.679382,0.71817,-0.126801,0.0804443,65026,6752,3213,2534,-30051
1728,442143,-0.545508,-9.70908,-0.593359,-93.6584,3.25195,-16.9739,0.12207,0,0,-0.679413,0.71817,-0.126801,0.0804443,65040,6752,3213,2525,-30050
1734,442149,-0.531152,-9.72822,-0.60293,-93.6584,3.25195,-16.9739,-0.0610352,0,0,-0.679413,0.71817,-0.126801,0.0804138,65052,6751,3212,2525,-30050
1740,442155,-0.564648,-9.71387,-0.641211,-93.6584,3.25195,-16.9684,0,0,0,-0.679413,0.71817,-0.126801,0.0804138,65060,6751,3209,2525,-30050
1746,442161,-0.559863,-9.71865,-0.626855,-93.6584,3.25195,-16.9684,-0.183105,0,0,-0.679413,0.71817,-0.12677,0.0804138,65066,6751,3209,2525,-30050
1752,442167,-0.598145,-9.72344,-0.631641,-93.6639,3.25195,-16.9629,0,0,0,-0.679382,0.71817,-0.12677,0.0803833,65081,6752,3205,2525,-30050
1758,442173,-0.550293,-9.69473,-0.617285,-93.6639,3.25195,-16.9629,0,0,0,-0.679382,0.71817,-0.12674,0.0803833,65088,6752,3205,2525,-30050
1764,442179,-0.564648,-9.69473,-0.6125,-93.6639,3.25195,-16.9629,-0.0610352,-0.12207,0,-0.679382,0.71817,-0.12674,0.0803528,65096,6753,3208,2525,-30050
1770,442185,-0.593359,-9.72344,-0.650781,-93.6639,3.25195,-16.9629,0,0,0,-0.679382,0.718201,-0.12674,0.0803528,65102,6753,3211,2525,-30050
1776,442191,-0.569434,-9.72822,-0.626855,-93.6639,3.25195,-16.9574,-0.12207,0,0,-0.679382,0.718201,-0.126709,0.0803528,65108,6752,3215,2525,-30050
1782,442197,-0.569434,-9.70908,-0.626855,-93.6639,3.25195,-16.9574,-0.0610352,0.12207,0,-0.679382,0.718201,-0.126709,0.0803223,65068,6751,3218,2525,-30050
1788,442203,-0.583789,-9.71865,-0.641211,-93.6639,3.25195,-16.9574,0,0.0610352,0,-0.679382,0.718201,-0.126709,0.0803223,65028,6749,3219,2525,-30050
1794,442209,-0.555078,-9.73779,-0.626855,-93.6639,3.25195,-16.9519,0.12207,0,0,-0.679382,0.718201,-0.126709,0.0802917,65041,6747,3219,2525,-30050
1800,442215,-0.559863,-9.71387,-0.617285,-93.6639,3.25195,-16.9519,0,0,0,-0.679382,0.718201,-0.126678,0.0802917,65053,6747,3219,2525,-30050
1806,442221,-0.559863,-9.72344,-0.607715,-93.6639,3.25195,-16.9519,0.244141,-0.0610352,0,-0.679413,0.718201,-0.126678,0.0802917,65064,6748,3219,2525,-30050
1812,442227,-0.559863,-9.72344,-0.62207,-93.6639,3.25195,-16.9464,0,0.0610352,0,-0.679413,0.718201,-0.126648,0.0802612,65037,6748,3209,2525,-30050
1818,442233,-0.569434,-9.72344,-0.631641,-93.6639,3.25195,-16.9464,0.0610352,0,0,-0.679413,0.718201,-0.126648,0.0802612,65050,6749,3204,2525,-30050
1824,442239,-0.559863,-9.68516,-0.62207,-93.6639,3.25745,-16.9464,0.0610352,0,0,-0.679413,0.718201,-0.126648,0.0802612,65059,6748,3200,2525,-30050
1830,442245,-0.545508,-9.68994,-0.588574,-93.6639,3.25745,-16.9409,0.0610352,-0.0610352,0,-0.679413,0.718201,-0.126648,0.0802307,65067,6747,3196,2525,-30050
1836,442251,-0.555078,-9.72344,-0.626855,-93.6639,3.25745,-16.9409,-0.183105,-0.12207,0,-0.679413,0.718201,-0.126617,0.0802307,65075,6746,3193,2525,-30050
1842,442257,-0.559863,-9.72344,-0.62207,-93.6639,3.25745,-16.9354,-0.12207,0,0,-0.679413,0.718201,-0.126617,0.0802002,65087,6742,3192,2525,-30050
1848,442263,-0.569434,-9.70908,-0.62207,-93.6639,3.25745,-16.9354,0.0610352,-0.0610352,0,-0.679413,0.718201,-0.126587,0.0802002,65092,6740,3189,2525,-30050
1854,442269,-0.579004,-9.71865,-0.62207,-93.6639,3.25745,-16.9354,-0.0610352,0,0,-0.679413,0.718231,-0.126587,0.0801697,65096,6740,3191,2525,-30050
1860,442275,-0.564648,-9.71387,-0.636426,-93.6639,3.25745,-16.9354,-0.0610352,-0.0610352,0,-0.679413,0.718231,-0.126587,0.0801697,65099,6740,3192,2525,-30050
1866,442281,-0.559863,-9.73301,-0.665137,-93.6639,3.25745,-16.9299,-0.0610352,0,0,-0.679413,0.718231,-0.126587,0.0801697,65102,6741,3192,2525,-30050
1872,442287,-0.555078,-9.71865,-0.636426,-93.6639,3.25745,-16.9299,-0.0610352,0,0,-0.679413,0.718231,-0.126556,0.0801392,65108,6742,3202,2525,-30050
1878,442293,-0.579004,-9.71387,-0.626855,-93.6639,3.25745,-16.9299,0.0610352,0,0,-0.679413,0.718231,-0.126556,0.0801392,65111,6742,3203,2525,-30050
1884,442299,-0.559863,-9.69951,-0.626855,-93.6639,3.25745,-16.9244,0.0610352,-0.12207,0,-0.679413,0.718231,-0.126526,0.0801086,65115,6742,3207,2525,-30050
1890,442305,-0.579004,-9.71387,-0.645996,-93.6639,3.25745,-16.9244,0,-0.0610352,0,-0.679413,0.718231,-0.126526,0.0801086,65117,6743,3208,2525,-30050
1896,442311,-0.574219,-9.71387,-0.617285,-93.6639,3.25745,-16.9244,0,0,0,-0.679413,0.718231,-0.126526,0.0801086,65120,6744,3209,2525,-30050
1902,442317,-0.555078,-9.71387,-0.607715,-93.6639,3.25745,-16.9189,0.0610352,0,0,-0.679413,0.718231,-0.126495,0.0800781,65127,6747,3211,2525,-30050
1908,442323,-0.559863,-9.7043,-0.593359,-93.6639,3.25745,-16.9189,0,-0.12207,0,-0.679413,0.718262,-0.126495,0.0800781,65130,6748,3211,2525,-30050
1914,442329,-0.569434,-9.71865,-0.617285,-93.6639,3.25745,-16.9189,0,0,0,-0.679413,0.718262,-0.126495,0.0800476,65132,6748,3213,2525,-30050
1920,442335,-0.574219,-9.72344,-0.641211,-93.6639,3.25745,-16.9135,-0.0610352,0,0,-0.679413,0.718262,-0.126495,0.0800476,65134,6748,3214,2525,-30050
1926,442341,-0.579004,-9.71865,-0.641211,-93.6694,3.25745,-16.9135,-0.0610352,0,0,-0.679413,0.718262,-0.126465,0.0800476,65134,6748,3213,2525,-30050
1932,442347,-0.545508,-9.70908,-0.631641,-93.6694,3.25745,-16.908,-0.12207,-0.0610352,0,-0.679413,0.718262,-0.126465,0.0800171,65138,6748,3218,2525,-30050
1938,442353,-0.574219,-9.72344,-0.650781,-93.6694,3.25745,-16.908,-0.12207,0,0,-0.679382,0.718262,-0.126465,0.0800171,65140,6749,3216,2525,-30050
1944,442359,-0.569434,-9.74258,-0.660352,-93.6694,3.25745,-16.908,-0.0610352,0,0,-0.679382,0.718292,-0.126434,0.0799866,65140,6750,3217,2525,-30050
1950,442365,-0.569434,-9.71387,-0.641211,-93.6694,3.25745,-16.908,-0.0610352,0,0,-0.679382,0.718292,-0.126434,0.0799866,65140,6750,3212,2525,-30050
1956,442371,-0.569434,-9.7043,-0.62207,-93.6694,3.25745,-16.908,0.0610352,0,0,-0.679382,0.718292,-0.126434,0.0799866,65141,6751,3207,2525,-30050
1962,442377,-0.559863,-9.69951,-0.598145,-93.6694,3.25745,-16.9025,-0.0610352,-0.0610352,0,-0.679382,0.718292,-0.126404,0.0799561,65146,6753,3203,2525,-30050
1968,442383,-0.574219,-9.71387,-0.607715,-93.6694,3.26294,-16.9025,-0.12207,0,0,-0.679382,0.718292,-0.126404,0.0799561,65097,6752,3201,2525,-30050
1974,442389,-0.559863,-9.73301,-0.62207,-93.6694,3.26294,-16.897,-0.12207,0,0,-0.679382,0.718292,-0.126404,0.0799255,65103,6751,3202,2525,-30050
1980,442395,-0.555078,-9.7043,-0.62207,-93.6749,3.26294,-16.897,-0.183105,-0.183105,0,-0.679382,0.718292,-0.126404,0.0799255,65109,6750,3202,2525,-30050
1986,442401,-0.574219,-9.71387,-0.617285,-93.6749,3.26294,-16.897,-0.0610352,0.0610352,0,-0.679382,0.718323,-0.126373,0.079895,65113,6749,3202,2525,-30050
1992,442407,-0.564648,-9.74736,-0.655566,-93.6749,3.26294,-16.8915,-0.183105,0,0,-0.679382,0.718323,-0.126373,0.079895,65118,6748,3203,2525,-30050
1998,442413,-0.555078,-9.72822,-0.617285,-93.6749,3.26294,-16.8915,-0.183105,0,0,-0.679382,0.718323,-0.126373,0.0798645,65120,6749,3203,2525,-30050
2004,442419,-0.564648,-9.69951,-0.6125,-93.6749,3.26294,-16.8915,0.12207,0,0,-0.679382,0.718323,-0.126373,0.0798645,65121,6751,3201,2525,-30050
2010,442425,-0.535937,-9.71387,-0.626855,-93.6749,3.26294,-16.8915,-0.0610352,0,0,-0.679382,0.718323,-0.126343,0.0798645,65122,6752,3198,2525,-30050
2016,442431,-0.574219,-9.72822,-0.645996,-93.6749,3.26294,-16.8915,-0.12207,0.183105,0,-0.679382,0.718323,-0.126343,0.0798645,65124,6752,3195,2525,-30050
2022,442437,-0.564648,-9.73301,-0.641211,-93.6749,3.26294,-16.886,-0.0610352,0,0.305176,-0.679352,0.718353,-0.126343,0.079834,65125,6751,3193,2525,-30050
2028,442443,-0.579004,-9.69473,-0.6125,-93.6749,3.26294,-16.886,0.0610352,0,0.183105,-0.679382,0.718353,-0.126343,0.079834,65128,6750,3192,2525,-30050
2034,442449,-0.540723,-9.70908,-0.607715,-93.6749,3.26843,-16.886,-0.0610352,0,0.183105,-0.679382,0.718353,-0.126343,0.0798035,65132,6749,3193,2525,-30050
2040,442455,-0.60293,-9.67559,-0.626855,-93.6804,3.26843,-16.886,-0.183105,0,0.244141,-0.679352,0.718353,-0.126343,0.0798035,65134,6749,3193,2525,-30050
2046,442461,-0.607715,-9.75215,-0.655566,-93.6804,3.26843,-16.886,-0.183105,0.0610352,0,-0.679352,0.718353,-0.126343,0.0797729,65136,6748,3189,2525,-30050
2052,442467,-0.631641,-9.72822,-0.660352,-93.6804,3.26843,-16.8805,0.12207,0,0.183105,-0.679352,0.718353,-0.126343,0.0797729,65140,6750,3187,2525,-30050
2058,442473,-0.579004,-9.72822,-0.62207,-93.6804,3.26843,-16.8805,0,0.183105,0.12207,-0.679352,0.718353,-0.126343,0.0797424,65141,6752,3189,2525,-30050
2064,442479,-0.559863,-9.69951,-0.607715,-93.6804,3.27393,-16.8805,0.12207,-0.0610352,0.183105,-0.679352,0.718353,-0.126343,0.0797424,65142,6753,3194,2525,-30050
2070,442485,-0.559863,-9.69951,-0.588574,-93.6804,3.27393,-16.8805,0.0610352,-0.0610352,0.12207,-0.679352,0.718353,-0.126343,0.0797119,65142,6754,3200,2525,-30050
2076,442491,-0.579004,-9.71387,-0.617285,-93.6804,3.27393,-16.875,-0.183105,0.0610352,0.12207,-0.679352,0.718353,-0.126343,0.0797119,65141,6755,3205,2525,-30050
2082,442497,-0.583789,-9.75215,-0.665137,-93.6804,3.27393,-16.875,-0.244141,0.0610352,0,-0.679352,0.718384,-0.126343,0.0796814,65141,6755,3214,2525,-30050
2088,442503,-0.583789,-9.73779,-0.655566,-93.6804,3.27393,-16.875,-0.0610352,0,0.0610352,-0.679352,0.718384,-0.126343,0.0796814,65142,6755,3220,2525,-30050
2094,442509,-0.564648,-9.72344,-0.636426,-93.6804,3.27393,-16.875,0.12207,-0.0610352,-0.0610352,-0.679352,0.718384,-0.126312,0.0796814,65145,6756,3226,2525,-30050
2100,442515,-0.564648,-9.71387,-0.631641,-93.6804,3.27393,-16.8695,0.0610352,0,0,-0.679352,0.718384,-0.126312,0.0796509,65147,6755,3229,2525,-30050
2106,442521,-0.583789,-9.69951,-0.60293,-93.6804,3.27393,-16.8695,0,0,0,-0.679352,0.718384,-0.126312,0.0796509,65149,6757,3233,2525,-30050
2112,442527,-0.564648,-9.7043,-0.60293,-93.6804,3.27393,-16.8695,0,0,0.0610352,-0.679352,0.718384,-0.126312,0.0796204,65058,6758,3233,2525,-30050
2118,442533,-0.583789,-9.69473,-0.62207,-93.6804,3.27942,-16.864,0.183105,-0.0610352,0.0610352,-0.679352,0.718384,-0.126312,0.0796204,65019,6759,3230,2525,-30050
2124,442539,-0.564648,-9.70908,-0.626855,-93.6804,3.27942,-16.864,0,0.183105,0,-0.679352,0.718384,-0.126312,0.0796204,65034,6759,3225,2525,-30050
2130,442545,-0.564648,-9.72822,-0.617285,-93.6804,3.27942,-16.864,0,-0.0610352,0,-0.679352,0.718384,-0.126282,0.0796204,65048,6759,3222,2525,-30050
2136,442551,-0.574219,-9.72344,-0.617285,-93.6804,3.27942,-16.864,-0.0610352,0,0,-0.679352,0.718384,-0.126282,0.0795898,65058,6758,3216,2525,-30050
2142,442557,-0.545508,-9.70908,-0.62207,-93.6804,3.27942,-16.8585,0.183105,0,0,-0.679382,0.718384,-0.126282,0.0795898,65075,6755,3214,2525,-30050
2148,442563,-0.555078,-9.72822,-0.626855,-93.6804,3.27942,-16.8585,0,-0.0610352,0.0610352,-0.679382,0.718384,-0.126251,0.0795593,65083,6754,3211,2525,-30050
2154,442569,-0.574219,-9.69951,-0.626855,-93.6804,3.27942,-16.8585,0,0,0.0610352,-0.679382,0.718384,-0.126251,0.0795593,65089,6754,3210,2525,-30050
2160,442575,-0.579004,-9.70908,-0.62207,-93.6804,3.27942,-16.8585,0,0,-0.0610352,-0.679382,0.718384,-0.126251,0.0795593,65094,6755,3208,2525,-30050
2166,442581,-0.564648,-9.70908,-0.626855,-93.6804,3.27942,-16.853,0,0,0,-0.679382,0.718384,-0.126251,0.0795288,65098,6754,3204,2525,-30050
2172,442587,-0.574219,-9.71865,-0.636426,-93.6804,3.27942,-16.853,0,-0.0610352,-0.0610352,-0.679382,0.718384,-0.126221,0.0795288,65103,6755,3200,2525,-30050
2178,442593,-0.559863,-9.72344,-0.62207,-93.6804,3.27942,-16.853,0,-0.0610352,0.0610352,-0.679382,0.718384,-0.126221,0.0794983,65105,6756,3200,2525,-30050
2184,442599,-0.555078,-9.72344,-0.626855,-93.6804,3.27942,-16.8475,-0.183105,-0.0610352,0,-0.679382,0.718384,-0.126221,0.0794983,65109,6756,3200,2525,-30050
2190,442605,-0.579004,-9.72822,-0.636426,-93.6804,3.27942,-16.8475,-0.12207,0,0,-0.679382,0.718414,-0.126221,0.0794983,65114,6756,3199,2525,-30050
2196,442611,-0.579004,-9.72344,-0.617285,-93.6859,3.27942,-16.8475,0,-0.0610352,0,-0.679352,0.718414,-0.126221,0.0794678,65118,6755,3198,2525,-30050
2202,442617,-0.574219,-9.72344,-0.641211,-93.6859,3.27942,-16.842,-0.12207,0,-0.244141,-0.679352,0.718414,-0.12619,0.0794678,65124,6752,3199,2525,-30050
2208,442623,-0.564648,-9.74736,-0.641211,-93.6859,3.27942,-16.842,0,0,0,-0.679352,0.718414,-0.12619,0.0794678,65126,6749,3201,2525,-30050
2214,442629,-0.569434,-9.71387,-0.626855,-93.6859,3.27942,-16.842,0,-0.12207,-0.12207,-0.679352,0.718414,-0.12616,0.0794373,65129,6745,3204,2525,-30050
2220,442635,-0.555078,-9.69951,-0.607715,-93.6859,3.27942,-16.842,-0.0610352,-0.12207,-0.12207,-0.679352,0.718414,-0.12616,0.0794373,65132,6741,3206,2525,-30050
2226,442641,-0.583789,-9.71865,-0.607715,-93.6859,3.27942,-16.8365,0,0,0,-0.679352,0.718414,-0.126129,0.0794373,65134,6738,3209,2525,-30050
2232,442647,-0.569434,-9.73779,-0.62207,-93.6859,3.27942,-16.8365,0,0,0,-0.679352,0.718445,-0.126129,0.0794067,65136,6737,3212,2525,-30050
2238,442653,-0.583789,-9.74736,-0.650781,-93.6859,3.27942,-16.8365,0,0,0,-0.679352,0.718445,-0.126129,0.0794067,65136,6739,3215,2525,-30050
2244,442659,-0.588574,-9.74736,-0.674707,-93.6859,3.27942,-16.8311,0,0,0,-0.679352,0.718445,-0.126129,0.0794067,65136,6741,3219,2525,-30050
2250,442665,-0.583789,-9.70908,-0.641211,-93.6859,3.27942,-16.8311,0,0,0,-0.679352,0.718445,-0.126099,0.0794067,65136,6743,3223,2525,-30050
2256,442671,-0.559863,-9.69951,-0.62207,-93.6859,3.27942,-16.8311,0,0,0,-0.679352,0.718445,-0.126099,0.0793762,65137,6744,3227,2525,-30050
2262,442677,-0.559863,-9.74736,-0.62207,-93.6859,3.27942,-16.8311,0,0,0,-0.679352,0.718445,-0.126099,0.0793762,65091,6744,3231,2525,-30050
2268,442683,-0.583789,-9.74736,-0.655566,-93.6859,3.27942,-16.8256,0,0,0,-0.679352,0.718445,-0.126099,0.0793457,65098,6745,3232,2525,-30050
2274,442689,-0.583789,-9.77607,-0.679492,-93.6859,3.28491,-16.8256,0,0,0,-0.679352,0.718445,-0.126099,0.0793457,65054,6746,3232,2525,-30050
2280,442695,-0.555078,-9.72822,-0.665137,-93.6859,3.28491,-16.8256,0,0,0,-0.679352,0.718445,-0.126068,0.0793457,65066,6746,3232,2525,-30050
2286,442701,-0.569434,-9.7043,-0.60293,-93.6859,3.28491,-16.8256,0,0,0,-0.679352,0.718445,-0.126068,0.0793457,65074,6746,3232,2525,-30050
2292,442707,-0.574219,-9.69951,-0.574219,-93.6859,3.28491,-16.8201,0,0,0,-0.679352,0.718445,-0.126068,0.0793152,65087,6746,3224,2525,-30050
2298,442713,-0.574219,-9.66602,-0.598145,-93.6859,3.28491,-16.8201,0,0,0,-0.679352,0.718445,-0.126068,0.0793152,65091,6745,3223,2525,-30050
2304,442719,-0.574219,-9.72344,-0.641211,-93.6859,3.28491,-16.8201,0,0,0,-0.679382,0.718445,-0.126068,0.0793152,65094,6744,3220,2525,-30050
2310,442725,-0.559863,-9.71387,-0.645996,-93.6859,3.28491,-16.8201,0,0,0,-0.679382,0.718445,-0.126038,0.0792847,65097,6745,3221,2525,-30050
2316,442731,-0.545508,-9.70908,-0.617285,-93.6859,3.28491,-16.8146,0,0,0,-0.679382,0.718445,-0.126038,0.0792847,65100,6745,3222,2525,-30050
2322,442737,-0.555078,-9.71387,-0.626855,-93.6859,3.28491,-16.8146,0,0,0,-0.679382,0.718445,-0.126038,0.0792847,65111,6747,3215,2525,-30050
2328,442743,-0.559863,-9.72822,-0.636426,-93.6859,3.28491,-16.8146,0,0,0,-0.679382,0.718445,-0.126038,0.0792542,65116,6749,3214,2525,-30050
