TimeSinceCollection,Timestamp,AccX,AccY,AccZ,AngleRoll,AnglePitch,AngleYaw,AngularVelX,AngularVelY,             AngularVelZ,Q1,Q2,Q3,Q4,MagX,MagY,MagZ,Height,Airpressure
0,119276,-0.579004,-9.97227,-0.172266,-91.8787,1.98303,74.4269,0.0610352,1.2207,-3.96729,0.546143,-0.579468,-0.424927,0.43042,3910,6084,1289,2650,-30065
6,119282,-0.516797,-9.89092,-0.162695,-91.8787,1.94458,74.4104,-0.0610352,0.183105,-4.69971,0.546265,-0.579437,-0.424957,0.430267,3911,6084,1289,2650,-30065
12,119288,-0.497656,-9.89092,-0.258398,-91.8842,1.91711,74.4049,-2.13623,1.2207,-5.7373,0.546448,-0.579346,-0.425171,0.429962,3911,6084,1288,2650,-30065
18,119294,-0.531152,-10.0153,-0.277539,-91.8951,1.88965,74.3939,-2.13623,0.427246,-6.16455,0.546539,-0.579315,-0.425293,0.429749,3910,6084,1291,2650,-30065
24,119300,-0.411523,-10.068,-0.320605,-91.9061,1.86218,74.3884,-2.13623,0.305176,-6.83594,0.546631,-0.579285,-0.425446,0.429535,3912,6083,1292,2650,-30065
30,119306,-0.421094,-10.202,-0.449805,-91.9171,1.82922,74.3884,-1.95313,0.12207,-7.38525,0.546722,-0.579254,-0.425629,0.429321,3914,6083,1294,2650,-30065
36,119312,-0.368457,-10.2546,-0.449805,-91.9336,1.75781,74.3774,-1.2207,0.549316,-7.87354,0.546814,-0.579163,-0.425812,0.429108,3915,6083,1292,2650,-30065
42,119318,-0.430664,-10.1732,-0.693848,-91.9281,1.71387,74.3719,-0.12207,1.28174,-9.82666,0.54715,-0.578918,-0.426147,0.42865,3918,6086,1284,2650,-30065
48,119324,-0.47373,-10.647,-0.521582,-91.9281,1.66992,74.3665,-0.305176,1.77002,-11.2915,0.547363,-0.578796,-0.426331,0.428375,3918,6087,1279,2650,-30065
54,119330,-0.535937,-10.8479,-0.669922,-91.9281,1.61499,74.3555,2.50244,2.01416,-12.6343,0.547577,-0.578644,-0.426575,0.42807,3920,6087,1276,2650,-30065
60,119336,-0.449805,-10.7475,-0.818262,-91.9171,1.55457,74.35,5.49316,1.46484,-13.1836,0.547913,-0.5784,-0.426788,0.427765,3923,6086,1277,2650,-30065
66,119342,-0.46416,-10.7044,-0.75127,-91.8512,1.42273,74.339,8.05664,1.40381,-14.1602,0.548309,-0.578064,-0.426971,0.427521,3926,6085,1280,2650,-30065
72,119348,-0.559863,-10.2259,-0.210547,-91.8127,1.35132,74.328,8.17871,2.86865,-16.3574,0.549316,-0.577209,-0.427277,0.427063,3935,6084,1281,2650,-30065
78,119354,-0.62207,-10.1876,-0.124414,-91.7688,1.26892,74.317,7.8125,1.77002,-17.7002,0.549866,-0.576782,-0.42746,0.426758,3889,6084,1275,2650,-30065
84,119360,-0.526367,-10.2594,-0.133984,-91.7358,1.18652,74.3115,7.14111,1.34277,-18.9209,0.550385,-0.576324,-0.427704,0.426453,3850,6084,1268,2650,-30065
90,119366,-0.435449,-10.2833,-0.29668,-91.6974,1.09314,74.306,6.89697,1.34277,-20.2026,0.550934,-0.575867,-0.427979,0.426086,3816,6083,1263,2650,-30065
96,119372,-0.411523,-10.3216,-0.382813,-91.637,0.895386,74.2896,6.65283,1.77002,-21.3623,0.551483,-0.575378,-0.428314,0.42572,3786,6081,1258,2650,-30065
102,119378,-0.382813,-10.4508,-0.354102,-91.604,0.791016,74.2841,6.71387,1.83105,-23.6816,0.552673,-0.574371,-0.429016,0.424835,3737,6080,1252,2650,-30065
108,119384,-0.416309,-10.4747,-0.272754,-91.571,0.675659,74.2731,7.08008,2.44141,-25.1465,0.553314,-0.573822,-0.429413,0.424347,3717,6078,1250,2650,-30065
114,119390,-0.363672,-10.379,-0.277539,-91.5381,0.55481,74.2621,7.69043,2.44141,-26.3062,0.553986,-0.573273,-0.42981,0.423828,3700,6077,1249,2650,-30065
120,119396,-0.253613,-10.2354,-0.392383,-91.4996,0.428467,74.2511,7.93457,2.56348,-27.2827,0.554688,-0.572662,-0.430206,0.423279,3688,6075,1249,2650,-30065
126,119402,-0.186621,-10.2546,-0.430664,-91.4227,0.164795,74.2236,7.93457,2.50244,-28.0762,0.55542,-0.572052,-0.430664,0.422729,3680,6073,1251,2650,-30065
132,119408,-0.114844,-10.2977,-0.31582,-91.3788,0.0274658,74.2126,9.27734,2.74658,-29.1138,0.556915,-0.57077,-0.431549,0.42157,3666,6069,1255,2650,-30065
138,119414,-0.220117,-10.3312,-0.186621,-91.3348,-0.10437,74.2017,10.0098,3.05176,-29.9683,0.557709,-0.570099,-0.432007,0.420959,3663,6068,1255,2650,-30065
144,119420,-0.172266,-10.0775,-0.181836,-91.2909,-0.247192,74.1852,10.0098,2.80762,-31.0059,0.558533,-0.569397,-0.432434,0.420349,3661,6066,1253,2650,-30065
150,119426,-0.0813477,-9.97705,-0.220117,-91.2415,-0.395508,74.1742,9.58252,2.80762,-31.7383,0.559387,-0.568665,-0.432922,0.419739,3660,6064,1247,2650,-30065
156,119432,0,-10.0201,-0.339746,-91.1536,-0.703125,74.1467,9.09424,2.92969,-32.2876,0.560211,-0.567932,-0.433441,0.419098,3662,6063,1239,2650,-30065
162,119438,0.00957031,-10.1541,-0.378027,-91.1041,-0.856934,74.1302,10.6812,3.11279,-33.2642,0.56192,-0.566406,-0.434479,0.417755,3669,6061,1222,2650,-30065
168,119444,0.062207,-10.178,-0.248828,-91.0547,-1.01624,74.1193,11.3525,2.99072,-33.6914,0.562805,-0.565643,-0.434998,0.417084,3625,6060,1217,2650,-30065
174,119450,0.13877,-9.97705,-0.248828,-90.9998,-1.17554,74.1028,12.5732,2.80762,-33.8135,0.563721,-0.564819,-0.435486,0.416412,3589,6058,1213,2650,-30065
180,119456,0.119629,-9.82871,-0.349316,-90.9393,-1.34033,74.0918,13.0005,2.2583,-33.6304,0.564667,-0.563965,-0.436005,0.415771,3557,6057,1213,2650,-30065
186,119462,0.330176,-9.8,-0.339746,-90.813,-1.65344,74.0753,13.5498,1.77002,-33.1421,0.565613,-0.56311,-0.436493,0.415161,3532,6055,1214,2650,-30065
192,119468,0.45459,-9.71387,-0.172266,-90.7416,-1.81274,74.0643,14.6484,2.62451,-32.7759,0.567474,-0.56134,-0.437439,0.414001,3494,6051,1209,2650,-30065
198,119474,0.44502,-9.53682,-0.114844,-90.6757,-1.96655,74.0479,14.9536,2.68555,-32.5928,0.56842,-0.560455,-0.437866,0.413422,3481,6050,1201,2650,-30065
204,119480,0.6125,-9.49854,-0.0191406,-90.6042,-2.12036,74.0369,14.4043,2.99072,-31.9214,0.569397,-0.55957,-0.438293,0.412872,3471,6048,1194,2650,-30065
210,119486,0.535937,-9.41719,-0.090918,-90.5328,-2.27417,74.0204,13.855,3.78418,-31.6772,0.570343,-0.558716,-0.43869,0.412292,3464,6046,1186,2650,-30065
216,119492,0.545508,-9.43633,-0.0717773,-90.4065,-2.5708,73.9874,12.9395,3.54004,-31.3721,0.571259,-0.557861,-0.439087,0.411713,3461,6043,1180,2650,-30065
222,119498,0.531152,-9.58945,0.100488,-90.3461,-2.71912,73.9655,11.9019,4.5166,-31.0059,0.573059,-0.556274,-0.439911,0.410492,3461,6037,1170,2650,-30065
228,119504,0.440234,-9.62295,0.124414,-90.2911,-2.86743,73.9435,11.9019,4.15039,-30.5176,0.573944,-0.555511,-0.440308,0.409851,3413,6033,1159,2650,-30065
234,119510,0.478516,-9.58467,0.124414,-90.2307,-3.01025,73.9215,11.9019,3.66211,-30.2124,0.574829,-0.554749,-0.440704,0.409241,3373,6030,1151,2650,-30065
240,119516,0.507227,-9.52725,0.0957031,-90.1758,-3.15308,73.905,11.9019,3.35693,-29.7241,0.575684,-0.554016,-0.441101,0.40863,3337,6069,1144,2650,-30065
246,119522,0.574219,-9.51289,0.153125,-90.0604,-3.43323,73.8666,11.2915,2.80762,-29.48,0.576538,-0.553253,-0.441467,0.408051,3306,6104,1139,2650,-30065
252,119528,0.440234,-9.29756,0.100488,-90.011,-3.57605,73.8501,10.9863,3.11279,-30.7007,0.578156,-0.551758,-0.442261,0.406891,3257,6126,1130,2650,-30065
258,119534,0.813477,-9.51289,0.29668,-89.9561,-3.71887,73.8336,7.75146,1.64795,-29.9072,0.578979,-0.551025,-0.442688,0.406281,3240,6155,1124,2650,-30065
264,119540,0.866113,-9.7665,0.215332,-89.9176,-3.86169,73.8171,8.23975,3.54004,-29.0527,0.579712,-0.550323,-0.443176,0.40564,3227,6180,1119,2650,-30065
270,119546,0.645996,-9.66602,0.0382813,-89.8792,-3.99902,73.8007,8.97217,3.78418,-29.2358,0.580475,-0.549683,-0.443604,0.404999,3219,6203,1111,2650,-30065
276,119552,0.689063,-9.53682,0,-89.7913,-4.27368,73.7567,8.66699,3.23486,-29.7241,0.581238,-0.549011,-0.444,0.404358,3215,6225,1106,2650,-30065
282,119558,0.789551,-9.73779,0.191406,-89.7583,-4.4165,73.7347,6.22559,4.45557,-30.2124,0.582733,-0.547638,-0.444885,0.403046,3211,6184,1096,2650,-30065
288,119564,0.689063,-9.91963,0.0526367,-89.7253,-4.55933,73.7128,5.98145,3.66211,-30.1514,0.583496,-0.547028,-0.445343,0.402313,3160,6166,1091,2650,-30065
294,119570,0.727344,-10.0153,0.0191406,-89.6979,-4.70215,73.6908,6.7749,3.41797,-30.2124,0.584198,-0.546417,-0.445831,0.401581,3117,6191,1086,2650,-30065
300,119576,0.76084,-10.0297,0.0717773,-89.6649,-4.84497,73.6688,7.8125,3.17383,-30.3345,0.58493,-0.545776,-0.446289,0.400879,3081,6211,1080,2650,-30065
306,119582,0.76084,-9.92441,0.0765625,-89.5825,-5.13062,73.6249,8.42285,3.17383,-30.3955,0.585693,-0.545105,-0.446747,0.400177,3052,6231,1078,2650,-30065
312,119588,0.851758,-9.79043,0.172266,-89.5441,-5.27344,73.6084,8.42285,2.44141,-30.5176,0.587219,-0.543701,-0.447632,0.398865,3007,6263,1076,2650,-30065
318,119594,0.861328,-9.71865,0.196191,-89.5001,-5.42175,73.5864,8.42285,2.2583,-30.6396,0.587952,-0.542999,-0.44809,0.398193,2991,6278,1075,2650,-30065
324,119600,0.961816,-9.74736,0.200977,-89.4562,-5.56458,73.5699,7.99561,1.83105,-30.7007,0.588715,-0.542267,-0.448547,0.397522,2978,6290,1072,2650,-30065
330,119606,0.980957,-9.71865,0.210547,-89.4177,-5.7074,73.5535,7.62939,2.44141,-31.0669,0.589447,-0.541565,-0.449036,0.396881,2968,6301,1069,2650,-30065
336,119612,1.02402,-9.7043,0.0765625,-89.3408,-6.00403,73.5205,7.50732,2.2583,-31.311,0.59021,-0.540863,-0.449524,0.396179,2963,6311,1063,2650,-30065
342,119618,1.14365,-9.9627,0.0669922,-89.3079,-6.15234,73.504,7.26318,2.2583,-31.6162,0.591675,-0.539429,-0.450531,0.394775,2957,6326,1058,2650,-30065
348,119624,1.12451,-10.0393,-0.0430664,-89.2749,-6.30066,73.4875,8.30078,2.50244,-31.6162,0.592407,-0.538727,-0.451019,0.394073,2907,6333,1057,2650,-30065
354,119630,1.13887,-9.97705,-0.0669922,-89.231,-6.44897,73.4656,9.15527,2.0752,-31.311,0.59317,-0.537994,-0.451508,0.393372,2864,6340,1057,2650,-30065
360,119636,1.22979,-9.97227,0.0191406,-89.187,-6.59729,73.4491,10.2539,2.13623,-31.0059,0.593933,-0.537262,-0.451965,0.3927,2826,6347,1056,2650,-30065
366,119642,1.24414,-9.8,0.0861328,-89.0771,-6.88843,73.4106,11.5967,2.38037,-30.8228,0.594727,-0.536469,-0.452423,0.392059,2795,6352,1054,2650,-30065
372,119648,1.37813,-9.53203,0.129199,-89.0222,-7.03674,73.3942,11.7798,1.95313,-30.2124,0.596375,-0.534851,-0.453217,0.390808,2744,6359,1045,2650,-30065
378,119654,1.48818,-9.54639,0.0957031,-88.9618,-7.17957,73.3777,11.4136,1.83105,-29.7852,0.597168,-0.534058,-0.453613,0.390228,2725,6361,1037,2650,-30065
384,119660,1.48818,-9.6708,-0.0143555,-88.9069,-7.31689,73.3612,11.7188,2.0752,-29.2358,0.597961,-0.533264,-0.45401,0.389648,2710,6363,1030,2650,-30065
390,119666,1.54082,-9.74258,-0.0430664,-88.8519,-7.45422,73.3447,12.0239,2.13623,-28.8086,0.598724,-0.532471,-0.454407,0.389069,2698,6365,1021,2650,-30065
396,119672,1.49775,-9.84785,0.00478516,-88.7256,-7.72888,73.3118,13.1226,2.2583,-28.3813,0.599518,-0.531677,-0.454773,0.388519,2687,6367,1012,2650,-30065
402,119678,1.50732,-9.77129,0,-88.6542,-7.85522,73.2953,15.564,1.77002,-26.9775,0.601135,-0.530029,-0.455444,0.387543,2673,6372,1000,2650,-30065
408,119684,1.55518,-9.77129,0.0287109,-88.5828,-7.98706,73.2788,17.0288,1.46484,-26.062,0.601929,-0.529175,-0.455719,0.387115,2669,6374,995,2650,-30065
414,119690,1.68438,-9.7043,-0.0191406,-88.4949,-8.10791,73.2678,18.3716,1.40381,-25.2686,0.602753,-0.528259,-0.455963,0.386749,2669,6375,991,2650,-30065
420,119696,1.75615,-9.60381,-0.00478516,-88.407,-8.22876,73.2568,19.6533,1.70898,-24.1089,0.603607,-0.527374,-0.456177,0.386414,2671,6376,985,2650,-30065
426,119702,1.83271,-9.51289,-0.00957031,-88.2147,-8.44849,73.2349,20.6299,1.64795,-23.1323,0.604462,-0.526428,-0.45636,0.386169,2625,6376,980,2650,-30065
432,119708,1.89971,-9.30713,0.110059,-88.1104,-8.55286,73.2184,21.7285,2.74658,-20.752,0.606171,-0.524597,-0.456573,0.385742,2549,6375,972,2650,-30065
438,119714,1.86621,-9.24492,0.143555,-88.006,-8.65173,73.2019,22.3999,2.56348,-19.4702,0.607025,-0.523712,-0.456604,0.385559,2519,6373,967,2650,-30065
444,119720,1.89014,-9.13965,0.272754,-87.8961,-8.74512,73.1854,22.7051,2.68555,-18.3105,0.607849,-0.522827,-0.456604,0.385437,2493,6373,960,2650,-30065
450,119726,1.89492,-9.12529,0.325391,-87.7863,-8.83301,73.1689,22.8271,2.92969,-17.1509,0.608704,-0.521942,-0.456543,0.385345,2470,6372,951,2650,-30065
456,119732,1.90449,-9.13008,0.344531,-87.5665,-8.98682,73.136,22.7051,2.86865,-15.8691,0.609528,-0.521088,-0.456482,0.385284,2451,6371,940,2650,-30065
462,119738,1.85664,-9.02481,0.46416,-87.4512,-9.05823,73.1195,22.8271,3.17383,-13.1836,0.611115,-0.51947,-0.456268,0.385223,2423,6370,913,2650,-30065
468,119744,1.86143,-9.01523,0.512012,-87.3413,-9.11865,73.103,22.9492,3.05176,-11.7188,0.611877,-0.518677,-0.456116,0.385254,2414,6369,903,2650,-30065
474,119750,1.84707,-8.93867,0.579004,-87.2314,-9.17358,73.0865,23.6206,2.44141,-10.0708,0.61261,-0.517914,-0.455933,0.385345,2407,6370,895,2650,-30065
480,119756,1.95713,-8.82383,0.645996,-87.1161,-9.22302,73.0701,23.8037,1.95313,-8.36182,0.613312,-0.517181,-0.455719,0.385468,2401,6371,890,2650,-30065
486,119762,2.01455,-8.6707,0.684277,-86.8854,-9.29443,73.0481,24.0479,2.01416,-6.65283,0.613983,-0.516449,-0.455444,0.385651,2397,6371,886,2650,-30065
492,119768,2.00498,-8.34531,1.05752,-86.7755,-9.31641,73.0316,20.9961,2.19727,-3.78418,0.615295,-0.515076,-0.454865,0.386139,2393,6373,876,2650,-30065
498,119774,1.96191,-8.30225,1.16279,-86.6711,-9.33289,73.0206,18.6157,2.19727,-2.44141,0.615845,-0.514496,-0.454529,0.386383,2391,6373,870,2650,-30065
504,119780,1.86621,-8.33574,1.21064,-86.5833,-9.34937,73.0096,16.1743,2.01416,-1.15967,0.616333,-0.514038,-0.454224,0.386627,2389,6374,864,2650,-30065
510,119786,1.75615,-8.39795,1.23457,-86.5009,-9.35486,72.9932,14.0381,1.64795,-0.183105,0.61676,-0.513641,-0.453918,0.386841,2385,6373,854,2650,-30065
516,119792,1.7083,-8.5415,1.28721,-86.3745,-9.34937,72.9712,11.9019,1.09863,0.793457,0.617096,-0.513306,-0.453644,0.387024,2382,6371,844,2650,-30065
522,119798,1.62217,-8.80469,1.15322,-86.3251,-9.34387,72.9602,9.52148,0.0610352,2.74658,0.617615,-0.512817,-0.453156,0.38739,2378,6367,821,2650,-30065
528,119804,1.68438,-8.86689,1.11494,-86.2756,-9.33289,72.9602,9.0332,-0.488281,3.41797,0.617798,-0.512665,-0.452911,0.387634,2378,6366,810,2650,-30065
534,119810,1.71309,-8.85732,1.07187,-86.2317,-9.31641,72.9547,8.60596,-0.915527,4.3335,0.617981,-0.512482,-0.452667,0.387848,2379,6367,803,2650,-30065
540,119816,1.73701,-8.79512,1.09102,-86.1932,-9.29993,72.9547,7.93457,-1.2207,5.31006,0.618103,-0.51236,-0.452454,0.388123,2380,6367,793,2650,-30065
546,119822,1.76094,-8.65156,1.15322,-86.1218,-9.25049,72.9602,6.5918,-1.40381,5.7373,0.618195,-0.512238,-0.452209,0.388397,2380,6368,781,2650,-30065
552,119828,1.73701,-8.59893,1.31592,-86.0999,-9.22302,72.9602,1.64795,-1.64795,6.71387,0.618256,-0.512146,-0.451782,0.388885,2379,6371,766,2650,-30065
558,119834,1.6748,-8.72813,1.26807,-86.0944,-9.19006,72.9602,-0.366211,-1.77002,7.08008,0.618195,-0.512238,-0.45163,0.389099,2376,6372,758,2650,-30065
564,119840,1.65566,-8.88603,1.19629,-86.0944,-9.1571,72.9657,-2.38037,-2.2583,7.69043,0.618073,-0.51236,-0.451477,0.389252,2372,6372,754,2650,-30065
570,119846,1.64609,-9.04395,1.12451,-86.1053,-9.12415,72.9657,-3.11279,-2.2583,8.30078,0.617889,-0.512543,-0.451385,0.389404,2369,6372,747,2650,-30065
576,119852,1.5791,-9.01045,1.07187,-86.1383,-9.04724,72.9767,-3.479,-2.38037,9.0332,0.617706,-0.512756,-0.451263,0.389557,2365,6371,740,2650,-30065
582,119858,1.66045,-8.89082,1.11973,-86.1603,-9.0033,72.9822,-6.40869,-2.50244,9.58252,0.617218,-0.513275,-0.45105,0.389893,2356,6370,733,2650,-30065
588,119864,1.65566,-8.91475,1.06709,-86.1932,-8.95935,72.9877,-8.05664,-2.80762,10.1929,0.616943,-0.513611,-0.450958,0.390015,2353,6369,727,2650,-30065
594,119870,1.6126,-9.01523,1.01445,-86.2317,-8.91541,72.9932,-9.15527,-2.92969,10.6201,0.616608,-0.513977,-0.450897,0.390137,2351,6370,724,2650,-30065
600,119876,1.59346,-9.08701,1.01924,-86.2756,-8.86597,72.9987,-9.82666,-3.23486,11.2915,0.616241,-0.514404,-0.450836,0.390228,2348,6371,720,2659,-30066
606,119882,1.53125,-9.0583,1.04795,-86.369,-8.7616,73.0206,-10.3149,-3.60107,11.8408,0.615845,-0.514832,-0.450806,0.39035,2345,6371,716,2659,-30066
612,119888,1.54561,-9.0583,0.980957,-86.4294,-8.71216,73.0261,-13.0615,-3.84521,12.3291,0.61496,-0.515747,-0.450714,0.390594,2339,6370,716,2650,-30065
618,119894,1.60781,-9.09658,0.856543,-86.4899,-8.65173,73.0371,-14.1602,-3.90625,12.5122,0.614441,-0.516296,-0.450714,0.390656,2335,6369,716,2650,-30065
624,119900,1.64609,-9.23535,0.794336,-86.5558,-8.5968,73.0481,-15.1978,-3.96729,13.0005,0.613922,-0.516846,-0.450714,0.390747,2331,6367,719,2650,-30065
630,119906,1.63652,-9.26406,0.746484,-86.6327,-8.53638,73.0591,-15.7471,-3.66211,13.3667,0.613373,-0.517426,-0.450745,0.390808,2327,6365,722,2650,-30065
636,119912,1.61738,-9.29756,0.679492,-86.7865,-8.41553,73.0811,-16.4795,-3.78418,13.7939,0.612823,-0.518066,-0.450745,0.390869,2322,6363,725,2650,-30065
642,119918,1.6748,-9.45547,0.425879,-86.8689,-8.34961,73.0865,-16.6626,-3.2959,15.0757,0.611633,-0.519379,-0.450775,0.390991,2312,6360,731,2650,-30065
648,119924,1.70352,-9.48418,0.354102,-86.9458,-8.28369,73.0975,-16.2964,-3.23486,15.625,0.611023,-0.52005,-0.450745,0.391052,2305,6362,732,2650,-30065
654,119930,1.68916,-9.48897,0.401953,-87.0282,-8.21228,73.103,-15.9912,-2.74658,16.1743,0.610382,-0.520721,-0.450714,0.391174,2298,6365,735,2650,-30065
660,119936,1.6126,-9.4459,0.468945,-87.1051,-8.13538,73.1085,-16.0522,-2.44141,16.5405,0.609772,-0.521423,-0.450653,0.391266,2291,6368,739,2650,-30065
666,119942,1.57432,-9.43633,0.47373,-87.2589,-7.98157,73.1195,-16.4795,-2.31934,17.1509,0.609161,-0.522095,-0.450562,0.391388,2283,6369,743,2650,-30065
672,119948,1.4834,-9.47939,0.478516,-87.3358,-7.89917,73.125,-16.4185,-2.13623,18.1885,0.60791,-0.52356,-0.450378,0.391632,2318,6369,753,2650,-30065
678,119954,1.44512,-9.4459,0.512012,-87.4182,-7.81677,73.1305,-16.4185,-2.2583,18.2495,0.607269,-0.524292,-0.450256,0.391785,2355,6370,757,2650,-30065
684,119960,1.38291,-9.45547,0.492871,-87.4951,-7.73438,73.136,-17.0898,-2.38037,18.4937,0.606598,-0.525024,-0.450165,0.391937,2389,6371,760,2650,-30065
690,119966,1.40205,-9.50332,0.483301,-87.5775,-7.64648,73.1415,-17.6392,-2.13623,18.5547,0.605927,-0.525787,-0.450073,0.392059,2419,6371,764,2650,-30065
696,119972,1.37813,-9.59902,0.468945,-87.7478,-7.4762,73.1525,-18.3105,-1.95313,18.2495,0.605225,-0.52655,-0.449982,0.392212,2446,6371,771,2650,-30065
702,119978,1.28721,-9.75215,0.339746,-87.8357,-7.3938,73.158,-18.3716,-1.64795,18.0664,0.603851,-0.528137,-0.449799,0.392426,2488,6371,787,2650,-30065
708,119984,1.28721,-9.79521,0.282324,-87.9236,-7.3114,73.1635,-18.1885,-1.58691,18.0054,0.603149,-0.528931,-0.449738,0.392517,2503,6371,796,2650,-30065
714,119990,1.29678,-9.81914,0.220117,-88.0115,-7.229,73.1689,-17.9443,-1.58691,17.7612,0.602478,-0.529694,-0.449646,0.392639,2515,6369,805,2650,-30065
720,119996,1.33027,-9.83828,0.205762,-88.0994,-7.14661,73.1689,-18.0054,-1.09863,17.4561,0.601776,-0.530457,-0.449554,0.392731,2523,6368,812,2659,-30066
726,120002,1.29678,-9.87178,0.172266,-88.2697,-6.98181,73.1744,-18.0664,-0.793457,17.2729,0.601105,-0.53125,-0.449463,0.392822,2530,6368,821,2659,-30066
732,120008,1.20107,-9.90527,0.210547,-88.3521,-6.90491,73.1689,-17.5171,-0.488281,16.9678,0.599792,-0.532776,-0.44928,0.392944,2538,6367,830,2659,-30066
738,120014,1.18672,-9.95791,0.13877,-88.4344,-6.828,73.1689,-17.1509,-0.610352,16.7847,0.599152,-0.533539,-0.449188,0.393005,2542,6367,833,2659,-30066
744,120020,1.20107,-9.97705,0.0143555,-88.5168,-6.7511,73.1689,-16.4185,-0.610352,16.8457,0.598511,-0.534271,-0.449097,0.393097,2545,6368,835,2659,-30066
750,120026,1.22979,-9.98662,-0.0574219,-88.5992,-6.6687,73.1689,-15.5029,-0.549316,16.8457,0.5979,-0.534973,-0.449005,0.393188,2544,6369,840,2659,-30066
756,120032,1.2585,-10.0488,-0.0813477,-88.7421,-6.51489,73.1689,-14.4653,-0.488281,17.0288,0.59729,-0.535675,-0.448883,0.39328,2544,6370,845,2659,-30066
762,120038,1.19629,-9.88135,0.00957031,-88.8025,-6.4325,73.1689,-12.3291,-0.12207,17.2729,0.596161,-0.537018,-0.448547,0.393585,2535,6371,869,2659,-30066
768,120044,1.19629,-9.75693,0.0334961,-88.8629,-6.35559,73.1689,-11.7798,-0.244141,17.395,0.595612,-0.537628,-0.448364,0.393768,2530,6373,881,2659,-30066
774,120050,1.20586,-9.71387,0.0717773,-88.9178,-6.27319,73.1635,-11.3525,0,17.6392,0.595093,-0.538269,-0.448151,0.393951,2524,6374,894,2659,-30066
780,120056,1.20586,-9.67559,0.0478516,-88.9728,-6.1908,73.1635,-11.2305,0.0610352,18.2495,0.594574,-0.538879,-0.447937,0.394135,2519,6375,903,2659,-30066
786,120062,1.225,-9.62773,0.0191406,-89.0717,-6.02051,73.1525,-10.6201,0,18.6768,0.594055,-0.53949,-0.447693,0.394348,2513,6378,914,2659,-30066
792,120068,1.23457,-9.45068,0.0765625,-89.1211,-5.92712,73.1525,-9.52148,0.0610352,20.3247,0.593018,-0.540741,-0.447144,0.394836,2502,6382,928,2659,-30066
798,120074,1.21543,-9.37891,0.13877,-89.165,-5.83374,73.147,-9.64355,0.12207,21.1182,0.592499,-0.541351,-0.446808,0.395111,2546,6384,935,2659,-30066
804,120080,1.18672,-9.3502,0.119629,-89.209,-5.73486,73.1415,-10.0708,0.12207,21.9116,0.591949,-0.541992,-0.446503,0.395416,2584,6384,942,2659,-30066
810,120086,1.14365,-9.45547,0.0478516,-89.2584,-5.63049,73.1415,-10.2539,0.0610352,22.644,0.5914,-0.542664,-0.446136,0.395752,2617,6386,954,2659,-30066
816,120092,1.11973,-9.56074,-0.00478516,-89.3573,-5.41626,73.136,-10.0098,0.0610352,23.4375,0.59079,-0.543335,-0.445801,0.396088,2645,6386,963,2659,-30066
822,120098,0.980957,-9.57031,0.0957031,-89.4012,-5.3064,73.1305,-8.97217,0.12207,24.5361,0.58963,-0.544708,-0.445038,0.39682,2687,6387,979,2659,-30066
828,120104,0.923535,-9.47939,0.153125,-89.4397,-5.19104,73.1305,-8.60596,-0.0610352,25.2075,0.58905,-0.54538,-0.444611,0.397247,2703,6388,986,2659,-30066
834,120110,0.947461,-9.33105,0.224902,-89.4836,-5.07019,73.1305,-8.72803,-0.427246,25.7568,0.58844,-0.546051,-0.444153,0.397675,2715,6387,991,2659,-30066
840,120116,0.957031,-9.26885,0.215332,-89.5221,-4.94934,73.1305,-9.09424,-0.183105,26.4282,0.58783,-0.546753,-0.443726,0.398132,2724,6387,994,2659,-30066
846,120122,0.937891,-9.24971,0.301465,-89.6155,-4.69666,73.125,-10.0098,-0.488281,26.9165,0.587219,-0.547455,-0.443268,0.39859,2733,6388,1000,2659,-30066
852,120128,0.732129,-9.07744,0.521582,-89.6649,-4.57031,73.125,-10.9253,-0.305176,27.3438,0.585876,-0.54895,-0.442383,0.399475,2745,6390,1008,2659,-30066
858,120134,0.62207,-9.12051,0.512012,-89.7253,-4.43848,73.1195,-14.4043,-1.40381,28.0762,0.585144,-0.549774,-0.441956,0.399933,2748,6392,1012,2659,-30066
864,120140,0.6125,-9.28799,0.416309,-89.7913,-4.30664,73.125,-15.686,-2.01416,28.4424,0.584351,-0.550629,-0.441559,0.40033,2749,6393,1014,2659,-30066
870,120146,0.693848,-9.42676,0.229688,-89.8682,-4.1748,73.125,-16.1743,-2.62451,29.1748,0.583496,-0.551514,-0.441193,0.400757,2750,6393,1018,2659,-30066
876,120152,0.684277,-9.49854,0.13877,-90.022,-3.89465,73.1415,-16.1743,-2.74658,29.6631,0.582642,-0.552399,-0.440826,0.401184,2748,6394,1020,2659,-30066
882,120158,0.765625,-9.24492,0.105273,-90.0989,-3.75732,73.147,-17.1509,-2.50244,30.2124,0.580841,-0.55423,-0.440063,0.4021,2834,6396,1034,2659,-30066
888,120164,0.698633,-9.26885,0.162695,-90.1813,-3.6145,73.1525,-18.6157,-2.38037,30.7007,0.579926,-0.555145,-0.439697,0.402527,2866,6397,1042,2659,-30066
894,120170,0.598145,-9.36455,0.16748,-90.2692,-3.46619,73.158,-19.5923,-2.38037,31.1279,0.578949,-0.556122,-0.439331,0.402954,2893,6399,1051,2659,-30066
900,120176,0.535937,-9.46025,0.0765625,-90.3625,-3.31787,73.1635,-20.4468,-2.50244,31.6772,0.577972,-0.557159,-0.438965,0.403381,2915,6359,1060,2659,-30066
906,120182,0.559863,-9.54639,-0.00957031,-90.5548,-3.02124,73.1744,-20.6299,-2.74658,31.9214,0.576935,-0.558197,-0.438629,0.403778,2932,6323,1065,2659,-30066
912,120188,0.555078,-9.5751,-0.224902,-90.6592,-2.86743,73.1799,-21.6064,-1.70898,32.0435,0.57486,-0.560303,-0.437897,0.404633,2957,6301,1080,2659,-30066
918,120194,0.507227,-9.64688,-0.244043,-90.7581,-2.71362,73.1799,-22.3389,-1.2207,32.1045,0.573822,-0.561371,-0.437531,0.404999,2966,6271,1085,2659,-30066
924,120200,0.478516,-9.8,-0.258398,-90.8679,-2.56531,73.1799,-22.583,-1.2207,32.1655,0.572754,-0.5625,-0.437164,0.405365,2972,6245,1092,2659,-30066
930,120206,0.397168,-10.0488,-0.287109,-90.9723,-2.4115,73.1799,-22.1558,-0.976563,32.4097,0.571686,-0.563599,-0.436798,0.405701,2977,6223,1098,2659,-30066
936,120212,0.248828,-10.0919,-0.325391,-91.181,-2.10938,73.1689,-21.1182,-0.549316,32.1045,0.570618,-0.564728,-0.436432,0.406067,2978,6203,1105,2659,-30066
942,120218,0.119629,-9.88135,-0.124414,-91.2744,-1.95557,73.1635,-20.3247,-1.40381,31.3721,0.568604,-0.566864,-0.435608,0.406799,3025,6169,1122,2659,-30066
948,120224,0.105273,-9.94355,-0.196191,-91.3733,-1.80725,73.1635,-21.2402,-1.28174,30.5786,0.567596,-0.567871,-0.435242,0.407196,3065,6155,1131,2659,-30066
954,120230,0.110059,-10.0105,-0.354102,-91.4722,-1.66443,73.1635,-21.4233,-1.64795,30.3345,0.566559,-0.568939,-0.434875,0.407532,3100,6143,1139,2650,-30065
960,120236,0.205762,-10.0584,-0.45459,-91.5765,-1.52161,73.1635,-20.9961,-1.58691,29.8462,0.565521,-0.569977,-0.43454,0.407867,3130,6133,1150,2650,-30065
966,120242,0.215332,-10.0632,-0.44502,-91.7743,-1.24146,73.158,-20.5688,-0.915527,29.4189,0.564514,-0.570984,-0.434235,0.408203,3156,6125,1161,2650,-30065
972,120248,-0.0861328,-10.0249,-0.239258,-91.8677,-1.09863,73.1525,-20.5688,-0.549316,28.4424,0.562561,-0.572998,-0.433533,0.408813,3196,6108,1191,2650,-30065
978,120254,-0.0717773,-10.0201,-0.291895,-91.9666,-0.966797,73.147,-21.3623,-1.09863,27.8931,0.561584,-0.573975,-0.433197,0.409119,3211,6101,1204,2650,-30065
984,120260,-0.0143555,-10.1732,-0.291895,-92.0709,-0.834961,73.1415,-21.9727,-1.2207,27.4658,0.560608,-0.574982,-0.432892,0.409363,3221,6095,1216,2650,-30065
990,120266,-0.0669922,-10.178,-0.46416,-92.1753,-0.703125,73.1415,-21.3013,-1.2207,27.2217,0.559601,-0.575989,-0.432617,0.409637,3229,6089,1225,2650,-30065
996,120272,-0.062207,-10.1206,-0.669922,-92.373,-0.444946,73.1305,-20.4468,-1.28174,26.7944,0.558624,-0.576965,-0.432343,0.409882,3231,6086,1233,2650,-30065
1002,120278,-0.0430664,-10.3934,-0.722559,-92.4664,-0.324097,73.1305,-19.8364,-0.732422,26.001,0.556732,-0.578827,-0.431793,0.4104,3280,6084,1246,2650,-30065
1008,120284,-0.200977,-10.6374,-0.837402,-92.5598,-0.197754,73.125,-18.1885,-0.732422,25.6348,0.555817,-0.579742,-0.431519,0.410645,3322,6084,1253,2650,-30065
1014,120290,-0.248828,-10.6853,-1.01445,-92.6477,-0.0769043,73.1195,-15.3809,-1.09863,24.9023,0.554932,-0.580627,-0.431213,0.410919,3360,6084,1261,2650,-30065
1020,120296,-0.14834,-10.6326,-0.942676,-92.7191,0.032959,73.1195,-12.8174,-1.28174,24.0479,0.554138,-0.581421,-0.430878,0.411224,3393,6084,1269,2650,-30065
1026,120302,-0.0861328,-10.3934,-0.789551,-92.8345,0.258179,73.114,-11.2915,-0.0610352,23.1323,0.553406,-0.582123,-0.430542,0.411591,3422,6083,1281,2650,-30065
1032,120308,-0.229688,-10.1158,-0.669922,-92.8894,0.362549,73.103,-11.4746,0.732422,21.0571,0.552094,-0.583435,-0.42984,0.412201,3468,6083,1312,2650,-30065
1038,120314,-0.311035,-10.1493,-0.521582,-92.9443,0.461426,73.092,-10.9253,0.732422,20.6909,0.551483,-0.584076,-0.429504,0.412445,3485,6083,1326,2650,-30065
1044,120320,-0.363672,-10.111,-0.382813,-92.9938,0.560303,73.0865,-10.8032,0.854492,19.9585,0.550873,-0.584717,-0.429169,0.412689,3498,6083,1338,2650,-30065
1050,120326,-0.387598,-10.001,-0.425879,-93.0487,0.653687,73.0756,-11.1084,0.793457,18.9819,0.550293,-0.585327,-0.428833,0.412933,3508,6084,1348,2650,-30065
1056,120332,-0.31582,-9.96748,-0.593359,-93.1586,0.823975,73.0536,-12.207,0.488281,18.1274,0.549744,-0.585938,-0.428558,0.413147,3515,6086,1355,2650,-30065
1062,120338,-0.244043,-10.2833,-0.875684,-93.2135,0.911865,73.0481,-11.6577,0.976563,16.8457,0.548553,-0.587158,-0.42807,0.413452,3527,6088,1377,2650,-30065
1068,120344,-0.277539,-10.3646,-0.91875,-93.2739,0.98877,73.0316,-10.3149,1.70898,16.0522,0.548004,-0.587769,-0.427826,0.413605,3533,6089,1389,2650,-30065
1074,120350,-0.406738,-10.3981,-0.976172,-93.3234,1.06567,73.0206,-8.91113,1.70898,15.564,0.547516,-0.588318,-0.427551,0.413727,3536,6090,1400,2650,-30065
1080,120356,-0.330176,-10.3407,-1.11016,-93.3618,1.13708,73.0042,-7.14111,1.09863,14.7705,0.547089,-0.588837,-0.427277,0.413879,3538,6090,1410,2650,-30065
1086,120362,-0.244043,-10.3551,-1.16758,-93.4222,1.26892,72.9822,-5.37109,1.58691,14.1602,0.546692,-0.589264,-0.427032,0.414032,3539,6092,1417,2659,-30066
1092,120368,-0.263184,-10.3312,-1.11973,-93.4387,1.33484,72.9657,-0.793457,2.74658,13.1226,0.546082,-0.590027,-0.426422,0.414398,3535,6093,1428,2659,-30066
1098,120374,-0.387598,-10.1924,-0.90918,-93.4442,1.39526,72.9492,0.854492,2.99072,12.8174,0.545868,-0.590332,-0.426056,0.414612,3530,6095,1431,2659,-30066
1104,120380,-0.440234,-10.0249,-0.727344,-93.4387,1.4502,72.9327,2.19727,2.62451,12.4512,0.545746,-0.590576,-0.425659,0.414825,3525,6098,1435,2659,-30066
1110,120386,-0.449805,-9.89092,-0.60293,-93.4332,1.51062,72.9163,2.19727,2.19727,11.9019,0.545624,-0.59079,-0.425262,0.4151,3521,6100,1437,2659,-30066
1116,120392,-0.416309,-9.77607,-0.550293,-93.4113,1.62048,72.8888,1.83105,1.89209,11.4136,0.545532,-0.590973,-0.424866,0.415344,3567,6103,1439,2659,-30066
1122,120398,-0.789551,-10.4412,-0.100488,-93.4058,1.67542,72.8778,2.0752,4.39453,9.15527,0.545288,-0.59137,-0.424164,0.415833,3552,6106,1443,2659,-30066
1128,120404,-0.756055,-9.82393,-0.488086,-93.3948,1.71387,72.8503,1.2207,3.2959,7.50732,0.545258,-0.591583,-0.423798,0.415955,3545,6107,1444,2659,-30066
1134,120410,-0.30625,-9.37412,-0.430664,-93.3893,1.74683,72.8284,0.305176,1.46484,7.62939,0.545227,-0.591736,-0.423492,0.416046,3539,6108,1445,2659,-30066
1140,120416,-0.229688,-9.48897,-0.478516,-93.3893,1.78528,72.8174,-2.38037,2.19727,7.56836,0.545166,-0.591888,-0.423248,0.416168,3534,6108,1447,2659,-30066
1146,120422,-0.598145,-10.4843,-0.339746,-93.4222,1.8457,72.7844,-4.63867,3.41797,6.46973,0.545013,-0.592133,-0.423065,0.416229,3578,6109,1453,2659,-30066
1152,120428,-0.411523,-9.7043,-0.952246,-93.4332,1.86218,72.757,-1.77002,1.77002,3.35693,0.5448,-0.592621,-0.422729,0.416107,3649,6112,1464,2659,-30066
1158,120434,-0.200977,-9.65166,-0.732129,-93.4442,1.87866,72.746,-3.05176,2.2583,3.54004,0.544739,-0.592743,-0.422638,0.416107,3676,6113,1467,2659,-30066
1164,120440,-0.531152,-10.0201,-0.6125,-93.4607,1.89514,72.735,-3.60107,2.86865,3.17383,0.544647,-0.592926,-0.422546,0.416077,3701,6114,1465,2659,-30066
1170,120446,-0.617285,-10.0775,-0.842188,-93.4772,1.90613,72.7185,-2.86865,1.83105,2.44141,0.544556,-0.593109,-0.422485,0.415985,3725,6113,1463,2659,-30066
1176,120452,-0.392383,-10.0249,-0.966602,-93.4991,1.9281,72.7075,-1.89209,1.09863,2.01416,0.544495,-0.593262,-0.422424,0.415955,3746,6114,1461,2659,-30066
1182,120458,-0.488086,-9.8957,-0.679492,-93.5046,1.93359,72.6965,0.366211,1.95313,1.52588,0.544403,-0.593414,-0.422333,0.415924,3783,6114,1458,2659,-30066
1188,120464,-0.507227,-9.71865,-0.564648,-93.5046,1.93909,72.691,0.12207,1.28174,1.15967,0.544434,-0.593475,-0.422241,0.415924,3797,6115,1461,2650,-30065
1194,120470,-0.392383,-9.62295,-0.531152,-93.5046,1.94458,72.6855,-0.915527,0.732422,0.854492,0.544434,-0.593506,-0.422211,0.415924,3812,6116,1465,2650,-30065
1200,120476,-0.406738,-9.66602,-0.564648,-93.5046,1.95007,72.6855,-1.77002,1.0376,0.793457,0.544403,-0.593536,-0.42218,0.415924,3825,6117,1469,2650,-30065
1206,120482,-0.440234,-9.73779,-0.564648,-93.5266,1.95557,72.6746,-2.0752,0.854492,0.366211,0.544342,-0.593597,-0.42218,0.415894,3839,6117,1473,2650,-30065
1212,120488,-0.387598,-9.82871,-0.698633,-93.5376,1.95557,72.6746,-2.62451,0.427246,0,0.54422,-0.593719,-0.422241,0.415802,3860,6116,1478,2650,-30065
1218,120494,-0.406738,-9.90049,-0.808691,-93.5541,1.95557,72.6746,-2.2583,0.244141,-0.244141,0.544159,-0.593781,-0.422302,0.415741,3868,6116,1477,2650,-30065
1224,120500,-0.354102,-9.93877,-0.813477,-93.5651,1.95007,72.6801,-1.15967,0.183105,-0.183105,0.544098,-0.593842,-0.422363,0.41571,3875,6118,1477,2650,-30065
1230,120506,-0.373242,-9.85742,-0.794336,-93.5706,1.95007,72.6801,-0.244141,0.183105,-0.12207,0.544067,-0.593842,-0.422394,0.41568,3883,6119,1475,2650,-30065
1236,120512,-0.406738,-9.78086,-0.756055,-93.5706,1.95007,72.6855,0.183105,-0.12207,-0.244141,0.544067,-0.593842,-0.422424,0.41568,3889,6119,1473,2650,-30065
1242,120518,-0.325391,-9.77607,-0.746484,-93.5706,1.95007,72.691,0.854492,-0.244141,-0.244141,0.544037,-0.593811,-0.422455,0.41571,3899,6120,1473,2650,-30065
1248,120524,-0.325391,-9.74736,-0.679492,-93.5651,1.94458,72.6965,1.34277,-0.12207,0,0.544037,-0.593781,-0.422485,0.415741,3902,6119,1474,2650,-30065
1254,120530,-0.334961,-9.67559,-0.583789,-93.5596,1.94458,72.702,1.58691,0,0.12207,0.544067,-0.593719,-0.422485,0.415771,3906,6120,1476,2650,-30065
1260,120536,-0.311035,-9.60381,-0.569434,-93.5541,1.94458,72.702,1.0376,-0.183105,0.488281,0.544098,-0.593689,-0.422485,0.415833,3908,6121,1480,2650,-30065
1266,120542,-0.301465,-9.69951,-0.679492,-93.5486,1.95007,72.7075,0.549316,0.244141,0.366211,0.544098,-0.593658,-0.422455,0.415863,3910,6122,1485,2650,-30065
1272,120548,-0.368457,-9.86699,-0.775195,-93.5431,1.95007,72.713,1.58691,-0.12207,0.488281,0.544067,-0.593628,-0.422455,0.415924,3916,6124,1494,2650,-30065
1278,120554,-0.368457,-9.86221,-0.813477,-93.5376,1.95557,72.713,1.95313,-0.0610352,0.244141,0.544098,-0.593597,-0.422424,0.415985,3919,6125,1498,2650,-30065
1284,120560,-0.358887,-9.86221,-0.722559,-93.5321,1.95557,72.7185,2.44141,0.183105,0.305176,0.544128,-0.593536,-0.422424,0.416046,3923,6126,1501,2650,-30065
1290,120566,-0.392383,-9.78564,-0.703418,-93.5211,1.95557,72.7185,2.80762,0.183105,0,0.544159,-0.593475,-0.422363,0.416107,3927,6127,1503,2650,-30065
1296,120572,-0.378027,-9.72822,-0.650781,-93.4937,1.96106,72.724,3.05176,0.12207,0.0610352,0.54422,-0.593414,-0.422333,0.416138,3930,6127,1507,2650,-30065
1302,120578,-0.397168,-9.57988,-0.492871,-93.4772,1.96106,72.724,2.13623,-0.183105,0.244141,0.544342,-0.593262,-0.422272,0.41629,3935,6127,1511,2650,-30065
1308,120584,-0.363672,-9.61338,-0.521582,-93.4662,1.96106,72.7295,1.40381,-0.0610352,0.305176,0.544373,-0.593231,-0.422241,0.416351,3936,6126,1510,2650,-30065
1314,120590,-0.320605,-9.63252,-0.550293,-93.4607,1.96106,72.7295,0.976563,-0.12207,0.305176,0.544403,-0.593201,-0.422211,0.416382,3937,6126,1508,2650,-30065
1320,120596,-0.339746,-9.67559,-0.559863,-93.4607,1.96106,72.735,1.15967,0,0.610352,0.544403,-0.59317,-0.422211,0.416412,3937,6127,1504,2650,-30065
1326,120602,-0.397168,-9.66602,-0.521582,-93.4497,1.97205,72.7405,1.09863,0.183105,0.793457,0.544403,-0.59314,-0.42218,0.416473,3938,6126,1501,2650,-30065
1332,120608,-0.378027,-9.57988,-0.488086,-93.4497,1.97205,72.7405,-0.366211,0,0.610352,0.544403,-0.59314,-0.42215,0.416534,3942,6127,1498,2650,-30065
1338,120614,-0.358887,-9.69473,-0.569434,-93.4497,1.97754,72.7405,-0.793457,0.0610352,0.610352,0.544373,-0.59314,-0.42215,0.416534,3943,6128,1496,2650,-30065
1344,120620,-0.354102,-9.79043,-0.717773,-93.4552,1.98303,72.7405,-0.732422,-0.0610352,0.793457,0.544312,-0.59317,-0.42215,0.416565,3944,6129,1492,2650,-30065
1350,120626,-0.287109,-9.80479,-0.703418,-93.4607,1.98303,72.746,0,0.427246,0.427246,0.544281,-0.593201,-0.42218,0.416565,3944,6131,1490,2650,-30065
1356,120632,-0.358887,-9.82393,-0.756055,-93.4607,1.98853,72.746,0.427246,0.732422,0.854492,0.54425,-0.593201,-0.42215,0.416595,3941,6132,1486,2650,-30065
1362,120638,-0.31582,-9.69473,-0.579004,-93.4552,1.99402,72.746,0.793457,1.0376,0.793457,0.54425,-0.593231,-0.422089,0.416626,3938,6130,1485,2650,-30065
1368,120644,-0.330176,-9.65166,-0.617285,-93.4552,1.99951,72.7405,0.976563,0.854492,1.09863,0.54425,-0.593231,-0.422058,0.416656,3937,6128,1484,2650,-30065
1374,120650,-0.334961,-9.7043,-0.607715,-93.4497,2.005,72.7405,0.793457,1.2207,1.0376,0.544281,-0.593231,-0.422028,0.416687,3938,6126,1481,2650,-30065
1380,120656,-0.311035,-9.74258,-0.617285,-93.4442,2.0105,72.7405,1.15967,1.15967,1.2207,0.544281,-0.593262,-0.421967,0.416718,3937,6124,1478,2650,-30065
1386,120662,-0.30625,-9.6708,-0.555078,-93.4332,2.02148,72.7295,1.34277,1.64795,1.28174,0.544281,-0.593262,-0.421906,0.416748,3938,6124,1476,2650,-30065
1392,120668,-0.421094,-9.51768,-0.339746,-93.4277,2.02698,72.724,0.427246,1.83105,1.58691,0.544342,-0.593292,-0.421722,0.416779,3935,6124,1477,2650,-30065
1398,120674,-0.401953,-9.56553,-0.449805,-93.4277,2.03247,72.713,-1.2207,1.64795,1.77002,0.544342,-0.593353,-0.421661,0.416779,3933,6124,1478,2650,-30065
1404,120680,-0.373242,-9.68516,-0.497656,-93.4332,2.04346,72.7075,-1.77002,2.2583,1.34277,0.544312,-0.593414,-0.4216,0.416779,3933,6125,1477,2650,-30065
1410,120686,-0.421094,-9.8335,-0.765625,-93.4442,2.04895,72.6965,-2.01416,2.31934,1.58691,0.544281,-0.593536,-0.42157,0.416718,3932,6125,1476,2650,-30065
1416,120692,-0.378027,-9.90527,-0.698633,-93.4607,2.05994,72.6801,-1.2207,2.19727,1.28174,0.54422,-0.593628,-0.421509,0.416687,3932,6125,1473,2650,-30065
1422,120698,-0.440234,-9.84307,-0.76084,-93.4662,2.06543,72.6746,-0.732422,1.95313,1.2207,0.544189,-0.593811,-0.421417,0.416626,3931,6127,1476,2650,-30065
1428,120704,-0.421094,-9.8335,-0.703418,-93.4717,2.07642,72.6636,0,1.70898,1.0376,0.544159,-0.593872,-0.421356,0.416595,3930,6127,1479,2650,-30065
1434,120710,-0.397168,-9.79043,-0.674707,-93.4717,2.07642,72.6581,0.305176,1.46484,0.976563,0.544159,-0.593903,-0.421295,0.416595,3930,6127,1484,2650,-30065
1440,120716,-0.421094,-9.76172,-0.636426,-93.4717,2.08191,72.6526,0.549316,1.40381,1.0376,0.544159,-0.593933,-0.421265,0.416595,3929,6126,1487,2650,-30065
1446,120722,-0.45459,-9.7043,-0.665137,-93.4717,2.0929,72.6471,0.183105,1.34277,0.976563,0.544159,-0.593964,-0.421204,0.416595,3929,6124,1487,2650,-30065
1452,120728,-0.435449,-9.70908,-0.545508,-93.4717,2.09839,72.6416,-0.12207,1.2207,0.854492,0.544159,-0.594025,-0.421112,0.416595,3927,6122,1493,2650,-30065
1458,120734,-0.406738,-9.63252,-0.521582,-93.4717,2.10388,72.6361,-0.427246,1.34277,0.732422,0.544159,-0.594086,-0.421082,0.416595,3925,6122,1496,2650,-30065
1464,120740,-0.421094,-9.64688,-0.535937,-93.4772,2.10388,72.6306,-1.34277,1.64795,0.549316,0.544128,-0.594116,-0.421051,0.416565,3923,6122,1501,2650,-30065
1470,120746,-0.449805,-9.72344,-0.62207,-93.4827,2.10938,72.6251,-2.13623,1.46484,0.610352,0.544128,-0.594177,-0.421021,0.416534,3921,6122,1503,2650,-30065
1476,120752,-0.406738,-9.84307,-0.693848,-93.5046,2.11487,72.6141,-1.64795,1.15967,0.732422,0.544067,-0.594269,-0.421021,0.416473,3921,6123,1505,2650,-30065
1482,120758,-0.425879,-9.79521,-0.736914,-93.5101,2.11487,72.6086,-0.915527,1.34277,0.305176,0.544006,-0.594391,-0.42099,0.416412,3921,6126,1505,2650,-30065
1488,120764,-0.47373,-9.82393,-0.746484,-93.5156,2.12036,72.6086,-1.2207,1.09863,0,0.543976,-0.594452,-0.42099,0.416382,3922,6127,1504,2650,-30065
1494,120770,-0.46416,-9.88135,-0.75127,-93.5211,2.12036,72.6031,-0.305176,0.488281,-0.12207,0.543945,-0.594482,-0.42099,0.416351,3922,6127,1501,2650,-30065
1500,120776,-0.421094,-9.82393,-0.732129,-93.5211,2.12036,72.6031,0.305176,0.366211,-0.244141,0.543945,-0.594482,-0.42099,0.416351,3921,6128,1497,2650,-30065
1506,120782,-0.401953,-9.77607,-0.698633,-93.5211,2.11487,72.6031,0.366211,0.244141,-0.244141,0.543945,-0.594482,-0.421021,0.416351,3920,6130,1494,2650,-30065
1512,120788,-0.401953,-9.71865,-0.60293,-93.5211,2.11487,72.6086,0.183105,0,-0.366211,0.543945,-0.594452,-0.421021,0.416351,3923,6131,1491,2650,-30065
1518,120794,-0.425879,-9.72344,-0.598145,-93.5211,2.11487,72.6086,0.0610352,0,-0.305176,0.543945,-0.594452,-0.421051,0.416351,3925,6132,1490,2650,-30065
1524,120800,-0.401953,-9.68516,-0.564648,-93.5211,2.11487,72.6141,-0.12207,0,-0.244141,0.543945,-0.594421,-0.421082,0.416382,3926,6132,1490,2650,-30065
1530,120806,-0.373242,-9.67559,-0.550293,-93.5211,2.11487,72.6141,-0.427246,-0.12207,-0.244141,0.543915,-0.594421,-0.421082,0.416382,3927,6133,1490,2650,-30065
1536,120812,-0.354102,-9.64688,-0.516797,-93.5266,2.11487,72.6251,-0.549316,-0.12207,0,0.543884,-0.594421,-0.421112,0.416382,3928,6133,1487,2650,-30065
1542,120818,-0.387598,-9.64209,-0.607715,-93.5321,2.11487,72.6251,-2.01416,0.244141,-0.0610352,0.543823,-0.594452,-0.421173,0.416382,3926,6133,1481,2650,-30065
1548,120824,-0.373242,-9.74258,-0.559863,-93.5431,2.11487,72.6251,-1.28174,0.366211,-0.12207,0.543762,-0.594482,-0.421204,0.416351,3924,6133,1478,2650,-30065
1554,120830,-0.406738,-9.7043,-0.75127,-93.5486,2.11487,72.6251,-1.15967,0.244141,-0.12207,0.543732,-0.594513,-0.421234,0.416321,3922,6133,1475,2650,-30065
1560,120836,-0.373242,-9.77129,-0.689063,-93.5596,2.11487,72.6306,-1.28174,0.366211,-0.244141,0.543701,-0.594543,-0.421295,0.416321,3921,6131,1473,2650,-30065
1566,120842,-0.354102,-9.7665,-0.617285,-93.5706,2.11487,72.6306,-0.732422,0.549316,-0.0610352,0.543671,-0.594574,-0.421326,0.41629,3921,6130,1472,2650,-30065
1572,120848,-0.363672,-9.64688,-0.512012,-93.5706,2.11487,72.6306,-0.732422,0.915527,0.244141,0.54361,-0.594604,-0.421356,0.41626,3924,6125,1468,2650,-30065
1578,120854,-0.392383,-9.59902,-0.564648,-93.576,2.11487,72.6306,-1.40381,0.793457,0.305176,0.543579,-0.594635,-0.421356,0.41626,3925,6123,1467,2650,-30065
1584,120860,-0.397168,-9.74258,-0.62207,-93.5815,2.12036,72.6306,-2.13623,0.732422,0.305176,0.543549,-0.594696,-0.421356,0.416229,3925,6121,1469,2650,-30065
1590,120866,-0.416309,-9.81914,-0.77041,-93.5925,2.12036,72.6251,-1.58691,0.671387,0.366211,0.543488,-0.594757,-0.421387,0.416199,3927,6121,1472,2650,-30065
1596,120872,-0.483301,-9.86699,-0.803906,-93.609,2.12036,72.6251,-1.0376,0.915527,0.0610352,0.543427,-0.594788,-0.421417,0.416168,3928,6121,1477,2650,-30065
1602,120878,-0.344531,-9.72344,-0.689063,-93.609,2.12585,72.6251,0.183105,0.305176,0.12207,0.543396,-0.594818,-0.421417,0.416168,3931,6122,1490,2650,-30065
1608,120884,-0.349316,-9.6708,-0.636426,-93.609,2.12585,72.6306,0,0.488281,0,0.543396,-0.594818,-0.421417,0.416168,3933,6122,1495,2650,-30065
1614,120890,-0.358887,-9.73301,-0.598145,-93.609,2.12585,72.6306,-0.0610352,0.549316,0.183105,0.543365,-0.594818,-0.421417,0.416168,3935,6123,1498,2650,-30065
1620,120896,-0.373242,-9.68516,-0.650781,-93.609,2.12585,72.6306,0.183105,0.549316,0.183105,0.543365,-0.594849,-0.421417,0.416168,3937,6124,1502,2650,-30065
1626,120902,-0.387598,-9.70908,-0.6125,-93.609,2.13135,72.6251,0.0610352,0.976563,0.427246,0.543365,-0.594849,-0.421417,0.416199,3937,6124,1505,2650,-30065
1632,120908,-0.373242,-9.64209,-0.574219,-93.609,2.13135,72.6196,0,1.0376,0.427246,0.543396,-0.594879,-0.421356,0.416168,3937,6123,1507,2650,-30065
1638,120914,-0.397168,-9.66602,-0.502441,-93.609,2.13135,72.6196,-0.427246,1.2207,0.366211,0.543396,-0.594879,-0.421326,0.416168,3936,6122,1508,2650,-30065
1644,120920,-0.421094,-9.67559,-0.60293,-93.6145,2.13684,72.6141,-0.427246,0.915527,0.549316,0.543365,-0.59494,-0.421295,0.416138,3937,6121,1507,2650,-30065
1650,120926,-0.411523,-9.73779,-0.650781,-93.6145,2.13684,72.6141,-0.915527,1.15967,0.183105,0.543365,-0.594971,-0.421295,0.416138,3937,6118,1508,2650,-30065
1656,120932,-0.397168,-9.75693,-0.62207,-93.6255,2.14233,72.6031,-0.671387,1.2207,0.305176,0.543335,-0.595001,-0.421265,0.416107,3937,6115,1511,2650,-30065
1662,120938,-0.368457,-9.66602,-0.555078,-93.6255,2.14233,72.5977,-0.793457,1.34277,0.427246,0.543335,-0.595062,-0.421234,0.416077,3935,6108,1517,2650,-30065
1668,120944,-0.382813,-9.7043,-0.645996,-93.631,2.14233,72.5922,-0.915527,1.34277,0.427246,0.543335,-0.595123,-0.421204,0.416046,3934,6107,1518,2650,-30065
1674,120950,-0.382813,-9.77129,-0.708203,-93.6365,2.14783,72.5867,-0.915527,1.40381,0.549316,0.543304,-0.595154,-0.421204,0.416016,3935,6106,1517,2650,-30065
1680,120956,-0.397168,-9.79043,-0.645996,-93.6365,2.14783,72.5812,-0.671387,1.40381,0.427246,0.543304,-0.595215,-0.421173,0.415985,3934,6105,1516,2650,-30065
1686,120962,-0.46416,-9.72822,-0.717773,-93.6475,2.15332,72.5757,-0.427246,1.2207,0.366211,0.543274,-0.595276,-0.421143,0.415955,3933,6106,1512,2650,-30065
1692,120968,-0.440234,-9.82871,-0.732129,-93.653,2.15332,72.5702,-0.488281,0.976563,0,0.543274,-0.595337,-0.421112,0.415894,3929,6107,1511,2650,-30065
1698,120974,-0.421094,-9.82393,-0.765625,-93.653,2.15332,72.5647,-0.0610352,0.610352,0.0610352,0.543243,-0.595367,-0.421112,0.415863,3926,6108,1513,2650,-30065
1704,120980,-0.449805,-9.7665,-0.756055,-93.653,2.15881,72.5647,0,0.427246,0,0.543243,-0.595367,-0.421112,0.415863,3927,6109,1516,2650,-30065
1710,120986,-0.468945,-9.78564,-0.76084,-93.653,2.15881,72.5647,0.12207,0.183105,-0.366211,0.543243,-0.595398,-0.421112,0.415863,3930,6108,1519,2650,-30065
1716,120992,-0.44502,-9.80957,-0.727344,-93.6584,2.15332,72.5702,0,0.0610352,-0.244141,0.543243,-0.595367,-0.421112,0.415863,3931,6108,1522,2650,-30065
1722,120998,-0.387598,-9.74736,-0.746484,-93.653,2.15332,72.5702,0.671387,-0.183105,-0.244141,0.543243,-0.595337,-0.421143,0.415894,3932,6112,1525,2650,-30065
1728,121004,-0.406738,-9.76172,-0.722559,-93.653,2.15332,72.5757,0.488281,-0.183105,-0.244141,0.543243,-0.595337,-0.421143,0.415894,3931,6113,1527,2650,-30065
1734,121010,-0.401953,-9.75693,-0.732129,-93.653,2.15332,72.5757,0.549316,0.0610352,-0.549316,0.543243,-0.595306,-0.421173,0.415924,3931,6115,1531,2650,-30065
1740,121016,-0.425879,-9.78086,-0.712988,-93.6475,2.15332,72.5812,0.610352,-0.183105,-0.610352,0.543243,-0.595276,-0.421173,0.415924,3930,6117,1534,2650,-30065
1746,121022,-0.435449,-9.79521,-0.736914,-93.6475,2.14783,72.5867,0.488281,-0.366211,-0.671387,0.543274,-0.595245,-0.421204,0.415955,3930,6117,1536,2650,-30065
1752,121028,-0.421094,-9.74258,-0.679492,-93.642,2.14233,72.5922,0.976563,-0.366211,-0.976563,0.543274,-0.595184,-0.421265,0.415955,3927,6118,1533,2650,-30065
1758,121034,-0.411523,-9.76172,-0.703418,-93.6365,2.14233,72.5977,0.793457,-0.488281,-0.732422,0.543304,-0.595154,-0.421265,0.415985,3926,6119,1530,2650,-30065
1764,121040,-0.368457,-9.76172,-0.698633,-93.6365,2.13684,72.5977,0.976563,-0.671387,-0.732422,0.543304,-0.595093,-0.421295,0.416016,3925,6120,1527,2650,-30065
1770,121046,-0.378027,-9.74736,-0.636426,-93.631,2.13684,72.6086,1.40381,-0.549316,-0.732422,0.543304,-0.595062,-0.421326,0.416046,3924,6121,1523,2650,-30065
1776,121052,-0.378027,-9.65166,-0.569434,-93.62,2.13135,72.6196,1.2207,-0.610352,-0.610352,0.543335,-0.595001,-0.421356,0.416077,3922,6122,1522,2650,-30065
1782,121058,-0.339746,-9.69951,-0.607715,-93.62,2.12585,72.6251,0.244141,-0.427246,-0.488281,0.543335,-0.59491,-0.421417,0.416107,3922,6126,1524,2650,-30065
1788,121064,-0.363672,-9.75215,-0.641211,-93.62,2.12585,72.6251,0.244141,-0.427246,-0.244141,0.543335,-0.594879,-0.421448,0.416138,3922,6128,1525,2650,-30065
1794,121070,-0.378027,-9.73779,-0.641211,-93.62,2.12585,72.6306,0.549316,-0.427246,0,0.543335,-0.594879,-0.421478,0.416138,3921,6131,1528,2650,-30065
1800,121076,-0.401953,-9.69473,-0.631641,-93.6145,2.12585,72.6361,0.793457,-0.366211,-0.244141,0.543304,-0.594849,-0.421478,0.416168,3922,6132,1529,2650,-30065
1806,121082,-0.373242,-9.7043,-0.617285,-93.609,2.12585,72.6416,0.854492,-0.366211,-0.0610352,0.543335,-0.594818,-0.421478,0.416199,3921,6133,1531,2650,-30065
1812,121088,-0.392383,-9.67559,-0.6125,-93.609,2.12585,72.6416,0.854492,-0.366211,-0.0610352,0.543335,-0.594757,-0.421478,0.41626,3923,6132,1536,2650,-30065
1818,121094,-0.401953,-9.75215,-0.631641,-93.6035,2.12585,72.6471,0.366211,-0.305176,0.12207,0.543335,-0.594757,-0.421478,0.41629,3924,6131,1541,2650,-30065
1824,121100,-0.378027,-9.79043,-0.669922,-93.6035,2.12585,72.6471,0.732422,-0.366211,-0.0610352,0.543335,-0.594727,-0.421478,0.41629,3925,6130,1544,2650,-30065
1830,121106,-0.425879,-9.7665,-0.689063,-93.598,2.12585,72.6526,0.976563,-0.12207,-0.0610352,0.543335,-0.594727,-0.421478,0.416321,3925,6130,1546,2650,-30065
1836,121112,-0.416309,-9.76172,-0.693848,-93.5925,2.12585,72.6526,0.854492,-0.366211,-0.12207,0.543335,-0.594696,-0.421478,0.416351,3922,6128,1545,2650,-30065
1842,121118,-0.392383,-9.80479,-0.732129,-93.587,2.13135,72.6581,1.28174,-0.427246,-0.244141,0.543365,-0.594635,-0.421478,0.416412,3920,6126,1541,2650,-30065
1848,121124,-0.421094,-9.77607,-0.693848,-93.5815,2.12585,72.6636,1.40381,-0.427246,-0.427246,0.543365,-0.594604,-0.421478,0.416443,3920,6125,1537,2650,-30065
1854,121130,-0.397168,-9.72822,-0.641211,-93.576,2.12585,72.6636,1.2207,-0.671387,-0.244141,0.543396,-0.594543,-0.421478,0.416473,3920,6124,1532,2650,-30065
1860,121136,-0.421094,-9.70908,-0.665137,-93.5706,2.12585,72.6691,0.915527,-0.793457,-0.610352,0.543427,-0.594513,-0.421478,0.416504,3922,6123,1525,2650,-30065
1866,121142,-0.363672,-9.74736,-0.626855,-93.5651,2.12585,72.6801,1.15967,-0.793457,-0.366211,0.543427,-0.594452,-0.421509,0.416534,3924,6123,1520,2650,-30065
1872,121148,-0.397168,-9.71387,-0.607715,-93.5596,2.12036,72.6855,0.976563,-0.610352,-0.366211,0.543427,-0.59436,-0.421539,0.416626,3927,6122,1514,2650,-30065
1878,121154,-0.392383,-9.71865,-0.583789,-93.5541,2.12036,72.691,0.854492,-0.671387,-0.366211,0.543457,-0.59433,-0.42157,0.416656,3929,6122,1509,2650,-30065
1884,121160,-0.378027,-9.71865,-0.545508,-93.5486,2.12036,72.6965,1.0376,-0.427246,-0.244141,0.543457,-0.594269,-0.4216,0.416687,3930,6122,1504,2650,-30065
1890,121166,-0.368457,-9.64209,-0.502441,-93.5486,2.12036,72.702,1.0376,-0.488281,-0.244141,0.543457,-0.594238,-0.4216,0.416748,3932,6121,1500,2650,-30065
1896,121172,-0.358887,-9.59902,-0.497656,-93.5431,2.12036,72.713,0.427246,-0.366211,-0.244141,0.543457,-0.594208,-0.4216,0.416779,3933,6120,1496,2650,-30065
1902,121178,-0.358887,-9.70908,-0.540723,-93.5431,2.12036,72.7185,0,-0.12207,0.0610352,0.543427,-0.594177,-0.421661,0.416809,3930,6119,1494,2650,-30065
1908,121184,-0.373242,-9.69473,-0.6125,-93.5431,2.12036,72.7185,0.0610352,-0.183105,0,0.543427,-0.594147,-0.421661,0.41684,3927,6118,1494,2650,-30065
1914,121190,-0.349316,-9.69473,-0.588574,-93.5431,2.12036,72.724,0,0.0610352,0,0.543396,-0.594147,-0.421661,0.41684,3926,6117,1496,2650,-30065
1920,121196,-0.397168,-9.71387,-0.626855,-93.5431,2.12036,72.724,-0.366211,-0.12207,0.0610352,0.543396,-0.594147,-0.421692,0.41684,3926,6117,1498,2650,-30065
1926,121202,-0.401953,-9.73301,-0.674707,-93.5431,2.12036,72.7295,-0.183105,0,0,0.543365,-0.594147,-0.421692,0.41687,3926,6117,1500,2650,-30065
1932,121208,-0.363672,-9.78564,-0.698633,-93.5486,2.12585,72.7295,0,0.12207,0.183105,0.543335,-0.594177,-0.421722,0.41687,3925,6118,1508,2650,-30065
1938,121214,-0.397168,-9.77607,-0.703418,-93.5486,2.12585,72.7295,0.183105,0.12207,-0.0610352,0.543335,-0.594177,-0.421722,0.41687,3924,6118,1511,2650,-30065
1944,121220,-0.397168,-9.78086,-0.684277,-93.5486,2.12585,72.7295,0.366211,-0.0610352,0,0.543335,-0.594177,-0.421722,0.41687,3924,6116,1512,2650,-30065
1950,121226,-0.382813,-9.73301,-0.636426,-93.5486,2.12585,72.7295,0.610352,-0.12207,0,0.543335,-0.594147,-0.421722,0.416901,3924,6115,1511,2650,-30065
1956,121232,-0.349316,-9.69473,-0.593359,-93.5431,2.12585,72.735,0.488281,0,0.0610352,0.543335,-0.594147,-0.421722,0.416931,3923,6116,1509,2650,-30065
1962,121238,-0.368457,-9.69473,-0.62207,-93.5431,2.12585,72.735,0.305176,0.0610352,0.305176,0.543335,-0.594116,-0.421722,0.416962,3920,6118,1502,2650,-30065
1968,121244,-0.368457,-9.75215,-0.631641,-93.5376,2.13135,72.7405,0.305176,0.244141,0.0610352,0.543335,-0.594116,-0.421722,0.416962,3920,6117,1501,2650,-30065
1974,121250,-0.392383,-9.73301,-0.60293,-93.5376,2.13135,72.7405,0.610352,0.12207,0.0610352,0.543335,-0.594116,-0.421722,0.416992,3920,6115,1500,2650,-30065
1980,121256,-0.387598,-9.6708,-0.588574,-93.5376,2.13135,72.7405,0.427246,-0.0610352,0.183105,0.543335,-0.594086,-0.421722,0.416992,3923,6113,1502,2650,-30065
1986,121262,-0.373242,-9.71865,-0.636426,-93.5321,2.13135,72.746,0.305176,0.183105,0.244141,0.543335,-0.594086,-0.421722,0.417023,3925,6110,1503,2650,-30065
1992,121268,-0.421094,-9.7665,-0.641211,-93.5321,2.13684,72.746,0.183105,0.244141,0.183105,0.543335,-0.594086,-0.421692,0.417053,3928,6108,1504,2650,-30065
1998,121274,-0.440234,-9.78086,-0.660352,-93.5321,2.13684,72.746,0.427246,-0.0610352,0.12207,0.543304,-0.594086,-0.421692,0.417053,3929,6108,1507,2650,-30065
2004,121280,-0.378027,-9.74258,-0.660352,-93.5321,2.13684,72.746,0.732422,-0.0610352,0.0610352,0.543304,-0.594055,-0.421692,0.417084,3931,6109,1507,2650,-30065
2010,121286,-0.378027,-9.70908,-0.626855,-93.5266,2.13684,72.746,0.732422,0.0610352,0.12207,0.543335,-0.594055,-0.421692,0.417114,3931,6110,1508,2650,-30065
2016,121292,-0.406738,-9.71387,-0.645996,-93.5211,2.13684,72.7515,0.610352,0.0610352,0.0610352,0.543335,-0.594025,-0.421661,0.417114,3930,6111,1509,2650,-30065
2022,121298,-0.358887,-9.72344,-0.583789,-93.5211,2.14233,72.7515,0.427246,-0.12207,0.0610352,0.543335,-0.593994,-0.421661,0.417175,3928,6111,1504,2650,-30065
2028,121304,-0.392383,-9.71865,-0.593359,-93.5211,2.14233,72.7515,0.488281,0.12207,0.0610352,0.543335,-0.593994,-0.421661,0.417175,3927,6111,1501,2650,-30065
2034,121310,-0.387598,-9.69473,-0.598145,-93.5156,2.14233,72.757,0.244141,0.0610352,0.366211,0.543335,-0.593994,-0.421661,0.417206,3927,6111,1498,2650,-30065
2040,121316,-0.387598,-9.72344,-0.636426,-93.5156,2.14233,72.757,0,-0.12207,0.183105,0.543335,-0.593994,-0.421661,0.417206,3927,6111,1496,2650,-30065
2046,121322,-0.368457,-9.75693,-0.617285,-93.5156,2.14783,72.7625,0.0610352,-0.0610352,0.305176,0.543304,-0.593994,-0.421661,0.417236,3927,6110,1495,2650,-30065
2052,121328,-0.401953,-9.70908,-0.607715,-93.5156,2.14783,72.7625,0.183105,0.12207,0.183105,0.543304,-0.593964,-0.421661,0.417267,3929,6110,1493,2650,-30065
2058,121334,-0.411523,-9.73301,-0.626855,-93.5156,2.14783,72.7625,0,0.0610352,0.0610352,0.543274,-0.593964,-0.421661,0.417297,3930,6111,1494,2650,-30065
2064,121340,-0.378027,-9.71865,-0.62207,-93.5156,2.14783,72.7625,0.305176,0.183105,0,0.543274,-0.593964,-0.421661,0.417297,3930,6111,1497,2650,-30065
2070,121346,-0.387598,-9.68994,-0.588574,-93.5156,2.15332,72.7625,0.183105,0.12207,0.183105,0.543274,-0.593964,-0.421661,0.417297,3931,6112,1502,2650,-30065
2076,121352,-0.387598,-9.71387,-0.626855,-93.5156,2.15332,72.7679,-0.0610352,0.183105,0.183105,0.543274,-0.593964,-0.421661,0.417328,3931,6112,1504,2650,-30065
2082,121358,-0.378027,-9.73779,-0.607715,-93.5156,2.15332,72.7679,0.12207,0.244141,0.12207,0.543243,-0.593994,-0.421661,0.417328,3932,6115,1506,2650,-30065
2088,121364,-0.392383,-9.68516,-0.588574,-93.5156,2.15332,72.7679,0.12207,0.427246,0.366211,0.543243,-0.593994,-0.421661,0.417328,3932,6117,1508,2650,-30065
2094,121370,-0.387598,-9.69473,-0.60293,-93.5156,2.15881,72.7625,-0.183105,0.366211,0.427246,0.543243,-0.593994,-0.421631,0.417328,3932,6118,1508,2650,-30065
2100,121376,-0.392383,-9.74258,-0.60293,-93.5156,2.15881,72.7625,-0.305176,0.427246,0.488281,0.543213,-0.594025,-0.421631,0.417328,3932,6118,1507,2650,-30065
2106,121382,-0.392383,-9.72822,-0.60293,-93.5211,2.16431,72.7625,-0.0610352,0.549316,0.488281,0.543213,-0.594025,-0.4216,0.417328,3931,6118,1507,2650,-30065
2112,121388,-0.397168,-9.68037,-0.626855,-93.5211,2.1698,72.757,0.12207,0.488281,0.549316,0.543213,-0.594086,-0.42157,0.417328,3930,6119,1504,2650,-30065
2118,121394,-0.378027,-9.74258,-0.607715,-93.5211,2.1698,72.757,-0.12207,0.671387,0.427246,0.543182,-0.594086,-0.421539,0.417328,3929,6120,1504,2642,-30064
2124,121400,-0.421094,-9.73301,-0.62207,-93.5211,2.1698,72.757,0,0.610352,0.488281,0.543182,-0.594116,-0.421539,0.417328,3929,6120,1502,2642,-30064
2130,121406,-0.397168,-9.73779,-0.593359,-93.5211,2.17529,72.7515,0,0.488281,0.549316,0.543182,-0.594116,-0.421509,0.417328,3929,6120,1500,2642,-30064
2136,121412,-0.411523,-9.7043,-0.579004,-93.5211,2.18079,72.7515,0.12207,0.427246,0.488281,0.543182,-0.594147,-0.421478,0.417358,3930,6119,1495,2642,-30064
2142,121418,-0.368457,-9.74258,-0.617285,-93.5211,2.18079,72.7515,0.0610352,0.549316,0.549316,0.543152,-0.594177,-0.421448,0.417358,3931,6115,1489,2642,-30064
2148,121424,-0.406738,-9.73301,-0.645996,-93.5211,2.18628,72.7515,0,0.671387,0.549316,0.543152,-0.594177,-0.421448,0.417389,3931,6113,1487,2642,-30064
2154,121430,-0.440234,-9.71865,-0.598145,-93.5211,2.18628,72.746,0.488281,0.366211,0.610352,0.543152,-0.594208,-0.421417,0.417389,3932,6111,1487,2642,-30064
2160,121436,-0.406738,-9.73301,-0.674707,-93.5211,2.19177,72.746,0.183105,0.366211,0.549316,0.543152,-0.594208,-0.421387,0.417389,3932,6111,1490,2642,-30064
2166,121442,-0.392383,-9.78086,-0.703418,-93.5211,2.19727,72.746,0,0.305176,0.488281,0.543121,-0.594208,-0.421387,0.417419,3931,6110,1493,2642,-30064
2172,121448,-0.440234,-9.75215,-0.660352,-93.5211,2.20276,72.746,0.610352,0.427246,0.366211,0.543121,-0.594238,-0.421356,0.41745,3928,6109,1498,2642,-30064
2178,121454,-0.440234,-9.73779,-0.598145,-93.5211,2.20276,72.746,0.488281,0,0.366211,0.543121,-0.594238,-0.421326,0.41745,3927,6108,1500,2642,-30064
2184,121460,-0.373242,-9.69473,-0.593359,-93.5156,2.20276,72.746,0.183105,-0.0610352,0.427246,0.543121,-0.594238,-0.421295,0.41748,3926,6107,1500,2642,-30064
2190,121466,-0.406738,-9.75693,-0.650781,-93.5156,2.20825,72.7515,0.183105,0.12207,0.427246,0.543091,-0.594238,-0.421295,0.417511,3926,6108,1500,2642,-30064
2196,121472,-0.411523,-9.71865,-0.593359,-93.5156,2.20825,72.7515,0.305176,0,0.0610352,0.543091,-0.594238,-0.421295,0.417542,3926,6110,1500,2642,-30064
2202,121478,-0.392383,-9.68994,-0.559863,-93.5156,2.21375,72.7515,0,0.12207,0,0.543091,-0.594208,-0.421295,0.417542,3927,6114,1497,2642,-30064
2208,121484,-0.368457,-9.68516,-0.569434,-93.5156,2.21375,72.7515,-0.305176,0.366211,0.305176,0.543091,-0.594208,-0.421295,0.417542,3927,6114,1492,2642,-30064
2214,121490,-0.411523,-9.71865,-0.641211,-93.5156,2.21375,72.7515,-0.488281,0.183105,0.0610352,0.54306,-0.594238,-0.421295,0.417542,3925,6114,1487,2642,-30064
2220,121496,-0.416309,-9.75693,-0.645996,-93.5211,2.21375,72.757,-0.305176,0.244141,0.12207,0.54303,-0.594238,-0.421326,0.417542,3924,6113,1485,2642,-30064
2226,121502,-0.378027,-9.7665,-0.645996,-93.5211,2.21375,72.757,-0.244141,0.183105,0.0610352,0.54303,-0.594269,-0.421326,0.417542,3922,6113,1484,2642,-30064
2232,121508,-0.368457,-9.68037,-0.593359,-93.5266,2.21924,72.757,-0.549316,0.244141,0.183105,0.542999,-0.594269,-0.421326,0.417542,3920,6117,1494,2642,-30064
2238,121514,-0.358887,-9.68037,-0.6125,-93.5321,2.21924,72.757,-0.915527,0.671387,0.183105,0.542969,-0.594299,-0.421326,0.417542,3920,6117,1497,2650,-30065
2244,121520,-0.440234,-9.75215,-0.636426,-93.5321,2.21924,72.7515,-0.610352,0.488281,0.366211,0.542938,-0.59433,-0.421326,0.417511,3921,6117,1499,2650,-30065
2250,121526,-0.411523,-9.7665,-0.631641,-93.5376,2.21924,72.7515,-0.488281,0.366211,0.183105,0.542938,-0.59436,-0.421326,0.417511,3921,6117,1500,2650,-30065
2256,121532,-0.392383,-9.76172,-0.655566,-93.5431,2.22473,72.7515,-0.366211,0.610352,0.0610352,0.542908,-0.594391,-0.421326,0.417511,3921,6117,1500,2650,-30065
2262,121538,-0.392383,-9.72822,-0.631641,-93.5431,2.22473,72.7515,-0.0610352,0.610352,0.427246,0.542877,-0.594421,-0.421326,0.41748,3924,6118,1504,2650,-30065
2268,121544,-0.440234,-9.75693,-0.650781,-93.5431,2.22473,72.746,-0.0610352,0.549316,0.244141,0.542877,-0.594452,-0.421326,0.41748,3925,6119,1503,2650,-30065
2274,121550,-0.435449,-9.75693,-0.655566,-93.5486,2.23022,72.746,0,0.305176,0.427246,0.542877,-0.594452,-0.421295,0.41748,3928,6119,1499,2650,-30065
2280,121556,-0.411523,-9.74736,-0.645996,-93.5486,2.23022,72.746,0.183105,0.427246,0.244141,0.542877,-0.594452,-0.421295,0.417511,3929,6118,1496,2650,-30065
2286,121562,-0.440234,-9.75215,-0.703418,-93.5486,2.23022,72.746,0.0610352,0.183105,0.12207,0.542877,-0.594452,-0.421295,0.417511,3929,6119,1491,2650,-30065
2292,121568,-0.401953,-9.73301,-0.598145,-93.5431,2.23572,72.7515,0.610352,0.183105,0.244141,0.542847,-0.594452,-0.421265,0.417542,3929,6120,1489,2650,-30065
2298,121574,-0.440234,-9.7043,-0.641211,-93.5431,2.23572,72.7515,0.488281,0.183105,0.244141,0.542847,-0.594452,-0.421265,0.417572,3928,6121,1491,2650,-30065
2304,121580,-0.47373,-9.74736,-0.669922,-93.5431,2.24121,72.7515,0.0610352,-0.12207,0.305176,0.542847,-0.594452,-0.421265,0.417572,3929,6120,1492,2650,-30065
2310,121586,-0.440234,-9.80479,-0.708203,-93.5431,2.24121,72.7515,0.366211,-0.244141,0.12207,0.542816,-0.594452,-0.421265,0.417603,3929,6119,1493,2650,-30065
2316,121592,-0.411523,-9.78564,-0.655566,-93.5376,2.24121,72.757,0.915527,-0.0610352,0.12207,0.542816,-0.594421,-0.421265,0.417633,3929,6118,1499,2650,-30065
