TimeSinceCollection,Timestamp,AccX,AccY,AccZ,AngleRoll,AnglePitch,AngleYaw,AngularVelX,AngularVelY,             AngularVelZ,Q1,Q2,Q3,Q4,MagX,MagY,MagZ,Height,Airpressure
0,18479,4.1918,8.96738,-0.966602,93.0157,-25.2411,-138.389,-0.915527,-1.83105,-1.2207,0.38681,0.11084,-0.715149,-0.571442,60414,59296,2766,3168,-30127
6,18485,4.14873,9.04395,-0.91875,93.0157,-25.2356,-138.395,-1.89209,-1.34277,-1.28174,0.386627,0.110809,-0.715149,-0.571533,60413,59281,2766,3168,-30127
12,18491,4.09609,9.01045,-0.808691,93.0048,-25.2246,-138.4,-2.68555,-0.671387,-1.09863,0.386566,0.110809,-0.715118,-0.571625,60411,59268,2765,3168,-30127
18,18497,4.04824,8.90996,-0.674707,92.9993,-25.2191,-138.406,-2.99072,-0.366211,-0.793457,0.386536,0.110809,-0.715088,-0.571716,60408,59254,2766,3168,-30127
24,18503,4.00518,8.7999,-0.550293,92.9883,-25.2136,-138.411,-2.68555,-0.488281,-0.915527,0.386475,0.110779,-0.715057,-0.571777,60404,59242,2768,3168,-30127
30,18509,3.98604,8.78555,-0.564648,92.9938,-25.2026,-138.428,-0.671387,-1.70898,-0.671387,0.386414,0.110748,-0.715057,-0.571838,60402,59226,2771,3168,-30127
36,18515,4.01953,8.85254,-0.684277,93.0048,-25.2026,-138.444,-0.305176,-2.0752,-0.366211,0.38623,0.110718,-0.715118,-0.571869,60401,59216,2770,3168,-30127
42,18521,4.06738,8.94346,-0.76084,93.0103,-25.1971,-138.455,-0.183105,-2.01416,-0.366211,0.386139,0.110687,-0.715179,-0.571869,60398,59249,2768,3168,-30127
48,18527,4.11045,8.97217,-0.775195,93.0157,-25.1917,-138.466,-0.549316,-1.58691,-0.183105,0.386078,0.110657,-0.71521,-0.571899,60397,59238,2764,3168,-30127
54,18533,4.11045,8.93389,-0.799121,93.0212,-25.1917,-138.472,-0.915527,-1.15967,-0.183105,0.386017,0.110626,-0.71524,-0.571899,60396,59269,2764,3168,-30127
60,18539,4.06738,8.89561,-0.76084,93.0267,-25.1862,-138.477,-0.915527,-0.671387,0,0.385986,0.110657,-0.71524,-0.571899,60392,59319,2773,3168,-30127
66,18545,4.07217,8.93389,-0.775195,93.0267,-25.1862,-138.483,-0.793457,-0.488281,0.183105,0.385925,0.110626,-0.715271,-0.57193,60394,59300,2777,3168,-30127
72,18551,4.08174,8.9291,-0.77998,93.0267,-25.1862,-138.488,-0.976563,-0.427246,0.183105,0.385895,0.110626,-0.715271,-0.57193,60394,59284,2775,3168,-30127
78,18557,4.09609,8.90518,-0.75127,93.0267,-25.1807,-138.488,-1.2207,-0.244141,0.183105,0.385895,0.110626,-0.715271,-0.57193,60394,59310,2774,3168,-30127
84,18563,4.08174,8.90039,-0.75127,93.0267,-25.1807,-138.488,-1.40381,0.0610352,0.244141,0.385895,0.110626,-0.715271,-0.57193,60393,59293,2770,3168,-30127
90,18569,4.07695,8.90039,-0.77041,93.0212,-25.1807,-138.488,-1.2207,0,0,0.385895,0.110596,-0.715271,-0.57196,60396,59266,2763,3168,-30127
96,18575,4.08174,8.93389,-0.77998,93.0212,-25.1807,-138.488,-1.52588,0,-0.0610352,0.385895,0.110626,-0.71524,-0.571991,60396,59294,2763,3168,-30127
102,18581,4.08174,8.91475,-0.732129,93.0157,-25.1807,-138.488,-1.83105,0.12207,0.12207,0.385895,0.110626,-0.71521,-0.572021,60395,59278,2764,3168,-30127
108,18587,4.05303,8.86211,-0.650781,93.0103,-25.1752,-138.483,-2.01416,0.244141,0,0.385895,0.110626,-0.715179,-0.572052,60396,59264,2765,3168,-30127
114,18593,4.01953,8.78076,-0.569434,93.0103,-25.1752,-138.483,-1.52588,0,0.0610352,0.385895,0.110596,-0.715179,-0.572083,60397,59252,2765,3168,-30127
120,18599,4.0291,8.82383,-0.636426,93.0157,-25.1697,-138.494,-0.244141,-0.976563,-0.183105,0.385864,0.110596,-0.715179,-0.572083,60394,59308,2769,3168,-30127
126,18605,4.01475,8.85732,-0.703418,93.0212,-25.1697,-138.499,0,-1.34277,0.12207,0.385742,0.110596,-0.715271,-0.572052,60394,59291,2774,3168,-30127
132,18611,4.10088,8.90518,-0.722559,93.0322,-25.1642,-138.51,0,-1.46484,-0.0610352,0.385681,0.110596,-0.715302,-0.572052,60394,59275,2776,3168,-30127
138,18617,4.06738,8.90039,-0.689063,93.0377,-25.1642,-138.516,-0.12207,-1.28174,0.12207,0.38562,0.110565,-0.715363,-0.572021,60392,59302,2780,3168,-30127
144,18623,4.06738,8.88125,-0.689063,93.0487,-25.1642,-138.527,0,-1.28174,0.0610352,0.38559,0.110565,-0.715393,-0.572021,60391,59327,2782,3168,-30127
150,18629,4.05781,8.88125,-0.75127,93.0652,-25.1587,-138.538,0.244141,-1.2207,0.183105,0.385529,0.110565,-0.715424,-0.571991,60389,59291,2783,3168,-30127
156,18635,4.0626,8.90996,-0.813477,93.0707,-25.1587,-138.543,0.0610352,-1.15967,0.244141,0.385437,0.110535,-0.715546,-0.57193,60389,59275,2783,3168,-30127
162,18641,4.09609,8.9626,-0.842188,93.0762,-25.1587,-138.549,-0.12207,-0.915527,0.244141,0.385406,0.110535,-0.715576,-0.57193,60388,59260,2784,3168,-30127
168,18647,4.10566,8.92432,-0.784766,93.0817,-25.1587,-138.554,-0.732422,-0.610352,0.183105,0.385376,0.110504,-0.715576,-0.57193,60390,59248,2782,3168,-30127
174,18653,4.11045,8.87646,-0.794336,93.0817,-25.1587,-138.56,-0.732422,-0.366211,0.305176,0.385345,0.110504,-0.715607,-0.57193,60390,59278,2782,3168,-30127
180,18659,4.03389,8.92432,-0.784766,93.0872,-25.1532,-138.56,-0.549316,-0.366211,0.12207,0.385345,0.110504,-0.715607,-0.571899,60390,59330,2782,3168,-30127
186,18665,4.07695,8.95303,-0.803906,93.0927,-25.1532,-138.56,-0.671387,-0.305176,0.305176,0.385315,0.110535,-0.715637,-0.571899,60390,59352,2782,3168,-30127
192,18671,4.09131,8.95303,-0.808691,93.0872,-25.1532,-138.56,-1.15967,-0.0610352,0.244141,0.385315,0.110535,-0.715637,-0.571899,60389,59330,2781,3168,-30127
198,18677,4.10566,8.88603,-0.746484,93.0872,-25.1532,-138.56,-1.46484,0.12207,0.366211,0.385345,0.110535,-0.715637,-0.571899,60388,59352,2778,3168,-30127
204,18683,4.07695,8.85254,-0.708203,93.0872,-25.1532,-138.554,-1.34277,0.12207,0.366211,0.385345,0.110535,-0.715607,-0.571899,60386,59371,2775,3168,-30127
210,18689,4.06738,8.89082,-0.77041,93.0872,-25.1532,-138.554,-0.915527,-0.305176,0.183105,0.385345,0.110565,-0.715607,-0.571899,60386,59326,2771,3168,-30127
216,18695,4.05781,8.90518,-0.775195,93.0872,-25.1532,-138.554,-1.0376,-0.366211,0.183105,0.385315,0.110596,-0.715637,-0.571899,60385,59348,2770,3168,-30127
222,18701,4.09609,8.92432,-0.799121,93.0872,-25.1477,-138.554,-1.2207,-0.488281,0.183105,0.385315,0.110596,-0.715637,-0.571899,60384,59369,2770,3168,-30127
228,18707,4.09609,8.89561,-0.775195,93.0872,-25.1477,-138.554,-1.46484,-0.183105,0.183105,0.385315,0.110596,-0.715607,-0.571899,60385,59347,2772,3168,-30127
234,18713,4.07695,8.90996,-0.693848,93.0817,-25.1477,-138.554,-1.46484,0.12207,0.305176,0.385345,0.110596,-0.715607,-0.57193,60385,59328,2770,3168,-30127
240,18719,4.03389,8.80947,-0.636426,93.0817,-25.1477,-138.549,-0.976563,-0.12207,0.244141,0.385345,0.110596,-0.715576,-0.57193,60385,59294,2773,3168,-30127
246,18725,3.99561,8.86211,-0.698633,93.0872,-25.1477,-138.554,-0.366211,-0.549316,0.305176,0.385315,0.110626,-0.715607,-0.571899,60386,59280,2773,3168,-30127
252,18731,4.04824,8.89082,-0.722559,93.0927,-25.1477,-138.56,-0.183105,-1.09863,0.427246,0.385284,0.110596,-0.715668,-0.571899,60389,59267,2774,3168,-30127
258,18737,4.05781,8.90039,-0.75127,93.0981,-25.1477,-138.565,-0.366211,-0.854492,0.244141,0.385254,0.110596,-0.715668,-0.571869,60389,59254,2781,3168,-30127
264,18743,4.07695,8.89082,-0.732129,93.1036,-25.1477,-138.571,-0.427246,-0.671387,0.244141,0.385223,0.110596,-0.715698,-0.571869,60389,59243,2790,3168,-30127
270,18749,4.08652,8.87168,-0.77998,93.1091,-25.1422,-138.576,-0.610352,-0.488281,0.12207,0.385193,0.110596,-0.715729,-0.571838,60389,59227,2802,3168,-30127
276,18755,4.08174,8.88603,-0.784766,93.1146,-25.1422,-138.582,-0.488281,-0.671387,0.0610352,0.385132,0.110565,-0.715759,-0.571838,60388,59218,2807,3168,-30127
282,18761,4.09609,8.91475,-0.803906,93.1201,-25.1422,-138.587,-0.610352,-0.915527,0,0.385071,0.110565,-0.71579,-0.571838,60387,59251,2808,3168,-30127
288,18767,4.10088,8.91953,-0.818262,93.1201,-25.1367,-138.593,-0.732422,-0.854492,0,0.38504,0.110535,-0.71582,-0.571838,60389,59240,2806,3168,-30127
294,18773,4.11523,8.90996,-0.775195,93.1256,-25.1367,-138.598,-1.0376,-0.610352,0,0.38501,0.110535,-0.71582,-0.571869,60391,59229,2806,3168,-30127
300,18779,4.06738,8.82383,-0.684277,93.1256,-25.1312,-138.604,-0.915527,-0.488281,-0.12207,0.384979,0.110535,-0.71582,-0.571899,60391,59289,2805,3168,-30127
306,18785,4.00518,8.83818,-0.703418,93.1256,-25.1257,-138.609,-0.671387,-0.732422,-0.305176,0.384888,0.110535,-0.715851,-0.571899,60388,59273,2806,3168,-30127
312,18791,4.01953,8.87168,-0.775195,93.1311,-25.1257,-138.615,-0.488281,-1.09863,-0.12207,0.384857,0.110535,-0.715881,-0.571899,60387,59301,2807,3168,-30127
318,18797,4.08174,8.90996,-0.818262,93.1366,-25.1202,-138.62,-0.427246,-1.28174,-0.244141,0.384796,0.110535,-0.715912,-0.571899,60385,59324,2810,3168,-30127
324,18803,4.1248,8.97217,-0.861328,93.1421,-25.1147,-138.625,-0.671387,-1.34277,-0.305176,0.384735,0.110535,-0.715942,-0.571899,60383,59304,2810,3168,-30127
330,18809,4.11523,8.91953,-0.808691,93.1421,-25.1093,-138.631,-1.70898,-0.183105,-0.244141,0.384705,0.110504,-0.715942,-0.57193,60386,59274,2806,3168,-30127
336,18815,4.05303,8.88125,-0.727344,93.1366,-25.1093,-138.631,-1.58691,0.0610352,-0.183105,0.384674,0.110535,-0.715912,-0.571991,60386,59260,2805,3168,-30127
342,18821,4.00518,8.88125,-0.693848,93.1366,-25.1038,-138.631,-1.64795,-0.12207,-0.305176,0.384644,0.110535,-0.715912,-0.572021,60384,59248,2804,3168,-30127
348,18827,4.00518,8.84297,-0.655566,93.1366,-25.1038,-138.636,-1.46484,-0.549316,-0.244141,0.384613,0.110535,-0.715881,-0.572052,60383,59237,2806,3168,-30127
354,18833,4.01475,8.85732,-0.669922,93.1366,-25.0983,-138.642,-1.0376,-0.732422,-0.12207,0.384583,0.110535,-0.715912,-0.572052,60380,59227,2807,3168,-30127
360,18839,4.05303,8.86211,-0.732129,93.1421,-25.0928,-138.647,-0.915527,-0.915527,-0.12207,0.384552,0.110504,-0.715912,-0.572052,60372,59286,2810,3168,-30127
366,18845,4.07695,8.89082,-0.784766,93.1421,-25.0928,-138.653,-0.854492,-0.793457,-0.183105,0.38446,0.110504,-0.715942,-0.572083,60369,59271,2809,3168,-30127
372,18851,4.10566,8.9291,-0.813477,93.1476,-25.0873,-138.658,-0.976563,-0.854492,-0.244141,0.38443,0.110504,-0.715973,-0.572083,60368,59258,2808,3168,-30127
378,18857,4.09131,8.94824,-0.894824,93.1476,-25.0818,-138.664,-1.0376,-0.976563,-0.366211,0.384369,0.110535,-0.715973,-0.572113,60367,59287,2808,3168,-30127
384,18863,4.10566,8.99131,-0.904395,93.1476,-25.0818,-138.664,-1.40381,-0.671387,-0.427246,0.384338,0.110535,-0.715973,-0.572113,60367,59273,2807,3168,-30127
390,18869,4.0626,8.91953,-0.784766,93.1366,-25.0763,-138.664,-2.13623,-0.12207,-0.305176,0.384338,0.110535,-0.715942,-0.572174,60368,59251,2806,3168,-30127
396,18875,4.06738,8.87168,-0.765625,93.1311,-25.0708,-138.664,-2.31934,-0.12207,-0.183105,0.384308,0.110535,-0.715881,-0.572235,60364,59242,2807,3168,-30127
402,18881,4.0626,8.89082,-0.789551,93.1311,-25.0653,-138.664,-2.01416,-0.12207,-0.427246,0.384308,0.110535,-0.715851,-0.572296,60360,59234,2806,3168,-30127
408,18887,4.04824,8.93867,-0.799121,93.1256,-25.0653,-138.664,-2.01416,-0.244141,-0.427246,0.384277,0.110565,-0.715851,-0.572327,60361,59227,2806,3168,-30127
414,18893,4.05303,8.93389,-0.784766,93.1201,-25.0598,-138.664,-2.13623,-0.12207,-0.244141,0.384277,0.110565,-0.71582,-0.572357,60361,59221,2804,3168,-30127
420,18899,4.05781,8.86211,-0.708203,93.1036,-25.0543,-138.658,-2.62451,0.0610352,-0.0610352,0.384277,0.110565,-0.71579,-0.572418,60363,59205,2799,3168,-30127
426,18905,4.00996,8.85254,-0.655566,93.0981,-25.0543,-138.658,-2.38037,0.305176,-0.244141,0.384277,0.110565,-0.715698,-0.57251,60366,59199,2799,3168,-30127
432,18911,3.98604,8.82383,-0.631641,93.0927,-25.0488,-138.658,-1.95313,0.0610352,-0.183105,0.384277,0.110565,-0.715668,-0.57254,60368,59194,2799,3168,-30127
438,18917,3.97646,8.82383,-0.598145,93.0927,-25.0488,-138.658,-1.52588,-0.305176,0.0610352,0.384247,0.110565,-0.715668,-0.572571,60369,59188,2803,3168,-30127
444,18923,3.97168,8.84297,-0.641211,93.0927,-25.0488,-138.664,-0.976563,-0.732422,0.12207,0.384216,0.110565,-0.715668,-0.572571,60370,59183,2806,3168,-30127
450,18929,4.05303,8.91475,-0.794336,93.1036,-25.0433,-138.675,-0.610352,-0.976563,0.244141,0.384186,0.110535,-0.715698,-0.572571,60374,59176,2805,3168,-30127
456,18935,4.08652,8.93867,-0.842188,93.1036,-25.0433,-138.68,-0.976563,-0.732422,0.244141,0.384125,0.110504,-0.715729,-0.572571,60375,59172,2802,3168,-30127
462,18941,4.09609,8.92432,-0.823047,93.1036,-25.0433,-138.68,-1.2207,-0.488281,0.183105,0.384094,0.110504,-0.715729,-0.572571,60374,59169,2800,3168,-30127
468,18947,4.08652,8.91475,-0.823047,93.1036,-25.0433,-138.68,-1.52588,0,0.183105,0.384094,0.110504,-0.715729,-0.572601,60374,59168,2798,3168,-30127
474,18953,4.09609,8.93389,-0.784766,93.0981,-25.0378,-138.68,-1.77002,-0.12207,0,0.384094,0.110504,-0.715729,-0.572632,60374,59167,2797,3168,-30127
480,18959,4.05781,8.91475,-0.765625,93.0872,-25.0378,-138.68,-2.01416,0.305176,0.0610352,0.384094,0.110504,-0.715698,-0.572662,60373,59164,2794,3168,-30127
486,18965,4.04346,8.88603,-0.746484,93.0817,-25.0378,-138.675,-2.0752,0.366211,0.0610352,0.384125,0.110504,-0.715637,-0.572723,60374,59166,2793,3168,-30127
492,18971,4.04824,8.88125,-0.746484,93.0762,-25.0323,-138.675,-1.89209,0.244141,0.183105,0.384125,0.110504,-0.715607,-0.572754,60373,59167,2790,3168,-30127
498,18977,4.03867,8.86689,-0.722559,93.0707,-25.0323,-138.675,-2.01416,0.305176,-0.0610352,0.384125,0.110504,-0.715576,-0.572784,60370,59165,2790,3168,-30127
504,18983,4.04824,8.87168,-0.746484,93.0707,-25.0323,-138.669,-1.83105,0.183105,-0.0610352,0.384125,0.110504,-0.715546,-0.572815,60365,59164,2789,3168,-30127
510,18989,4.04824,8.93389,-0.722559,93.0597,-25.0269,-138.669,-1.83105,-0.0610352,-0.0610352,0.384125,0.110535,-0.715515,-0.572845,60362,59162,2785,3168,-30127
516,18995,4.0291,8.9291,-0.732129,93.0597,-25.0269,-138.669,-1.95313,0.0610352,0.0610352,0.384125,0.110535,-0.715485,-0.572906,60361,59161,2786,3168,-30127
522,19001,4.01475,8.87168,-0.660352,93.0542,-25.0214,-138.664,-1.95313,0.12207,-0.0610352,0.384125,0.110535,-0.715454,-0.572937,60359,59159,2788,3168,-30127
528,19007,4.0291,8.82383,-0.684277,93.0487,-25.0214,-138.664,-1.52588,-0.0610352,0,0.384125,0.110535,-0.715454,-0.572937,60360,59158,2789,3168,-30127
534,19013,4.03389,8.82861,-0.650781,93.0542,-25.0159,-138.669,-0.976563,-0.427246,-0.12207,0.384094,0.110565,-0.715454,-0.572937,60359,59156,2789,3168,-30127
540,19019,4.0291,8.90996,-0.708203,93.0597,-25.0159,-138.675,-0.854492,-0.549316,0.12207,0.384064,0.110565,-0.715454,-0.572937,60355,59153,2792,3168,-30127
546,19025,4.03389,8.91953,-0.708203,93.0597,-25.0159,-138.675,-0.976563,-0.549316,0.12207,0.384003,0.110535,-0.715485,-0.572937,60356,59154,2792,3168,-30127
552,19031,4.03867,8.88125,-0.703418,93.0597,-25.0159,-138.68,-0.915527,-0.366211,0.366211,0.384003,0.110535,-0.715485,-0.572937,60358,59154,2790,3168,-30127
558,19037,4.03867,8.89082,-0.732129,93.0597,-25.0104,-138.68,-0.793457,-0.183105,0.305176,0.384003,0.110535,-0.715515,-0.572937,60359,59154,2789,3168,-30127
564,19043,4.01475,8.88125,-0.741699,93.0652,-25.0104,-138.68,-0.854492,-0.244141,0.366211,0.384003,0.110535,-0.715515,-0.572937,60360,59154,2789,3168,-30127
570,19049,4.04824,8.90996,-0.756055,93.0652,-25.0159,-138.675,-0.793457,0.305176,0.488281,0.384003,0.110535,-0.715515,-0.572937,60362,59156,2787,3168,-30127
576,19055,4.05781,8.90996,-0.76084,93.0652,-25.0159,-138.675,-0.976563,0.244141,0.732422,0.384033,0.110565,-0.715515,-0.572906,60362,59155,2789,3168,-30127
582,19061,4.03389,8.90518,-0.756055,93.0652,-25.0159,-138.675,-1.0376,0.427246,0.732422,0.384064,0.110565,-0.715515,-0.572906,60360,59153,2789,3168,-30127
588,19067,4.03867,8.87646,-0.679492,93.0597,-25.0214,-138.669,-0.976563,0.610352,0.732422,0.384094,0.110565,-0.715485,-0.572876,60361,59154,2786,3168,-30127
594,19073,4.00039,8.86211,-0.660352,93.0597,-25.0214,-138.664,-0.793457,0.549316,0.915527,0.384125,0.110565,-0.715485,-0.572876,60362,59155,2782,3168,-30127
600,19079,3.98125,8.87168,-0.660352,93.0652,-25.0269,-138.658,-0.549316,0.549316,1.0376,0.384155,0.110565,-0.715485,-0.572845,60361,59153,2779,3168,-30127
606,19085,3.94297,8.91953,-0.684277,93.0652,-25.0323,-138.658,-0.549316,0.427246,0.976563,0.384216,0.110596,-0.715515,-0.572784,60362,59153,2778,3168,-30127
612,19091,3.91426,8.90996,-0.727344,93.0652,-25.0378,-138.653,-0.732422,0.0610352,1.46484,0.384247,0.110565,-0.715515,-0.572754,60362,59153,2779,3168,-30127
618,19097,4.00518,8.88125,-0.799121,93.0707,-25.0433,-138.658,-0.549316,-0.366211,1.52588,0.384247,0.110535,-0.715546,-0.572723,60360,59153,2781,3168,-30127
624,19103,4.05781,8.90996,-0.813477,93.0707,-25.0488,-138.658,-0.732422,-0.305176,1.58691,0.384277,0.110504,-0.715546,-0.572693,60359,59153,2782,3168,-30127
630,19109,4.01953,8.82383,-0.559863,93.0597,-25.0598,-138.647,-1.58691,1.40381,1.83105,0.384338,0.110504,-0.715546,-0.572693,60359,59157,2783,3168,-30127
636,19115,3.97168,8.68984,-0.583789,93.0652,-25.0653,-138.636,-0.183105,1.0376,1.70898,0.384491,0.110474,-0.715515,-0.572601,60359,59157,2783,3168,-30127
642,19121,3.89512,8.7999,-0.588574,93.0707,-25.0763,-138.636,0.793457,0.183105,1.95313,0.384521,0.110474,-0.715576,-0.57254,60360,59156,2782,3168,-30127
648,19127,3.96689,8.90518,-0.650781,93.0817,-25.0818,-138.642,1.2207,-0.488281,2.0752,0.384552,0.110443,-0.715637,-0.572449,60361,59158,2780,3168,-30127
654,19133,4.08652,8.88125,-0.717773,93.0981,-25.0928,-138.642,1.09863,-0.732422,2.44141,0.384552,0.110413,-0.715698,-0.572357,60362,59159,2778,3168,-30127
660,19139,4.00518,8.88125,-0.655566,93.1146,-25.1093,-138.642,1.40381,0.915527,2.31934,0.384583,0.110382,-0.715759,-0.572235,60363,59156,2779,3168,-30127
666,19145,3.82813,8.84297,-0.468945,93.1256,-25.1257,-138.631,1.15967,1.83105,2.86865,0.384766,0.110382,-0.715851,-0.572021,60364,59154,2783,3168,-30127
672,19151,3.71328,8.7042,-0.191406,93.1311,-25.1422,-138.62,1.28174,2.0752,3.72314,0.384888,0.110382,-0.715881,-0.571899,60366,59154,2787,3168,-30127
678,19157,3.71807,8.4458,-0.0813477,93.1476,-25.1587,-138.62,3.2959,0.976563,4.02832,0.384979,0.110352,-0.715973,-0.571716,60365,59153,2789,3168,-30127
684,19163,3.78027,8.37402,-0.0861328,93.1805,-25.1752,-138.625,6.46973,-0.549316,4.3335,0.38501,0.110321,-0.716187,-0.571442,60363,59152,2793,3168,-30127
690,19169,4.03389,8.77598,-0.784766,93.3014,-25.2136,-138.664,10.5591,-3.2959,4.5166,0.384979,0.110291,-0.716492,-0.571106,60366,59150,2794,3168,-30127
696,19175,4.08652,8.9626,-1.05273,93.3618,-25.2301,-138.68,10.2539,-2.68555,4.63867,0.384888,0.110229,-0.717163,-0.570343,60366,59189,2793,3168,-30127
702,19181,4.10088,9.12051,-0.957031,93.4058,-25.2521,-138.686,8.42285,-0.549316,5.12695,0.384918,0.110229,-0.717407,-0.569977,60366,59222,2793,3168,-30127
708,19187,4.11045,8.98652,-0.789551,93.4442,-25.2795,-138.68,7.14111,0.732422,5.67627,0.38504,0.110229,-0.717621,-0.569641,60368,59254,2796,3168,-30127
714,19193,4.14873,8.68506,-0.698633,93.4827,-25.307,-138.675,7.50732,1.46484,5.5542,0.385162,0.110229,-0.717804,-0.569305,60370,59242,2800,3168,-30127
720,19199,3.98125,8.73291,-0.526367,93.576,-25.3564,-138.664,9.8877,1.34277,5.49316,0.385284,0.110291,-0.718048,-0.568939,60375,59298,2809,3168,-30127
726,19205,3.93818,8.72813,-0.526367,93.631,-25.3784,-138.664,10.6201,0.793457,5.79834,0.385498,0.110352,-0.718597,-0.568085,60380,59282,2812,3168,-30127
732,19211,3.93818,8.63242,-0.497656,93.6859,-25.4114,-138.664,11.5967,0.183105,6.22559,0.38559,0.110382,-0.718903,-0.567627,60383,59307,2812,3168,-30127
738,19217,4.00996,8.64199,-0.689063,93.7573,-25.4388,-138.675,13.3057,-0.976563,6.5918,0.38562,0.110382,-0.719299,-0.567108,60384,59328,2812,3168,-30127
744,19223,4.18223,8.80469,-1.02402,93.8397,-25.4663,-138.686,14.8315,-2.0752,6.53076,0.38562,0.110413,-0.719727,-0.566559,60386,59346,2812,3168,-30127
750,19229,4.4167,9.23535,-1.40205,93.988,-25.5267,-138.713,12.0239,-1.64795,6.28662,0.38562,0.110382,-0.720154,-0.56601,60393,59375,2814,3168,-30127
756,19235,4.46455,9.20186,-1.41162,94.0375,-25.5542,-138.719,9.58252,-0.12207,6.28662,0.385742,0.110382,-0.720795,-0.565125,60394,59386,2818,3168,-30127
762,19241,4.47412,9.11572,-1.3542,94.0759,-25.5817,-138.708,7.75146,1.77002,6.04248,0.385895,0.110382,-0.721008,-0.564758,60395,59394,2825,3168,-30127
768,19247,4.33057,8.9626,-1.2585,94.1034,-25.6091,-138.691,6.40869,3.72314,5.85938,0.386108,0.110443,-0.72113,-0.564423,60397,59403,2828,3168,-30127
774,19253,4.08652,8.90996,-0.923535,94.1254,-25.6421,-138.658,5.92041,5.79834,6.71387,0.386414,0.110504,-0.721222,-0.564056,60402,59410,2829,3168,-30127
780,19259,3.82813,8.56543,-0.483301,94.1748,-25.7135,-138.604,7.38525,4.94385,7.32422,0.38678,0.110565,-0.721313,-0.563721,60407,59419,2834,3168,-30127
786,19265,3.87119,8.4793,-0.540723,94.2188,-25.752,-138.587,9.8877,3.11279,7.99561,0.387268,0.110626,-0.72171,-0.562866,60412,59425,2833,3168,-30127
792,19271,4.05781,8.64199,-0.674707,94.2792,-25.7849,-138.582,11.8408,1.28174,7.14111,0.387421,0.110657,-0.722015,-0.562378,60416,59432,2835,3168,-30127
798,19277,4.09609,8.72813,-0.832617,94.3451,-25.8179,-138.587,12.5732,0.244141,7.87354,0.387512,0.110657,-0.722351,-0.561829,60419,59436,2839,3168,-30127
804,19283,4.35449,8.85732,-1.04316,94.411,-25.8508,-138.587,12.8784,0.549316,7.69043,0.387634,0.110657,-0.722717,-0.56131,60422,59440,2844,3168,-30127
810,19289,4.44063,8.98174,-1.35898,94.5264,-25.9167,-138.582,11.0474,1.83105,6.95801,0.387756,0.110687,-0.723053,-0.560791,60431,59445,2857,3168,-30127
816,19295,4.42627,9.01045,-1.49775,94.5703,-25.9442,-138.571,9.33838,2.68555,6.04248,0.388062,0.110779,-0.723541,-0.559906,60434,59444,2864,3168,-30127
822,19301,4.34971,8.90996,-1.44033,94.6033,-25.9772,-138.554,6.95801,4.08936,6.95801,0.388306,0.110809,-0.723694,-0.55954,60438,59441,2871,3168,-30127
828,19307,4.43584,8.91475,-1.11494,94.6198,-26.0101,-138.527,5.18799,6.16455,6.95801,0.388611,0.11084,-0.723785,-0.559235,60444,59441,2875,3168,-30127
834,19313,4.18701,8.6707,-0.76084,94.6198,-26.0431,-138.488,3.96729,8.05664,6.71387,0.388977,0.110901,-0.723785,-0.55896,60449,59439,2877,3168,-30127
840,19319,3.98604,8.46494,-0.703418,94.6362,-26.12,-138.4,5.49316,8.72803,7.14111,0.389404,0.110931,-0.723785,-0.558655,60456,59433,2884,3168,-30127
846,19325,4.00518,8.53672,-0.957031,94.6582,-26.1584,-138.367,6.89697,7.14111,7.56836,0.390106,0.111084,-0.723907,-0.557953,60459,59430,2885,3168,-30127
852,19331,4.14395,8.77598,-1.11494,94.6857,-26.1969,-138.345,7.32422,5.98145,7.32422,0.390411,0.111115,-0.72406,-0.557556,60461,59427,2889,3168,-30127
858,19337,4.254,8.97695,-1.20586,94.7076,-26.2354,-138.318,6.46973,5.92041,7.69043,0.390717,0.111115,-0.724152,-0.55722,60461,59423,2891,3168,-30127
864,19343,4.49326,9.08701,-1.02881,94.7186,-26.2738,-138.29,5.00488,6.89697,8.72803,0.391052,0.111115,-0.724243,-0.556885,60461,59419,2894,3168,-30127
870,19349,4.37842,8.83818,-1.10059,94.7296,-26.3452,-138.219,3.60107,8.48389,7.38525,0.391388,0.111145,-0.724243,-0.55661,60466,59414,2895,3168,-30127
876,19355,4.27314,8.77119,-1.04316,94.7351,-26.3782,-138.186,3.66211,8.05664,6.95801,0.39212,0.111206,-0.724274,-0.556061,60469,59409,2895,3168,-30127
882,19361,4.27793,8.82861,-1.08623,94.7461,-26.4111,-138.153,4.5166,7.08008,5.92041,0.392426,0.111267,-0.724304,-0.555786,60472,59405,2896,3168,-30127
888,19367,4.27314,8.89082,-1.26807,94.7571,-26.4386,-138.131,4.63867,5.92041,5.67627,0.39267,0.111298,-0.724365,-0.555511,60476,59402,2898,3168,-30127
894,19373,4.36406,8.99131,-1.37813,94.7681,-26.4606,-138.115,3.78418,4.82178,5.5542,0.392883,0.111298,-0.724426,-0.555298,60481,59400,2899,3168,-30127
900,19379,4.51719,8.99131,-1.29678,94.7791,-26.51,-138.082,1.28174,4.88281,4.5166,0.393066,0.111298,-0.724487,-0.555115,60491,59392,2903,3168,-30127
906,19385,4.46455,8.90996,-1.12451,94.7736,-26.5265,-138.065,0.366211,4.94385,3.90625,0.393463,0.111267,-0.724457,-0.554871,60497,59391,2902,3168,-30127
912,19391,4.36406,8.81904,-1.00488,94.7736,-26.543,-138.049,0.305176,4.57764,3.23486,0.393616,0.111267,-0.724426,-0.554779,60501,59390,2901,3168,-30127
918,19397,4.2875,8.75205,-0.961816,94.7736,-26.554,-138.038,0.915527,3.479,2.68555,0.393707,0.111267,-0.724426,-0.554688,60504,59387,2901,3168,-30127
924,19403,4.24443,8.73291,-0.913965,94.7845,-26.5649,-138.038,1.64795,2.2583,2.50244,0.393768,0.111237,-0.724487,-0.554596,60506,59383,2900,3168,-30127
930,19409,4.38799,8.78555,-1.03359,94.8175,-26.5759,-138.049,3.17383,0.12207,1.46484,0.393768,0.111237,-0.724579,-0.554474,60511,59377,2896,3168,-30127
936,19415,4.42148,8.88603,-1.13408,94.845,-26.5759,-138.06,3.35693,-0.366211,0.732422,0.393646,0.111206,-0.724792,-0.55426,60513,59373,2893,3168,-30127
942,19421,4.46455,8.97695,-1.28721,94.8615,-26.5759,-138.076,2.74658,-0.976563,0.366211,0.393555,0.111176,-0.724915,-0.554199,60514,59372,2892,3168,-30127
948,19427,4.321,9.05352,-1.24893,94.8834,-26.5704,-138.098,1.83105,-1.77002,0.12207,0.393433,0.111145,-0.725037,-0.554138,60516,59373,2891,3168,-30127
954,19433,4.40234,9.04395,-1.17715,94.8999,-26.5649,-138.115,1.34277,-2.01416,-0.305176,0.39328,0.111115,-0.725128,-0.554108,60518,59374,2892,3168,-30127
960,19439,4.34014,8.7999,-0.899609,94.9219,-26.554,-138.148,0.427246,-0.366211,-0.610352,0.393158,0.111053,-0.72522,-0.554108,60518,59374,2893,3168,-30127
966,19445,4.31621,8.67549,-0.91875,94.9329,-26.5485,-138.159,0.732422,-0.671387,-0.976563,0.392944,0.111053,-0.725311,-0.554138,60516,59370,2890,3168,-30127
972,19451,4.23965,8.55586,-1.01445,94.9493,-26.5375,-138.181,1.95313,-2.19727,-1.58691,0.392761,0.111053,-0.725433,-0.554108,60517,59368,2887,3168,-30127
978,19457,4.37363,8.69463,-1.1293,94.9823,-26.521,-138.208,3.2959,-3.72314,-2.68555,0.392517,0.111053,-0.725586,-0.554077,60518,59367,2885,3168,-30127
984,19463,4.42148,8.86689,-1.14365,95.0153,-26.5045,-138.241,3.41797,-4.3335,-2.62451,0.392242,0.111084,-0.725769,-0.554047,60519,59365,2887,3168,-30127
990,19469,4.31621,8.96738,-1.03838,95.0812,-26.4606,-138.312,3.96729,-4.94385,-3.54004,0.391937,0.111084,-0.725952,-0.554047,60522,59368,2892,3168,-30127
996,19475,4.28271,9.00088,-1.07666,95.1251,-26.4386,-138.356,4.76074,-5.98145,-4.08936,0.391235,0.111115,-0.726379,-0.553955,60522,59368,2894,3168,-30127
1002,19481,4.254,8.98174,-1.36855,95.1801,-26.4111,-138.411,5.5542,-8.54492,-4.57764,0.390747,0.111145,-0.726654,-0.553894,60519,59368,2898,3168,-30127
1008,19487,4.38799,9.12529,-1.62695,95.2405,-26.3727,-138.477,6.40869,-10.8643,-5.98145,0.390167,0.111145,-0.72699,-0.553864,60518,59368,2903,3168,-30127
1014,19493,4.50283,9.4124,-1.71787,95.3009,-26.3342,-138.543,5.31006,-11.2915,-6.7749,0.389587,0.111176,-0.727325,-0.553864,60516,59367,2906,3168,-30127
1020,19499,4.59854,9.4124,-2.11504,95.3888,-26.2408,-138.675,1.40381,-11.7798,-8.36182,0.388977,0.111145,-0.7276,-0.553925,60514,59366,2917,3168,-30127
1026,19505,4.7373,9.48418,-2.46436,95.4163,-26.1859,-138.735,-1.0376,-11.2915,-9.15527,0.387756,0.111176,-0.727966,-0.554291,60511,59367,2918,3168,-30127
1032,19511,4.9957,9.60381,-2.31123,95.4272,-26.1365,-138.796,-4.82178,-10.8032,-9.21631,0.387177,0.111145,-0.728058,-0.554596,60510,59369,2922,3168,-30127
1038,19517,4.92393,9.57988,-2.61748,95.4218,-26.0706,-138.845,-6.95801,-10.0708,-11.4746,0.386597,0.111176,-0.728027,-0.555023,60507,59369,2924,3168,-30127
1044,19523,5.08662,9.51289,-2.65098,95.3943,-26.0211,-138.884,-10.9863,-7.99561,-9.76563,0.386139,0.111145,-0.727905,-0.555481,60503,59370,2928,3168,-30127
1050,19529,5.07227,9.53682,-4.50283,95.2954,-25.9003,-138.972,-19.4702,-10.1318,-10.6201,0.38562,0.111115,-0.727722,-0.556091,60500,59374,2929,3168,-30127
1056,19535,5.67998,9.85264,-5.21104,95.2075,-25.8508,-139.01,-27.0386,-10.498,-9.0332,0.384766,0.110687,-0.72699,-0.557709,60496,59376,2928,3168,-30127
1062,19541,6.45039,9.98662,-5.7709,95.0592,-25.8014,-139.026,-36.1938,-6.5918,-8.66699,0.384583,0.110382,-0.726288,-0.558838,60493,59377,2926,3168,-30127
1068,19547,7.2543,10.1397,-5.89531,94.8505,-25.7574,-138.988,-45.8984,3.17383,-9.21631,0.384766,0.110168,-0.725189,-0.560181,60491,59382,2925,3168,-30127
1074,19553,14.8723,20.2508,-11.6614,94.5758,-25.708,-138.862,-53.0396,17.2729,-12.3901,0.385376,0.110352,-0.723663,-0.561676,60489,59387,2922,3168,-30127
1080,19559,8.12998,9.86699,-2.87109,93.9825,-25.5267,-138.565,-54.9927,11.7798,-26.3062,0.386292,0.11087,-0.721863,-0.563293,60484,59398,2816,3168,-30127
1086,19565,9.72344,12.4414,1.07666,93.8342,-25.329,-138.658,-44.4946,-20.813,-39.917,0.385071,0.111389,-0.719574,-0.566956,60480,59407,2915,3168,-30127
1092,19571,17.6477,17.7816,2.31123,93.8947,-24.8676,-139.131,-32.4097,-88.3789,-90.5151,0.380188,0.111359,-0.719971,-0.569733,60476,59418,2910,3168,-30127
1098,19577,19.6048,13.5085,-0.488086,93.8232,-24.1479,-139.587,-52.6733,-84.8389,-145.081,0.374054,0.112518,-0.719513,-0.574097,60470,59429,2905,3168,-30127
1104,19583,12.9008,8.69463,-4.68945,93.5266,-23.4778,-139.515,-52.7954,15.3198,-142.456,0.371094,0.115967,-0.717438,-0.577942,60459,59403,2902,3168,-30127
1110,19589,4.35928,7.12031,-2.20117,92.6367,-22.3956,-138.988,-86.1206,24.9023,-117.004,0.370697,0.120483,-0.714386,-0.581024,60478,59377,2890,3168,-30127
1116,19595,6.40732,3.8042,0.842188,92.3236,-21.9232,-139.274,-82.2144,-43.5181,-102.295,0.365173,0.122925,-0.709717,-0.589691,60501,59372,2882,3168,-30127
1122,19601,8.78076,3.87598,-3.37832,92.2797,-21.4398,-139.807,-46.0205,-86.0596,-103.149,0.359863,0.122345,-0.709564,-0.593231,60516,59329,2874,3168,-30127
1128,19607,13.1927,2.45,-6.65137,92.2961,-21.0608,-140.559,-44.0063,-118.713,-83.8623,0.353882,0.120026,-0.710114,-0.59668,60527,59294,2865,3168,-30127
1134,19613,15.8628,2.19639,-4.0626,92.1698,-20.7861,-141.356,-67.8711,-117.31,-64.27,0.348328,0.116333,-0.710022,-0.600739,60533,59269,2856,3168,-30127
1140,19619,17.4036,0.488086,-7.65625,91.8402,-20.5499,-142.471,-36.1328,-43.9453,-26.9775,0.344208,0.112823,-0.709503,-0.60437,60618,59235,2844,3168,-30127
1146,19625,17.7146,1.07666,-7.00068,91.7413,-20.495,-142.888,-22.2778,-30.4565,-26.5503,0.339081,0.107269,-0.708984,-0.608856,60648,59187,2839,3168,-30127
1152,19631,17.2266,1.03838,-6.07715,91.5765,-20.5005,-143.251,-28.1372,-19.4092,-16.2354,0.337341,0.104553,-0.708466,-0.610931,60671,59148,2836,3168,-30127
1158,19637,16.0925,-0.258398,-6.43125,91.3074,-20.5664,-143.514,-41.8091,-0.793457,-4.76074,0.336517,0.101715,-0.707336,-0.61319,60691,59112,2832,3168,-30127
1164,19643,13.6951,-1.871,-4.7708,90.9668,-20.7092,-143.723,-50.8423,10.376,8.60596,0.336487,0.0986023,-0.70578,-0.615479,60705,59081,2827,3168,-30127
1170,19649,10.9437,-4.26836,-2.06719,90.6262,-20.9015,-143.926,-49.5605,9.70459,19.2871,0.336731,0.0951233,-0.704285,-0.617615,60719,59057,2823,3168,-30127
1176,19655,9.93877,-5.04834,-1.59346,90.1978,-21.3849,-144.509,-18.9819,-14.7705,30.8838,0.336517,0.0873718,-0.70282,-0.620514,60742,59015,2807,3168,-30127
1182,19661,9.4124,-5.08662,-0.995313,90.2142,-21.6705,-144.932,8.11768,-32.4097,36.8652,0.335815,0.0830688,-0.70343,-0.620819,60752,58998,2798,3168,-30127
1188,19667,9.42676,-4.24443,-0.650781,90.412,-21.9946,-145.453,37.6587,-52.063,42.7246,0.334595,0.0784607,-0.705078,-0.620178,60761,58983,2789,3168,-30127
1194,19673,10.3024,-2.32559,-1.01924,90.7526,-22.3517,-146.058,60.0586,-67.627,50.1709,0.333038,0.0735474,-0.70755,-0.618805,60772,58970,2780,3168,-30127
1200,19679,11.5035,-0.110059,-1.34463,91.1646,-22.7417,-146.695,71.0449,-73.6694,58.3496,0.331512,0.0683899,-0.710388,-0.616974,60783,58955,2778,3168,-30127
1206,19685,12.7237,3.28262,-1.68916,91.972,-23.6261,-147.936,67.627,-67.8101,71.4111,0.330261,0.0630798,-0.713226,-0.61496,60807,58923,2795,3168,-30127
1212,19691,12.7572,4.38799,-1.59346,92.3126,-24.0985,-148.513,59.7534,-60.9131,75.6226,0.328705,0.052124,-0.718079,-0.611115,60821,58904,2812,3168,-30127
1218,19697,12.7237,5.03398,-1.46904,92.6093,-24.5819,-149.063,52.3071,-55.0537,77.3315,0.328339,0.0466614,-0.720062,-0.609436,60833,58885,2831,3168,-30127
1224,19703,12.5658,5.38809,-1.08623,92.8619,-25.0598,-149.573,46.3867,-48.1567,77.2095,0.328217,0.0412903,-0.721741,-0.60791,60843,58906,2854,3168,-30127
1230,19709,12.1304,5.67041,-0.60293,93.0927,-25.5377,-150.04,44.1895,-40.1611,77.2705,0.328339,0.0361328,-0.723206,-0.606415,60857,58923,2878,3185,-30129
1236,19715,10.5896,6.40732,-0.0861328,93.5486,-26.4935,-150.864,47.6074,-27.1606,78.6743,0.328705,0.0312195,-0.724579,-0.604858,60892,58940,2926,3185,-30129
1242,19721,9.81436,6.78057,0.119629,93.7848,-26.9989,-151.238,50.5981,-23.1934,82.5806,0.330078,0.021759,-0.727264,-0.601288,60908,58940,2951,3072,-30128
1248,19727,9.27842,7.08682,0.00957031,94.0375,-27.5208,-151.606,53.4058,-20.6909,88.1348,0.331085,0.0169983,-0.728607,-0.599243,60874,58939,2974,3072,-30128
1254,19733,9.07744,7.23516,-0.30625,94.3011,-28.0756,-151.957,56.2134,-17.395,94.1162,0.332367,0.0122375,-0.730011,-0.596954,60848,58978,2999,3072,-30128
1260,19739,8.94346,7.76631,-0.478516,94.5813,-28.6469,-152.303,58.7769,-15.8691,98.0835,0.333771,0.00744629,-0.731415,-0.594543,60826,59007,3025,3072,-30128
1266,19745,9.02959,8.89082,-0.894824,95.1526,-29.7949,-152.979,58.8989,-12.3291,99.1821,0.335266,0.00265503,-0.732819,-0.59201,60801,59045,3083,3072,-30128
1272,19751,8.91475,9.30713,-1.03838,95.4163,-30.3497,-153.292,55.3589,-8.36182,96.9849,0.338379,-0.00650024,-0.735291,-0.587097,60797,59054,3113,3072,-30128
1278,19757,8.55107,9.64688,-1.33027,95.647,-30.8826,-153.572,51.1475,-3.05176,92.4072,0.340027,-0.0107727,-0.736267,-0.584869,60795,59101,3143,3072,-30128
1284,19763,7.929,9.83828,-1.7083,95.8447,-31.3879,-153.831,45.7764,-0.0610352,86.6089,0.341614,-0.014801,-0.73703,-0.582886,60747,59137,3174,3072,-30128
1290,19769,7.30215,9.95313,-1.79443,96.0205,-31.8549,-154.083,39.978,-0.183105,80.0781,0.342987,-0.0186768,-0.737671,-0.581146,60711,59167,3202,3072,-30128
1296,19775,6.39297,10.0871,-1.871,96.3281,-32.6733,-154.633,28.8086,-6.10352,66.2231,0.344116,-0.0223999,-0.73822,-0.579651,60681,59191,3230,3072,-30128
1302,19781,6.17285,10.2354,-1.91885,96.449,-33.0139,-154.935,21.1182,-10.5591,58.4717,0.345459,-0.0296326,-0.739044,-0.577484,60639,59263,3280,3072,-30128
1308,19787,5.94795,10.0153,-1.89014,96.5533,-33.3215,-155.242,13.9771,-13.7939,52.002,0.345673,-0.0331116,-0.739288,-0.576843,60626,59310,3302,3072,-30128
1314,19793,5.87139,9.46025,-1.42119,96.6522,-33.5907,-155.566,10.498,-17.0898,44.9219,0.345612,-0.0364685,-0.739502,-0.576385,60617,59352,3324,3072,-30128
1320,19799,5.87617,9.0918,-0.736914,96.7676,-33.8159,-155.901,11.7188,-20.6909,37.2314,0.345276,-0.0395813,-0.739838,-0.575989,60610,59386,3345,3072,-30128
1326,19805,6.10107,9.02481,-0.579004,97.0807,-34.1565,-156.55,19.9585,-22.0337,24.292,0.344727,-0.0423889,-0.740326,-0.57547,60554,59415,3367,3072,-30128
1332,19811,6.13936,9.08701,-0.449805,97.251,-34.2883,-156.835,23.6206,-18.6157,19.4702,0.343475,-0.0469055,-0.741547,-0.57431,60466,59463,3412,3072,-30128
1338,19817,6.14414,9.24492,-0.636426,97.4213,-34.3982,-157.083,26.7334,-13.7329,15.564,0.342926,-0.0486145,-0.742218,-0.573608,60428,59481,3434,3072,-30128
1344,19823,5.78525,9.68994,-0.588574,97.5916,-34.4861,-157.297,28.5645,-9.58252,11.9019,0.342468,-0.0500183,-0.742889,-0.572876,60395,59497,3457,3193,-30130
1350,19829,5.34502,9.85742,-0.669922,97.7509,-34.563,-157.462,30.3345,-4.45557,8.8501,0.342163,-0.0510864,-0.743561,-0.572144,60366,59513,3478,3193,-30130
1356,19835,4.20615,10.1493,-0.765625,97.9102,-34.6399,-157.593,35.4614,2.2583,9.27734,0.34201,-0.0518799,-0.744232,-0.571259,60343,59528,3498,3193,-30130
1362,19841,3.82334,10.0393,-0.712988,98.2452,-34.7992,-157.791,36.9263,4.02832,11.1084,0.342102,-0.0530701,-0.745667,-0.569214,60305,59549,3530,3193,-30130
1368,19847,3.58887,9.77129,-0.588574,98.421,-34.8871,-157.857,39.6118,6.34766,13.1836,0.342407,-0.0534973,-0.746429,-0.567993,60291,59560,3545,3193,-30130
1374,19853,3.21084,9.75215,-0.449805,98.6133,-34.9969,-157.89,44.4946,10.0708,16.2354,0.342957,-0.053772,-0.747284,-0.566559,60279,59568,3564,3193,-30130
1380,19859,2.70361,9.9627,-0.363672,98.8275,-35.1178,-157.901,51.0864,13.1226,20.2026,0.343719,-0.053894,-0.748199,-0.564819,60269,59574,3584,3193,-30130
1386,19865,2.08154,10.8145,-0.775195,99.0637,-35.2661,-157.89,56.5186,15.5029,25.2686,0.344757,-0.0539246,-0.749237,-0.562805,60261,59578,3606,3193,-30130
1392,19871,1.82314,11.2116,-0.942676,99.5801,-35.6177,-157.808,64.209,20.2637,34.4238,0.347504,-0.053833,-0.751465,-0.558136,60261,59578,3644,3193,-30130
1398,19877,1.40684,11.8768,-1.01924,99.8547,-35.8264,-157.72,68.4204,24.4751,38.4521,0.349243,-0.0536194,-0.752625,-0.555511,60264,59614,3658,3193,-30130
1404,19883,0.92832,12.8338,-1.29199,100.124,-36.0571,-157.593,71.9604,29.6021,44.0674,0.351349,-0.0532532,-0.753784,-0.552643,60217,59644,3674,3193,-30130
1410,19889,0.535937,13.81,-1.97627,100.377,-36.3208,-157.429,70.3735,34.4238,50.5371,0.353821,-0.052887,-0.754791,-0.549713,60177,59670,3691,3193,-30130
1416,19895,-0.062207,14.8244,-2.69883,100.574,-36.6174,-157.225,63.5376,40.4663,57.373,0.356628,-0.0525818,-0.755524,-0.546906,60144,59691,3708,3193,-30130
1422,19901,-0.559863,14.7957,-2.38301,100.728,-37.3096,-156.649,42.5415,56.7627,70.0684,0.363525,-0.0521545,-0.755829,-0.541992,60097,59714,3747,3193,-30130
1428,19907,-1.31592,14.5708,-1.66045,100.684,-37.6996,-156.275,33.4473,65.5518,75.2563,0.367554,-0.052002,-0.755371,-0.539886,60087,59719,3760,3193,-30130
1434,19913,-2.0624,14.1736,-1.0958,100.574,-38.1061,-155.847,26.3672,72.8149,79.4678,0.371918,-0.0518494,-0.754639,-0.537994,60083,59761,3770,3193,-30130
1440,19919,-3.58887,13.7813,-0.966602,100.426,-38.5345,-155.413,20.2637,73.1812,83.9233,0.376343,-0.0518494,-0.753693,-0.536194,60030,59797,3777,3193,-30130
1446,19925,-2.5457,12.9917,-0.330176,100.239,-38.963,-154.94,17.0288,77.3315,86.0596,0.380951,-0.0517883,-0.752594,-0.534515,59987,59822,3782,3193,-30130
1452,19931,-6.32119,13.1448,-0.287109,99.6954,-39.8584,-153.715,17.395,97.7173,85.4492,0.386322,-0.0513306,-0.75119,-0.532654,59942,59897,3788,3193,-30130
1458,19937,-6.30684,13.3602,-0.0669922,99.3933,-40.2924,-153.116,12.085,92.7734,88.9282,0.396606,-0.0502319,-0.748138,-0.52951,59882,59940,3790,3072,-30128
1464,19943,-6.65137,13.1687,-0.421094,99.1022,-40.7153,-152.567,8.36182,83.6182,90.3931,0.401398,-0.0500793,-0.746613,-0.528046,59837,59976,3788,3072,-30128
1470,19949,-6.46953,13.0826,-0.531152,98.822,-41.1163,-152.067,4.39453,73.4253,88.623,0.405792,-0.0501099,-0.745148,-0.526764,59799,60006,3782,3072,-30128
1476,19955,-5.50771,13.1305,-0.205762,98.5419,-41.4734,-151.622,-10.3149,57.6782,74.9512,0.409668,-0.0502625,-0.743683,-0.525787,59772,60028,3773,3072,-30128
1482,19961,-5.71826,12.9438,0.387598,97.8772,-42.0392,-150.765,-17.6392,56.8848,68.1152,0.416443,-0.0503845,-0.740479,-0.524994,59646,60128,3752,3072,-30128
1488,19967,-6.43604,12.3936,0.382813,97.4817,-42.2809,-150.326,-25.2686,55.7251,64.1479,0.419556,-0.0503845,-0.738647,-0.525116,59603,60164,3738,3072,-30128
1494,19973,4.67988,20.0067,9.30234,97.9047,-42.1216,-150.546,52.3682,-50.1709,-2.38037,0.417877,-0.0493164,-0.740631,-0.523743,59570,60191,3724,3072,-30128
1500,19979,-3.81855,20.7771,-2.26338,98.1299,-41.7975,-150.524,44.6777,-20.752,-39.917,0.41629,-0.0464783,-0.741974,-0.523346,59540,60214,3711,3072,-30128
1506,19985,-5.21582,14.322,-4.67031,96.8665,-41.1218,-149.376,-58.8989,74.2798,-63.1714,0.416718,-0.0437317,-0.739868,-0.526215,59464,60235,3700,3072,-30128
1512,19991,-8.65635,15.7671,-0.435449,96.2238,-40.6274,-148.661,-40.4053,80.3833,-83.4961,0.417938,-0.0346375,-0.734772,-0.53302,59337,60283,3676,3072,-30128
1518,19997,-12.4893,15.2168,1.6126,95.3174,-40.0507,-147.684,-59.3872,121.399,-102.112,0.41922,-0.0282898,-0.731171,-0.537323,59281,60310,3659,3072,-30128
1524,20003,-14.6378,8.24961,2.80889,94.1473,-39.4519,-146.486,-85.144,156.982,-106.445,0.421448,-0.0214233,-0.726227,-0.542572,59230,60298,3636,3072,-30128
1530,20009,-9.98662,2.99072,3.58408,93.0432,-38.7378,-145.437,-91.6138,137.817,-123.596,0.422607,-0.0145569,-0.721436,-0.548279,59188,60294,3605,3072,-30128
1536,20015,-2.52656,-6.30205,13.1783,92.6422,-36.8207,-145.563,5.79834,-76.5381,-173.34,0.418884,-0.0102234,-0.718689,-0.55481,59162,60305,3538,3072,-30128
1542,20021,2.00977,0.311035,11.4652,93.9166,-35.6726,-146.47,150.574,-175.415,-193.909,0.401733,0.000457764,-0.72644,-0.557495,59172,60280,3502,3072,-30128
1548,20027,2.98594,5.99102,0.851758,96.059,-34.4092,-147.805,278.992,-256.531,-206.482,0.388428,0.00683594,-0.737213,-0.552734,59175,60267,3471,3072,-30128
1554,20033,4.88086,19.3177,-12.0969,98.3386,-33.2886,-149.156,307.068,-268.677,-169.861,0.375488,0.012207,-0.748627,-0.546204,59169,60220,3457,3072,-30128
1560,20039,8.90518,35.1661,-19.1215,99.8602,-32.3053,-150.244,185.364,-229.614,-141.174,0.364502,0.0155945,-0.756378,-0.542847,59200,60181,3462,3072,-30128
1566,20045,11.671,30.4527,-19.8919,99.3164,-30.9924,-150.672,-167.358,-21.2402,-94.2993,0.357635,0.017334,-0.758209,-0.5448,59230,60124,3510,3072,-30128
1572,20051,9.57031,16.7193,-9.34062,97.8278,-30.5695,-150.024,-239.99,78.6133,-80.5054,0.355865,0.0206299,-0.747101,-0.560944,59278,60108,3546,3072,-30128
1578,20057,7.33564,8.10606,-0.0287109,96.3171,-30.1904,-149.112,-219.36,129.211,-76.2329,0.358521,0.0240784,-0.739532,-0.569092,59312,60058,3580,3168,-30127
1584,20063,4.18223,3.27783,4.56504,95.0482,-29.8279,-148.167,-167.847,138.062,-70.8618,0.361481,0.0282593,-0.733032,-0.575378,59340,60023,3600,3168,-30127
1590,20069,1.69873,3.47402,3.79941,94.1858,-29.4818,-147.305,-96.6187,127.075,-64.5142,0.364136,0.0330811,-0.728455,-0.579285,59365,59959,3604,3168,-30127
1596,20075,-2.78975,8.89561,0.492871,93.2904,-28.8391,-146.266,-31.8604,49.9878,-47.2412,0.365631,0.037384,-0.725281,-0.582062,59406,59862,3587,3168,-30127
1602,20081,-2.37344,11.2786,-2.67969,93.1366,-28.6084,-146.08,-20.6909,13.9771,-31.4941,0.365906,0.0427856,-0.722626,-0.584808,59424,59829,3568,3168,-30127
1608,20087,-0.545508,13.0013,-2.71318,92.9883,-28.4216,-146.036,-34.8511,-10.498,-20.6299,0.365204,0.0436707,-0.721771,-0.586212,59442,59763,3545,3168,-30127
1614,20093,1.91406,10.7666,-2.62227,92.7576,-28.2404,-146.124,-62.1338,-33.8135,-18.4937,0.363861,0.0434875,-0.720612,-0.58847,59458,59706,3523,3168,-30127
1620,20099,5.14883,7.69932,-2.43086,92.5214,-28.0756,-146.239,-68.4204,-38.8184,-16.7847,0.362457,0.0429993,-0.719391,-0.590912,59471,59655,3501,3168,-30127
1626,20105,7.05332,8.39795,-0.449805,92.1478,-27.7625,-146.239,-37.7808,-4.5166,-15.564,0.361206,0.0429382,-0.718353,-0.592896,59486,59575,3466,3168,-30127
1632,20111,6.0915,9.99619,0.00478516,91.9391,-27.6306,-146.025,-30.7617,21.9727,-14.7095,0.361389,0.0451965,-0.716187,-0.595245,59492,59544,3451,3168,-30127
1638,20117,4.28271,10.3981,-1.06709,91.6644,-27.5098,-145.717,-35.8276,38.269,-14.3433,0.362396,0.0470276,-0.7146,-0.596375,59547,59517,3436,3168,-30127
1644,20123,2.67969,9.32627,-1.56475,91.3733,-27.3889,-145.437,-42.4805,34.4849,-12.8784,0.363373,0.0485535,-0.712921,-0.597717,59596,59493,3424,3168,-30127
1650,20129,2.18682,8.35488,-1.30156,91.1316,-27.2845,-145.25,-41.0156,17.5781,-10.0708,0.363892,0.0495911,-0.711517,-0.598969,59592,59474,3407,3168,-30127
1656,20135,3.91426,8.88125,-1.34463,90.8569,-27.0978,-145.129,-28.9307,-9.33838,-7.38525,0.363892,0.0501709,-0.710602,-0.600006,59587,59445,3367,3168,-30127
1662,20141,5.13926,9.50332,-1.84229,90.7416,-27.0099,-145.091,-29.0527,-7.32422,-6.95801,0.363434,0.0510254,-0.70929,-0.601746,59584,59434,3346,3168,-30127
1668,20147,5.77568,9.75693,-2.21553,90.5878,-26.9275,-145.003,-32.7759,0.915527,-6.65283,0.363525,0.0515747,-0.708435,-0.602661,59583,59385,3328,3168,-30127
1674,20153,5.50771,9.72344,-1.93799,90.3845,-26.8451,-144.86,-37.7808,10.6201,-8.05664,0.363892,0.0523376,-0.707275,-0.603729,59581,59340,3309,3168,-30127
1680,20159,4.9335,9.35498,-1.72266,90.1593,-26.7627,-144.684,-40.4053,16.8457,-7.69043,0.364471,0.0531921,-0.705963,-0.604828,59577,59300,3294,3168,-30127
1686,20165,4.22529,9.03916,-1.30156,89.7144,-26.6089,-144.333,-38.147,17.395,-7.14111,0.365143,0.0540771,-0.70462,-0.605896,59615,59237,3258,3168,-30127
1692,20171,4.63203,9.18272,-1.6748,89.5001,-26.532,-144.168,-39.978,15.7471,-7.01904,0.366333,0.0556641,-0.702118,-0.607971,59607,59213,3239,3168,-30127
1698,20177,4.92393,9.03916,-1.50732,89.2749,-26.4551,-144.014,-42.1143,14.7095,-8.30078,0.366852,0.0563965,-0.700806,-0.6091,59601,59190,3221,3168,-30127
1704,20183,4.95264,8.80469,-1.34941,89.0497,-26.3727,-143.855,-41.748,15.625,-9.0332,0.367371,0.0571289,-0.699493,-0.610229,59646,59170,3202,3168,-30127
1710,20189,4.8665,8.80947,-1.44512,88.83,-26.2903,-143.701,-41.3208,15.625,-9.8877,0.367889,0.0578918,-0.698181,-0.611328,59636,59156,3181,3168,-30127
1716,20195,4.65117,9.49375,-1.3207,88.3411,-26.1255,-143.35,-47.4243,21.2402,-9.64355,0.368439,0.0586853,-0.696838,-0.612457,59620,59133,3138,3168,-30127
1722,20201,4.55068,9.08701,-0.689063,88.0444,-26.0486,-143.152,-52.4292,24.6582,-8.60596,0.369995,0.0602112,-0.693542,-0.615112,59661,59125,3117,3168,-30127
1728,20207,4.23008,8.46016,0.0382813,87.7423,-25.9717,-142.943,-53.7109,26.4893,-8.97217,0.37088,0.0609436,-0.691772,-0.616516,59700,59121,3097,3168,-30127
1734,20213,4.27314,8.0582,0.277539,87.4567,-25.9058,-142.734,-49.3164,27.2217,-7.75146,0.371765,0.0617065,-0.690063,-0.617767,59684,59117,3077,3168,-30127
1740,20219,4.09131,7.88115,0.311035,87.215,-25.8289,-142.553,-42.2974,23.8647,-9.0332,0.372528,0.0625,-0.688629,-0.618866,59720,59113,3060,3168,-30127
1746,20225,3.92383,8.68027,-0.129199,86.8414,-25.6915,-142.256,-33.5693,14.8926,-8.60596,0.373199,0.0632629,-0.687408,-0.619751,59751,59111,3041,3168,-30127
1752,20231,3.96689,8.72813,-0.488086,86.6821,-25.6311,-142.141,-31.3721,12.3291,-7.87354,0.374054,0.0644836,-0.685364,-0.621368,59712,59112,2993,3168,-30127
1758,20237,4.27793,8.94346,-0.526367,86.5283,-25.5707,-142.026,-31.4331,12.207,-7.50732,0.374451,0.065033,-0.684418,-0.622131,59745,59113,2967,3168,-30127
1764,20243,4.50283,8.87646,-0.569434,86.358,-25.5103,-141.91,-33.0811,13.0615,-7.50732,0.374878,0.0655518,-0.68338,-0.622925,59775,59113,2940,3168,-30127
1770,20249,4.30186,8.74727,0.110059,86.1823,-25.4553,-141.779,-33.9966,16.1743,-7.20215,0.375397,0.0661011,-0.682281,-0.623749,59802,59075,2915,3168,-30127
1776,20255,3.99561,7.7998,0.90918,85.8362,-25.3345,-141.515,-30.5786,16.6016,-7.99561,0.375946,0.0667114,-0.681183,-0.624573,59777,59043,2891,3168,-30127
1782,20261,3.67021,7.66104,1.39727,85.7098,-25.274,-141.411,-24.4751,12.9395,-8.48389,0.37677,0.0678711,-0.679352,-0.625946,59827,58989,2849,3168,-30127
1788,20267,3.36396,7.68018,1.65088,85.6274,-25.2136,-141.345,-17.7002,6.71387,-8.8501,0.376892,0.0683899,-0.678833,-0.626373,59801,58969,2829,3168,-30127
1794,20273,3.24434,7.6084,1.60303,85.6,-25.1587,-141.317,-10.376,-0.305176,-8.54492,0.37677,0.0687866,-0.678619,-0.626617,59778,58950,2810,3168,-30127
1800,20279,3.30654,7.66104,1.39727,85.6274,-25.1093,-141.334,-2.62451,-7.38525,-8.42285,0.376434,0.0690918,-0.678741,-0.626678,59757,58932,2795,3168,-30127
1806,20285,3.50752,8.32617,1.03359,85.7867,-25.0214,-141.438,7.62939,-16.1133,-8.23975,0.375916,0.0693665,-0.679077,-0.626587,59737,58915,2780,3168,-30127
1812,20291,3.60801,8.44102,0.77998,85.8966,-24.9774,-141.52,9.64355,-19.2261,-7.62939,0.374573,0.0697021,-0.680206,-0.626129,59704,58891,2753,3168,-30127
1818,20297,3.73721,8.5415,0.507227,86.0229,-24.939,-141.619,11.4746,-22.2168,-7.99561,0.373749,0.0697937,-0.680939,-0.625824,59736,58882,2741,3168,-30127
1824,20303,3.91904,8.58936,0.325391,86.1603,-24.9005,-141.729,13.1836,-24.353,-7.38525,0.372894,0.0698242,-0.681702,-0.625488,59765,58874,2732,3168,-30127
1830,20309,3.98604,8.65156,0.0717773,86.3141,-24.8621,-141.855,15.3198,-26.4893,-7.32422,0.371918,0.0697937,-0.682587,-0.625092,59791,58869,2724,3168,-30127
1836,20315,4.254,8.89561,-0.550293,86.6492,-24.7961,-142.125,18.3716,-28.8086,-6.71387,0.370911,0.0697632,-0.683533,-0.624664,59814,58863,2717,3168,-30127
1842,20321,4.33535,9.12051,-0.77041,86.8195,-24.7632,-142.256,17.7612,-27.9541,-6.83594,0.368927,0.0696716,-0.685486,-0.623718,59847,58850,2712,3168,-30127
1848,20327,4.5124,9.26885,-0.880469,86.9678,-24.7357,-142.372,15.3198,-24.9023,-6.04248,0.368073,0.0696411,-0.68634,-0.623291,59860,58847,2710,3168,-30127
1854,20333,4.61289,9.19707,-1.06709,87.0941,-24.7028,-142.471,13.0005,-22.0337,-6.46973,0.367279,0.0696716,-0.687103,-0.622925,59873,58843,2710,3168,-30127
1860,20339,4.69902,9.154,-1.26328,87.204,-24.6698,-142.548,10.8032,-18.1274,-6.22559,0.366608,0.0697327,-0.687714,-0.62262,59884,58840,2714,3168,-30127
1866,20345,4.67031,9.39326,-1.59346,87.3798,-24.6039,-142.657,6.7749,-12.5122,-6.5918,0.366058,0.0698853,-0.688263,-0.622345,59891,58837,2720,3168,-30127
1872,20351,4.69424,9.62295,-1.65566,87.4347,-24.5709,-142.685,2.68555,-9.0332,-6.5918,0.365234,0.070282,-0.688965,-0.622009,59901,58833,2733,3168,-30127
1878,20357,4.62725,9.65645,-1.59824,87.4567,-24.538,-142.69,-2.31934,-5.67627,-6.22559,0.36499,0.0704956,-0.689056,-0.622009,59900,58830,2741,3168,-30127
1884,20363,4.75166,9.4459,-1.9667,87.4457,-24.4995,-142.69,-7.08008,-3.78418,-6.7749,0.364838,0.0707092,-0.688995,-0.622162,59898,58828,2749,3168,-30127
1890,20369,4.42627,9.38369,-1.33506,87.4127,-24.472,-142.657,-10.1929,1.15967,-5.31006,0.364868,0.0709839,-0.688782,-0.622345,59899,58827,2758,3168,-30127
1896,20375,4.39277,9.16357,-1.16279,87.3029,-24.4171,-142.564,-14.0991,5.67627,-4.57764,0.36496,0.0712891,-0.688446,-0.622589,59901,58828,2765,3168,-30127
1902,20381,4.321,9.32627,-0.942676,87.2314,-24.3842,-142.498,-15.8081,7.8125,-5.12695,0.365417,0.0719299,-0.687592,-0.623199,59903,58828,2781,3168,-30127
1908,20387,4.3832,9.26406,-0.957031,87.1326,-24.3622,-142.421,-19.2261,9.70459,-3.90625,0.365784,0.0722046,-0.687012,-0.623596,59904,58830,2783,3168,-30127
1914,20393,4.46455,9.23535,-1.00488,87.0282,-24.3347,-142.333,-20.9961,11.1694,-4.88281,0.36615,0.0725708,-0.686371,-0.624084,59904,58832,2783,3168,-30127
1920,20399,4.33057,9.19229,-0.717773,86.9019,-24.3073,-142.234,-23.3765,14.6484,-4.39453,0.366638,0.072937,-0.685577,-0.624573,59904,58832,2783,3168,-30127
1926,20405,4.11045,8.61328,-0.129199,86.6382,-24.2468,-142.037,-23.9258,13.855,-6.10352,0.367157,0.0732727,-0.684753,-0.625153,59903,58833,2780,3168,-30127
1932,20411,4.15352,8.66592,-0.162695,86.5173,-24.2139,-141.943,-22.583,13.4277,-5.24902,0.368011,0.0740051,-0.683228,-0.626251,59902,58838,2767,3168,-30127
1938,20417,4.48848,8.93389,-0.645996,86.4075,-24.1809,-141.866,-21.4233,11.2915,-6.65283,0.368317,0.0743713,-0.682556,-0.62674,59901,58839,2760,3168,-30127
1944,20423,4.23008,8.99609,-0.301465,86.3086,-24.1479,-141.79,-20.5688,10.8643,-5.98145,0.368652,0.074707,-0.681915,-0.627228,59899,58841,2755,3168,-30127
1950,20429,4.24922,8.80469,-0.30625,86.2042,-24.1095,-141.713,-20.5078,10.437,-6.71387,0.368927,0.0750427,-0.681274,-0.627686,59901,58845,2746,3168,-30127
1956,20435,4.321,8.99609,-0.0861328,86.012,-24.0216,-141.586,-19.5313,9.58252,-8.23975,0.36911,0.0753479,-0.680664,-0.628235,59902,58850,2740,3168,-30127
1962,20441,4.20615,8.83818,-0.124414,85.9186,-23.9832,-141.515,-19.5313,10.2539,-7.75146,0.369568,0.0760803,-0.679443,-0.629181,59903,58858,2728,3168,-30127
1968,20447,4.24922,8.86211,-0.512012,85.8252,-23.9337,-141.454,-19.8364,8.72803,-9.8877,0.36972,0.0764465,-0.678864,-0.6297,59903,58863,2720,3168,-30127
1974,20453,4.4167,8.99609,-0.60293,85.7318,-23.8898,-141.394,-19.165,8.8501,-8.91113,0.369873,0.0768127,-0.678284,-0.630188,59902,58869,2714,3168,-30127
1980,20459,4.39277,9.04395,-0.77041,85.6384,-23.8403,-141.328,-19.3481,9.46045,-9.82666,0.370056,0.0772095,-0.677673,-0.630676,59900,58873,2706,3168,-30127
1986,20465,4.31143,9.29756,-0.492871,85.4297,-23.7305,-141.191,-22.7661,10.1929,-10.9863,0.370239,0.0776367,-0.677032,-0.631195,59897,58836,2696,3168,-30127
1992,20471,4.34014,9.09658,-0.717773,85.3088,-23.67,-141.119,-25.4517,11.2915,-12.0239,0.370605,0.0784302,-0.675537,-0.632477,59897,58778,2670,3168,-30127
1998,20477,4.4502,9.23057,-0.435449,85.1715,-23.6096,-141.031,-26.2451,13.6719,-11.0474,0.37088,0.0788879,-0.674683,-0.633179,59896,58753,2656,3168,-30127
2004,20483,4.1583,9.12529,-0.44502,85.0342,-23.5492,-140.944,-27.5879,14.3433,-11.6577,0.371155,0.0793457,-0.673798,-0.633911,59894,58731,2641,3168,-30127
2010,20489,3.92383,9.0918,-0.00478516,84.8804,-23.4888,-140.845,-28.8696,15.9912,-11.4136,0.37149,0.0798035,-0.672821,-0.634674,59891,58714,2627,3168,-30127
2016,20495,3.69414,8.91953,0.559863,84.6112,-23.3624,-140.718,-26.8555,7.62939,-13.5498,0.371735,0.0802002,-0.671906,-0.635468,59885,58685,2601,3168,-30127
2022,20501,3.78027,8.90039,0.435449,84.5178,-23.28,-140.713,-24.292,-0.915527,-16.6016,0.371429,0.080719,-0.670532,-0.637024,59882,58673,2592,3168,-30127
2028,20507,4.07695,8.6707,0.282324,84.4519,-23.2031,-140.735,-20.752,-4.76074,-17.2119,0.370972,0.0809021,-0.670074,-0.637726,59880,58664,2579,3168,-30127
2034,20513,3.76113,8.51758,0.220117,84.4189,-23.1207,-140.773,-16.4185,-8.11768,-18.0054,0.370361,0.0810547,-0.66983,-0.638336,59879,58657,2568,3168,-30127
2040,20519,3.55059,8.66113,0.129199,84.397,-23.0438,-140.834,-13.855,-11.5356,-17.5781,0.36969,0.0811768,-0.669678,-0.638885,59876,58650,2560,3168,-30127
2046,20525,4.45977,9.10615,0.0574219,84.4409,-22.89,-141.048,-8.54492,-24.5972,-19.4092,0.368805,0.0811462,-0.669708,-0.639343,59872,58644,2553,3168,-30127
2052,20531,4.23486,9.25449,-0.717773,84.4849,-22.7966,-141.174,-6.83594,-24.231,-21.7896,0.366486,0.0810242,-0.670135,-0.640228,59863,58640,2535,3168,-30127
2058,20537,3.8377,10.0584,-1.43555,84.5178,-22.7032,-141.279,-8.17871,-21.6064,-20.9351,0.365417,0.0810852,-0.670319,-0.640686,59857,58640,2527,3168,-30127
2064,20543,4.58896,11.2355,-1.43076,84.6057,-22.5824,-141.498,-5.12695,-42.3584,-29.3579,0.363495,0.0808411,-0.670868,-0.641205,59898,58641,2522,3168,-30127
2070,20549,5.67041,11.7858,-1.0623,84.7321,-22.4396,-141.817,-6.10352,-60.1196,-34.9731,0.360901,0.0802917,-0.671631,-0.641937,59935,58645,2518,3168,-30127
2076,20555,7.75674,10.8001,-0.90918,84.8639,-22.0605,-142.405,-19.5313,-45.4712,-44.9829,0.358032,0.079834,-0.672272,-0.642944,59967,58650,2516,3168,-30127
2082,20561,10.5417,11.8911,1.52646,84.8859,-21.8134,-142.663,-19.6533,-44.2505,-56.6406,0.352875,0.0798035,-0.672485,-0.645569,60013,58659,2518,3168,-30127
2088,20567,12.6663,11.7715,3.86162,84.9133,-21.4618,-142.894,-14.4043,-34.2407,-77.6978,0.349762,0.0807495,-0.672455,-0.647186,60031,58623,2517,3168,-30127
2094,20573,11.2595,9.57031,-0.143555,84.8364,-21.0168,-142.916,-18.0054,8.36182,-93.5059,0.347443,0.0832214,-0.6716,-0.648987,60043,58594,2518,3168,-30127
2100,20579,8.68506,9.48418,-0.435449,84.7156,-20.5225,-142.756,-14.1602,44.2505,-101.257,0.345886,0.0869141,-0.670288,-0.650665,60048,58569,2520,3168,-30127
2106,20585,3.30176,11.336,-0.416309,84.5947,-19.4019,-142.597,-4.08936,17.8223,-119.995,0.344055,0.0909424,-0.669006,-0.652435,60049,58551,2521,3168,-30127
2112,20591,3.39746,11.2068,1.0623,84.6277,-18.8306,-142.729,-3.479,-9.09424,-121.948,0.337463,0.0975647,-0.667969,-0.655975,60137,58537,2520,3168,-30127
2118,20597,5.22539,10.1876,-0.0574219,84.6991,-18.2593,-142.987,-4.94385,-33.6914,-124.573,0.332947,0.0998535,-0.667908,-0.65799,60169,58493,2515,3168,-30127
2124,20603,6.86191,10.2067,0.904395,84.8309,-17.655,-143.278,7.56836,-38.3301,-131.836,0.328033,0.102356,-0.668243,-0.659729,60189,58459,2508,3168,-30127
2130,20609,7.73281,10.6278,1.72744,84.9847,-16.9958,-143.613,11.3525,-45.0439,-144.043,0.32251,0.105011,-0.668701,-0.661591,60251,58436,2501,3168,-30127
2136,20615,8.46973,10.9532,0.698633,85.3143,-15.5292,-144.3,14.9536,-41.8091,-165.283,0.316589,0.107941,-0.669189,-0.663483,60299,58419,2499,3168,-30127
2142,20621,8.08691,10.9102,0.583789,85.4681,-14.7107,-144.602,17.1509,-34.1797,-176.025,0.30423,0.11496,-0.669739,-0.667511,60403,58322,2510,3168,-30127
2148,20627,7.11074,10.6278,-0.636426,85.6055,-13.8428,-144.921,14.2822,-35.8276,-187.378,0.297577,0.118927,-0.6698,-0.669769,60464,58288,2518,3168,-30127
2154,20633,5.67041,10.7714,-1.00967,85.7593,-12.9364,-145.261,17.0288,-40.5884,-196.045,0.290497,0.123016,-0.669922,-0.671997,60508,58264,2527,3168,-30127
2160,20639,4.8043,10.7188,0.0526367,85.9186,-11.9861,-145.706,15.5029,-60.9741,-205.811,0.282532,0.12674,-0.670135,-0.674469,60583,58207,2539,3168,-30127
2166,20645,5.21104,11.2499,-0.449805,86.3635,-9.98108,-146.975,24.1699,-110.352,-224.609,0.27356,0.130035,-0.670746,-0.67691,60637,58162,2550,3168,-30127
2172,20651,6.5748,11.5035,-0.440234,86.6052,-8.88794,-147.832,23.3765,-141.602,-240.417,0.252075,0.135223,-0.672638,-0.682373,60789,58064,2576,3168,-30127
2178,20657,8.575,12.5371,-0.899609,86.8964,-7.70691,-148.81,32.7759,-165.588,-260.01,0.239197,0.137421,-0.673981,-0.685211,60890,58007,2592,3168,-30127
2184,20663,10.446,13.3984,-0.980957,87.1436,-6.41602,-149.892,25.9399,-184.631,-281.982,0.225128,0.139526,-0.675079,-0.688507,60962,57962,2611,3168,-30127
2190,20669,11.915,14.8436,-2.11982,87.3523,-5.01526,-151.029,24.1699,-193.97,-306.03,0.209961,0.141907,-0.675903,-0.691986,61060,57929,2635,3168,-30127
2196,20675,15.5039,16.6906,-7.96729,87.4951,-1.86768,-153.265,-3.2959,-179.382,-352.539,0.194122,0.144745,-0.676086,-0.695801,61177,57864,2666,3168,-30127
2202,20681,17.0591,18.8344,-9.37412,87.3578,-0.12085,-154.276,-24.9634,-157.288,-376.526,0.161682,0.152924,-0.673462,-0.704865,61449,57771,2734,3168,-30127
2208,20687,16.906,20.6671,-9.77607,87.0721,1.71936,-155.154,-49.6216,-123.779,-396.851,0.145782,0.158752,-0.670258,-0.710052,61614,57698,2768,3168,-30127
2214,20693,15.8484,22.318,-10.5608,86.6547,3.63098,-155.847,-72.5098,-80.5664,-410.706,0.130768,0.166016,-0.665802,-0.715515,61783,57641,2802,3168,-30127
2220,20699,13.8195,21.4088,-12.561,86.0284,5.66345,-156.434,-111.328,-49.9878,-433.594,0.116089,0.174469,-0.659576,-0.721741,61956,57598,2834,3168,-30127
2226,20705,8.30225,22.3371,-9.90527,84.3915,9.84375,-157.643,-145.752,-39.1846,-448.547,0.101318,0.183289,-0.652039,-0.728607,62132,57526,2859,3168,-30127
2232,20711,8.38838,24.8158,-5.42637,83.4961,11.9312,-158.335,-153.442,-44.8608,-450.684,0.0714417,0.200592,-0.635834,-0.741791,62538,57388,2878,3168,-30127
2238,20717,8.03428,24.2942,-9.69473,82.5787,14.0625,-158.95,-156.189,-20.3247,-459.229,0.0567627,0.210022,-0.627075,-0.747894,62725,57315,2877,3168,-30127
2244,20723,4.87129,23.0453,-11.8863,81.5295,16.2048,-159.554,-181.641,-7.08008,-461.731,0.0424805,0.219757,-0.617188,-0.754242,62961,57256,2869,3168,-30127
2250,20729,3.8377,21.0978,-8.3501,80.2496,18.2098,-160.313,-215.393,-29.2969,-440.43,0.0285339,0.227997,-0.606232,-0.761292,63190,57211,2849,3168,-30127
2256,20735,8.35967,9.06309,-3.07686,77.4591,22.2089,-162.202,-210.449,-48.0347,-455.566,0.0144043,0.235657,-0.594696,-0.768433,63415,57133,2817,3168,-30127
2262,20741,7.54619,7.18252,-3.43574,76.3,24.2578,-163.229,-158.081,-36.8042,-462.952,-0.0163269,0.251526,-0.573364,-0.77948,63947,57007,2728,3168,-30127
2268,20747,7.35479,8.38838,-2.02891,75.3058,26.3177,-164.295,-116.211,-32.2266,-467.346,-0.0324707,0.259796,-0.564636,-0.782654,64216,56957,2675,3168,-30127
2274,20753,7.76152,9.23535,-1.84707,74.2731,28.3832,-165.515,-103.149,-46.9971,-476.685,-0.0494385,0.267639,-0.555969,-0.785309,64473,56911,2615,3185,-30129
2280,20759,6.27813,8.32139,-2.90937,73.1415,30.3992,-166.893,-101.318,-62.3779,-476.135,-0.0667725,0.274811,-0.54718,-0.78772,64771,56867,2552,3185,-30129
2286,20765,-2.64141,1.62695,-9.39805,71.076,34.0851,-169.47,-76.5381,-33.2031,-417.175,-0.083313,0.282013,-0.538971,-0.789246,65053,56823,2489,3185,-30129
2292,20771,-6.92412,5.57471,-10.001,70.1093,35.6177,-170.777,-59.2041,-43.5791,-381.897,-0.112488,0.293518,-0.524933,-0.790924,96,56814,2359,3185,-30129
2298,20777,-9.84785,8.20176,-7.63711,68.7744,36.7493,-172.491,-82.1533,-122.559,-327.942,-0.126404,0.294647,-0.517792,-0.793091,360,56802,2295,3185,-30129
2304,20783,-4.81387,4.27314,-7.38828,66.9177,37.3206,-174.738,-119.385,-231.567,-260.132,-0.139954,0.290588,-0.509552,-0.797638,670,56785,2234,3185,-30129
2310,20789,-0.13877,-1.64131,0.488086,64.9731,37.5513,-177.094,-122.375,-265.747,-214.233,-0.152588,0.284302,-0.501465,-0.802704,971,56808,2168,3185,-30129
