TimeSinceCollection,Timestamp,AccX,AccY,AccZ,AngleRoll,AnglePitch,AngleYaw,AngularVelX,AngularVelY,             AngularVelZ,Q1,Q2,Q3,Q4,MagX,MagY,MagZ,Height,Airpressure
0,171935,4.52197,8.7377,-0.435449,90.9558,-27.7899,127.304,-2.31934,2.44141,0.488281,-0.14859,-0.458038,-0.545471,-0.685883,720,57691,3658,3001,-30107
6,171941,4.50283,8.71377,-0.421094,90.9448,-27.7899,127.321,-2.50244,2.62451,0.549316,-0.14856,-0.457977,-0.545441,-0.685974,720,57689,3657,3001,-30107
12,171947,4.54111,8.7042,-0.459375,90.9338,-27.7899,127.332,-2.2583,2.62451,0.366211,-0.148529,-0.457886,-0.545441,-0.686066,724,57687,3656,3001,-30107
18,171953,4.53633,8.79512,-0.545508,90.9009,-27.7899,127.365,-2.74658,3.05176,0.244141,-0.148499,-0.457794,-0.54541,-0.686127,733,57723,3656,3001,-30107
24,171959,4.5124,8.81426,-0.521582,90.8844,-27.7899,127.381,-3.54004,3.41797,0.427246,-0.148407,-0.457581,-0.545319,-0.68634,734,57757,3655,3001,-30107
30,171965,4.49805,8.80469,-0.45459,90.8569,-27.7954,127.403,-4.45557,3.90625,0.549316,-0.148407,-0.457458,-0.545258,-0.686493,737,57748,3655,3001,-30107
36,171971,4.47891,8.72334,-0.31582,90.8295,-27.7954,127.425,-4.63867,4.57764,0.427246,-0.148346,-0.457306,-0.545166,-0.686676,740,57740,3656,3001,-30107
42,171977,4.46934,8.63242,-0.272754,90.802,-27.7954,127.452,-4.27246,4.57764,0.549316,-0.148315,-0.457153,-0.545105,-0.686829,740,57733,3654,3001,-30107
48,171983,4.45977,8.62764,-0.31582,90.7581,-27.7954,127.496,-3.05176,3.78418,0.427246,-0.148254,-0.457031,-0.545044,-0.686981,740,57724,3652,3001,-30107
54,171989,4.4167,8.71377,-0.354102,90.7416,-27.7954,127.513,-2.56348,3.17383,0.427246,-0.148163,-0.456818,-0.544983,-0.687195,742,57722,3650,3001,-30107
60,171995,4.44063,8.75684,-0.44502,90.7251,-27.7954,127.524,-2.80762,2.62451,0.366211,-0.148132,-0.456726,-0.544952,-0.687286,744,57720,3648,3001,-30107
66,172001,4.49326,8.71855,-0.449805,90.7141,-27.7954,127.54,-2.99072,2.56348,0.671387,-0.148102,-0.456635,-0.544922,-0.687378,743,57718,3647,3001,-30107
72,172007,4.57939,8.78555,-0.401953,90.6976,-27.8009,127.557,-3.05176,3.11279,0.427246,-0.148071,-0.456543,-0.544891,-0.687469,746,57717,3647,3001,-30107
78,172013,4.50283,8.75684,-0.421094,90.6482,-27.8009,127.595,-3.96729,4.02832,0.366211,-0.148041,-0.456421,-0.54483,-0.687592,752,57714,3644,3001,-30107
84,172019,4.46934,8.69941,-0.31582,90.6207,-27.8009,127.617,-4.5166,4.08936,0.427246,-0.14798,-0.456177,-0.544678,-0.687897,752,57711,3642,3001,-30107
90,172025,4.56025,8.62764,-0.234473,90.5988,-27.8009,127.639,-3.90625,4.27246,0.793457,-0.147949,-0.456055,-0.544617,-0.688049,754,57709,3641,3001,-30107
96,172031,4.42627,8.7042,-0.282324,90.5768,-27.8009,127.656,-3.41797,3.60107,0.12207,-0.147919,-0.455933,-0.544586,-0.688171,756,57706,3642,3001,-30107
102,172037,4.40234,8.72813,-0.334961,90.5603,-27.8009,127.672,-3.41797,2.99072,0.183105,-0.147888,-0.455811,-0.544525,-0.688293,756,57704,3643,3001,-30107
108,172043,4.52197,8.69941,-0.382813,90.5383,-27.8009,127.683,-2.80762,1.09863,0.549316,-0.147919,-0.45578,-0.544495,-0.688354,757,57699,3639,3001,-30107
114,172049,4.74688,8.7377,-0.282324,90.5219,-27.8009,127.694,-2.99072,2.01416,0.549316,-0.147919,-0.455688,-0.544373,-0.688477,759,57697,3635,3001,-30107
120,172055,4.60811,8.7999,-0.334961,90.5054,-27.8009,127.711,-3.23486,3.11279,-0.0610352,-0.147888,-0.455566,-0.544342,-0.688599,759,57695,3632,3001,-30107
126,172061,4.5124,8.76162,-0.373242,90.4834,-27.8009,127.733,-4.02832,3.72314,-0.0610352,-0.147888,-0.455444,-0.544281,-0.688721,757,57694,3631,3001,-30107
132,172067,4.42627,8.72813,-0.354102,90.4559,-27.7954,127.749,-4.08936,3.66211,-0.12207,-0.147888,-0.455322,-0.54422,-0.688873,758,57693,3631,3001,-30107
138,172073,4.60332,8.68027,-0.253613,90.4175,-27.7954,127.776,-3.41797,2.80762,0.12207,-0.147888,-0.455231,-0.544159,-0.688965,761,57692,3631,3001,-30107
144,172079,4.48369,8.80469,-0.339746,90.401,-27.7899,127.787,-2.99072,2.50244,-0.183105,-0.147888,-0.455048,-0.544067,-0.689148,760,57690,3626,3001,-30107
150,172085,4.49326,8.82383,-0.354102,90.3845,-27.7899,127.798,-3.66211,2.62451,0.0610352,-0.147888,-0.454956,-0.544006,-0.68927,763,57689,3621,3001,-30107
156,172091,4.48848,8.79033,-0.368457,90.3625,-27.7899,127.815,-3.96729,2.86865,0.305176,-0.147888,-0.454834,-0.543945,-0.689392,767,57688,3616,3001,-30107
162,172097,4.50283,8.75205,-0.311035,90.3406,-27.7899,127.831,-4.08936,2.99072,0.305176,-0.147888,-0.454742,-0.543884,-0.689514,770,57686,3608,3001,-30107
168,172103,4.43105,8.72334,-0.258398,90.3021,-27.7899,127.859,-3.17383,2.99072,-0.0610352,-0.147888,-0.454651,-0.543793,-0.689636,772,57684,3599,3001,-30107
174,172109,4.39277,8.71855,-0.301465,90.2856,-27.7899,127.87,-3.2959,2.44141,0.12207,-0.147888,-0.454468,-0.543701,-0.689819,775,57685,3599,3001,-30107
180,172115,4.42148,8.69463,-0.244043,90.2692,-27.7844,127.881,-3.2959,2.01416,0.0610352,-0.147888,-0.454407,-0.543671,-0.689911,777,57686,3597,3001,-30107
186,172121,4.49326,8.67549,-0.272754,90.2582,-27.7844,127.886,-3.17383,1.28174,0.0610352,-0.147919,-0.454346,-0.54361,-0.689972,777,57688,3596,3001,-30107
192,172127,4.41191,8.65156,-0.186621,90.2527,-27.7844,127.881,-2.01416,-0.183105,-0.244141,-0.14798,-0.454346,-0.543579,-0.689972,779,57690,3596,3001,-30107
198,172133,4.6416,8.82383,-0.382813,90.2417,-27.7789,127.881,-2.38037,0.244141,-0.0610352,-0.14801,-0.454346,-0.543549,-0.690002,781,57691,3599,3001,-30107
204,172139,4.71338,8.89561,-0.234473,90.2252,-27.7734,127.886,-3.23486,2.19727,-0.12207,-0.148071,-0.454254,-0.543457,-0.690125,781,57691,3599,3001,-30107
210,172145,4.56025,8.82383,-0.291895,90.2032,-27.7734,127.903,-4.15039,3.17383,-0.244141,-0.148102,-0.454132,-0.543396,-0.690247,780,57691,3598,3001,-30107
216,172151,4.4167,8.66113,-0.277539,90.1813,-27.7679,127.919,-4.45557,2.92969,-0.305176,-0.148132,-0.45401,-0.543335,-0.690369,780,57691,3600,3001,-30107
222,172157,4.34971,8.63242,-0.220117,90.1593,-27.7679,127.925,-3.90625,1.83105,-0.366211,-0.148163,-0.453949,-0.543274,-0.69046,779,57691,3601,3001,-30107
228,172163,4.50283,8.73291,-0.301465,90.1373,-27.7625,127.93,-2.80762,0.427246,-0.244141,-0.148224,-0.453888,-0.543213,-0.690521,774,57693,3604,3001,-30107
234,172169,4.5459,8.7999,-0.339746,90.1263,-27.757,127.936,-2.99072,0.854492,-0.183105,-0.148285,-0.453827,-0.543121,-0.690613,776,57695,3601,3001,-30107
240,172175,4.50283,8.65156,-0.320605,90.1099,-27.757,127.941,-4.27246,1.34277,0.183105,-0.148346,-0.453766,-0.54303,-0.690704,777,57697,3598,3001,-30107
246,172181,4.48369,8.77119,-0.210547,90.0934,-27.7515,127.952,-3.41797,2.2583,-0.549316,-0.148376,-0.453674,-0.542999,-0.690796,778,57697,3596,3001,-30107
252,172187,4.39277,8.77119,-0.234473,90.0714,-27.7515,127.963,-3.72314,2.2583,-0.183105,-0.148407,-0.453583,-0.542938,-0.690887,781,57697,3595,3001,-30107
258,172193,4.39277,8.62764,-0.153125,90.0494,-27.746,127.974,-2.80762,0.671387,0.183105,-0.148438,-0.453522,-0.542877,-0.690979,788,57698,3597,3001,-30107
264,172199,4.47412,8.69941,-0.181836,90.0385,-27.746,127.974,-2.31934,0.427246,0.0610352,-0.148499,-0.453461,-0.542786,-0.691071,787,57697,3593,3001,-30107
270,172205,4.52197,8.76162,-0.200977,90.033,-27.746,127.974,-2.01416,0.549316,0,-0.148499,-0.453461,-0.542786,-0.691101,787,57697,3589,3001,-30107
276,172211,4.46934,8.77598,-0.205762,90.0275,-27.746,127.98,-2.2583,0.976563,0.244141,-0.148529,-0.45343,-0.542755,-0.691132,788,57697,3585,3001,-30107
282,172217,4.46934,8.70898,-0.205762,90.0165,-27.746,127.985,-2.19727,1.28174,0.183105,-0.148529,-0.453369,-0.542725,-0.691193,788,57696,3581,3001,-30107
288,172223,4.46455,8.72334,-0.248828,90.0055,-27.7405,127.996,-1.64795,1.0376,0.305176,-0.148529,-0.453339,-0.542694,-0.691223,790,57695,3582,3001,-30107
294,172229,4.43105,8.56065,-0.153125,89.9945,-27.746,127.996,-1.70898,1.0376,1.09863,-0.148499,-0.453308,-0.542633,-0.691284,792,57694,3585,3001,-30107
300,172235,4.46455,8.81904,-0.215332,89.9945,-27.746,128.002,-0.915527,1.15967,0.0610352,-0.148499,-0.453247,-0.542664,-0.691315,792,57692,3587,3001,-30107
306,172241,4.40713,8.86211,-0.320605,89.989,-27.746,128.013,-1.77002,1.46484,0.488281,-0.148468,-0.453217,-0.542633,-0.691345,790,57690,3590,3001,-30107
312,172247,4.42148,8.75205,-0.267969,89.978,-27.746,128.018,-2.31934,1.0376,0.366211,-0.148468,-0.453186,-0.542603,-0.691406,790,57690,3592,3001,-30107
318,172253,4.50762,8.65635,-0.162695,89.967,-27.746,128.024,-1.64795,0.549316,0.305176,-0.148499,-0.453156,-0.542572,-0.691437,792,57695,3596,3001,-30107
324,172259,4.49326,8.6707,-0.258398,89.9615,-27.746,128.024,-1.15967,0.549316,0.244141,-0.148499,-0.453125,-0.542572,-0.691498,789,57698,3597,3001,-30107
330,172265,4.50283,8.78555,-0.311035,89.9615,-27.7405,128.029,-1.15967,0.305176,0.12207,-0.148499,-0.453094,-0.542572,-0.691498,789,57701,3598,3001,-30107
336,172271,4.50283,8.79512,-0.311035,89.9561,-27.7405,128.029,-1.83105,0.244141,0.12207,-0.148529,-0.453094,-0.542542,-0.691498,791,57704,3598,3001,-30107
342,172277,4.49805,8.76162,-0.287109,89.9506,-27.7405,128.029,-2.19727,0.366211,0.183105,-0.148529,-0.453064,-0.542511,-0.691559,793,57704,3596,3001,-30107
348,172283,4.49805,8.68506,-0.234473,89.9396,-27.735,128.029,-2.01416,0.305176,0.0610352,-0.14856,-0.453033,-0.54248,-0.691589,790,57706,3593,3001,-30107
354,172289,4.45498,8.71377,-0.205762,89.9341,-27.735,128.029,-1.77002,0,0.0610352,-0.148621,-0.453003,-0.54245,-0.69162,791,57707,3594,3001,-30107
360,172295,4.43584,8.71377,-0.258398,89.9341,-27.735,128.029,-1.64795,-0.183105,0,-0.148651,-0.453003,-0.542419,-0.69162,790,57708,3596,3001,-30107
366,172301,4.42627,8.71377,-0.239258,89.9286,-27.7295,128.024,-1.64795,-0.366211,0,-0.148682,-0.453003,-0.542419,-0.69162,789,57709,3595,3001,-30107
372,172307,4.45977,8.7377,-0.186621,89.9286,-27.7295,128.024,-1.70898,-0.427246,0.0610352,-0.148712,-0.453033,-0.542389,-0.69162,789,57710,3593,3001,-30107
378,172313,4.47412,8.67549,-0.191406,89.9286,-27.7295,128.018,-1.40381,-0.488281,-0.12207,-0.148773,-0.453033,-0.542358,-0.69162,792,57713,3594,3001,-30107
384,172319,4.47412,8.69463,-0.200977,89.9286,-27.724,128.013,-0.976563,-0.671387,-0.183105,-0.148804,-0.453033,-0.542358,-0.69162,791,57714,3595,3001,-30107
390,172325,4.48848,8.76162,-0.239258,89.9286,-27.724,128.007,-0.976563,-0.793457,-0.0610352,-0.148834,-0.453033,-0.542389,-0.691589,792,57715,3597,3001,-30107
396,172331,4.45977,8.79033,-0.29668,89.9341,-27.7185,128.007,-1.0376,-0.793457,0,-0.148865,-0.453064,-0.542389,-0.691589,793,57716,3597,3001,-30107
402,172337,4.51719,8.77119,-0.29668,89.9341,-27.7185,128.002,-1.2207,-0.976563,0,-0.148926,-0.453094,-0.542358,-0.691559,793,57716,3597,3001,-30107
408,172343,4.47412,8.71377,-0.215332,89.9286,-27.713,127.996,-2.01416,-0.488281,-0.366211,-0.148956,-0.453094,-0.542358,-0.691559,788,57713,3593,3001,-30107
414,172349,4.47412,8.64678,-0.177051,89.9231,-27.7075,127.991,-1.95313,-0.671387,-0.427246,-0.149048,-0.453064,-0.542328,-0.691589,787,57711,3592,3001,-30107
420,172355,4.45498,8.66113,-0.186621,89.9231,-27.7075,127.985,-1.46484,-1.0376,-0.549316,-0.149109,-0.453064,-0.542328,-0.691559,785,57708,3590,3001,-30107
426,172361,4.47412,8.72813,-0.267969,89.9286,-27.702,127.974,-1.09863,-1.46484,-0.549316,-0.14917,-0.453094,-0.542328,-0.691528,782,57707,3588,3001,-30107
432,172367,4.48369,8.78555,-0.301465,89.9341,-27.6965,127.969,-1.34277,-1.52588,-0.427246,-0.149261,-0.453125,-0.542328,-0.691498,781,57706,3586,3001,-30107
438,172373,4.46455,8.72334,-0.13877,89.9286,-27.691,127.952,-1.95313,-0.976563,-0.305176,-0.149323,-0.453156,-0.542297,-0.691498,781,57709,3588,3001,-30107
444,172379,4.43105,8.65156,-0.13877,89.9286,-27.6855,127.947,-1.70898,-0.976563,-0.488281,-0.149445,-0.453156,-0.542267,-0.691498,778,57709,3588,3001,-30107
450,172385,4.42148,8.6707,-0.248828,89.9341,-27.6855,127.941,-0.854492,-1.2207,-0.305176,-0.149475,-0.453186,-0.542267,-0.691467,776,57710,3591,3001,-30107
456,172391,4.42148,8.77119,-0.320605,89.9396,-27.6801,127.936,-0.366211,-1.58691,-0.366211,-0.149536,-0.453217,-0.542297,-0.691406,775,57711,3591,3001,-30107
462,172397,4.46455,8.83818,-0.334961,89.9451,-27.6746,127.925,-0.915527,-1.83105,-0.366211,-0.149597,-0.453247,-0.542297,-0.691345,775,57712,3591,3001,-30107
468,172403,4.5459,8.75684,-0.301465,89.9396,-27.6691,127.914,-2.13623,-0.671387,-0.366211,-0.149628,-0.453278,-0.542297,-0.691345,775,57714,3590,3001,-30107
474,172409,4.50762,8.78555,-0.253613,89.9341,-27.6636,127.914,-2.2583,0,-0.427246,-0.14975,-0.453247,-0.542236,-0.691376,779,57716,3589,3001,-30107
480,172415,4.44063,8.74248,-0.224902,89.9286,-27.6636,127.914,-2.13623,-0.12207,-0.244141,-0.14978,-0.453217,-0.542236,-0.691406,780,57716,3589,3001,-30107
486,172421,4.37842,8.74727,-0.210547,89.9286,-27.6636,127.914,-1.89209,-0.244141,-0.12207,-0.149811,-0.453217,-0.542206,-0.691406,779,57716,3588,3001,-30107
492,172427,4.39756,8.72813,-0.200977,89.9231,-27.6581,127.908,-1.77002,-0.671387,-0.183105,-0.149872,-0.453217,-0.542206,-0.691406,777,57716,3588,3001,-30107
498,172433,4.44063,8.71377,-0.16748,89.9231,-27.6526,127.903,-1.40381,-0.549316,0.0610352,-0.149902,-0.453217,-0.542175,-0.691406,778,57714,3587,3001,-30107
504,172439,4.4502,8.69941,-0.16748,89.9231,-27.6526,127.903,-1.09863,-0.427246,0,-0.149933,-0.453217,-0.542175,-0.691406,775,57713,3584,3001,-30107
510,172445,4.44063,8.70898,-0.200977,89.9231,-27.6526,127.897,-1.0376,-0.610352,0,-0.149963,-0.453217,-0.542175,-0.691376,774,57713,3584,3001,-30107
516,172451,4.42148,8.71855,-0.224902,89.9286,-27.6471,127.892,-0.549316,-0.976563,-0.244141,-0.149994,-0.453247,-0.542206,-0.691345,774,57714,3583,3001,-30107
522,172457,4.48369,8.78555,-0.320605,89.9341,-27.6471,127.886,-0.488281,-1.15967,-0.366211,-0.150024,-0.453247,-0.542236,-0.691315,774,57714,3583,3001,-30107
528,172463,4.53154,8.88603,-0.363672,89.9396,-27.6361,127.881,-1.46484,-0.793457,-0.244141,-0.150055,-0.453278,-0.542236,-0.691284,769,57709,3588,3001,-30107
534,172469,4.47891,8.81426,-0.234473,89.9341,-27.6361,127.875,-2.2583,-0.305176,-0.12207,-0.150146,-0.453278,-0.542206,-0.691284,770,57709,3590,3001,-30107
540,172475,4.45498,8.68506,-0.162695,89.9286,-27.6361,127.875,-2.31934,-0.0610352,-0.0610352,-0.150177,-0.453247,-0.542175,-0.691315,769,57709,3593,3001,-30107
546,172481,4.42148,8.67549,-0.205762,89.9231,-27.6306,127.875,-1.52588,-0.244141,-0.12207,-0.150208,-0.453247,-0.542175,-0.691315,767,57711,3591,3001,-30107
552,172487,4.39756,8.71855,-0.258398,89.9286,-27.6306,127.875,-1.15967,-0.793457,-0.12207,-0.150238,-0.453247,-0.542175,-0.691315,766,57712,3590,3001,-30107
558,172493,4.47891,8.75684,-0.229688,89.9286,-27.6251,127.864,-1.52588,-0.915527,0,-0.150269,-0.453247,-0.542175,-0.691315,766,57712,3589,3001,-30107
564,172499,4.46934,8.72813,-0.239258,89.9231,-27.6251,127.864,-1.64795,-0.244141,0,-0.15033,-0.453247,-0.542175,-0.691315,764,57711,3588,3001,-30107
570,172505,4.4502,8.7377,-0.16748,89.9231,-27.6251,127.864,-1.52588,-0.0610352,0.244141,-0.15033,-0.453247,-0.542145,-0.691315,762,57713,3587,3001,-30107
576,172511,4.44541,8.74248,-0.162695,89.9231,-27.6251,127.864,-1.2207,-0.0610352,0.305176,-0.15033,-0.453247,-0.542145,-0.691315,760,57715,3585,3001,-30107
582,172517,4.37842,8.68506,-0.16748,89.9231,-27.6196,127.864,-1.0376,-0.183105,0.12207,-0.15036,-0.453247,-0.542145,-0.691315,760,57715,3584,3001,-30107
588,172523,4.43105,8.75684,-0.263184,89.9286,-27.6196,127.864,-0.305176,-0.549316,0.305176,-0.15036,-0.453247,-0.542175,-0.691315,756,57717,3579,3001,-30107
594,172529,4.50283,8.7999,-0.30625,89.9341,-27.6196,127.864,-0.854492,-0.488281,0.488281,-0.15033,-0.453278,-0.542206,-0.691254,758,57718,3581,3001,-30107
600,172535,4.52197,8.82861,-0.29668,89.9341,-27.6196,127.864,-0.976563,-0.183105,0.366211,-0.15033,-0.453278,-0.542206,-0.691254,760,57718,3582,3001,-30107
606,172541,4.47412,8.77598,-0.272754,89.9286,-27.6196,127.864,-1.40381,0.427246,0.366211,-0.15033,-0.453247,-0.542206,-0.691284,760,57718,3581,3001,-30107
612,172547,4.45977,8.73291,-0.210547,89.9231,-27.6196,127.87,-1.52588,0.488281,0.366211,-0.15033,-0.453217,-0.542175,-0.691315,760,57718,3584,3001,-30107
618,172553,4.4502,8.75205,-0.253613,89.9231,-27.6196,127.875,-0.976563,0.12207,0.366211,-0.150299,-0.453217,-0.542175,-0.691315,764,57717,3583,3001,-30107
624,172559,4.46455,8.77598,-0.272754,89.9231,-27.6196,127.875,-1.09863,0,0.366211,-0.150299,-0.453186,-0.542206,-0.691315,762,57716,3581,3001,-30107
630,172565,4.47412,8.7377,-0.220117,89.9176,-27.6196,127.875,-1.40381,0.183105,0.610352,-0.150299,-0.453186,-0.542175,-0.691345,761,57716,3579,3001,-30107
636,172571,4.4502,8.70898,-0.119629,89.9176,-27.6251,127.881,-1.15967,0.183105,0.488281,-0.150269,-0.453186,-0.542175,-0.691345,760,57717,3578,3001,-30107
642,172577,4.4167,8.64678,-0.124414,89.9176,-27.6251,127.881,-0.915527,0.183105,0.488281,-0.150269,-0.453156,-0.542175,-0.691345,761,57717,3577,3001,-30107
648,172583,4.43105,8.75205,-0.224902,89.9286,-27.6251,127.881,0.183105,-0.488281,0.671387,-0.150238,-0.453186,-0.542206,-0.691345,755,57716,3579,3001,-30107
654,172589,4.47891,8.79512,-0.277539,89.9341,-27.6251,127.875,-0.12207,-0.610352,0.549316,-0.150208,-0.453217,-0.542267,-0.691284,756,57716,3580,3001,-30107
660,172595,4.47891,8.78555,-0.311035,89.9396,-27.6251,127.875,-0.488281,-0.366211,0.366211,-0.150177,-0.453217,-0.542267,-0.691254,754,57715,3578,3001,-30107
666,172601,4.52197,8.77119,-0.267969,89.9396,-27.6306,127.881,-0.732422,0.183105,0.610352,-0.150177,-0.453217,-0.542297,-0.691254,751,57713,3575,3001,-30107
672,172607,4.47412,8.71855,-0.244043,89.9396,-27.6306,127.881,-0.671387,0.12207,0.671387,-0.150146,-0.453217,-0.542297,-0.691254,751,57711,3570,3001,-30107
678,172613,4.43105,8.77119,-0.272754,89.9451,-27.6306,127.881,-0.305176,-0.0610352,0.671387,-0.150116,-0.453217,-0.542297,-0.691254,755,57712,3566,3001,-30107
684,172619,4.48848,8.77119,-0.325391,89.9451,-27.6361,127.881,-0.610352,0,0.793457,-0.150085,-0.453247,-0.542328,-0.691223,754,57711,3565,3001,-30107
690,172625,4.48369,8.79512,-0.320605,89.9506,-27.6361,127.881,-0.732422,0,0.793457,-0.150055,-0.453247,-0.542328,-0.691223,755,57712,3566,3001,-30107
696,172631,4.52197,8.79512,-0.31582,89.9451,-27.6416,127.886,-1.15967,0.488281,0.854492,-0.150024,-0.453247,-0.542328,-0.691254,756,57712,3568,3001,-30107
702,172637,4.49805,8.75684,-0.263184,89.9451,-27.6416,127.892,-1.15967,0.854492,0.976563,-0.149994,-0.453247,-0.542297,-0.691284,758,57712,3568,3001,-30107
708,172643,4.42148,8.76162,-0.234473,89.9396,-27.6471,127.903,-1.15967,0.793457,0.854492,-0.149963,-0.453217,-0.542297,-0.691315,759,57711,3571,3001,-30107
714,172649,4.4167,8.72334,-0.191406,89.9341,-27.6471,127.908,-1.09863,0.671387,0.976563,-0.149902,-0.453186,-0.542297,-0.691345,763,57712,3572,3001,-30107
720,172655,4.45498,8.71855,-0.205762,89.9341,-27.6526,127.908,-1.15967,0.610352,0.915527,-0.149872,-0.453186,-0.542267,-0.691376,765,57711,3574,3001,-30107
726,172661,4.46934,8.73291,-0.253613,89.9341,-27.6526,127.914,-0.793457,0.671387,0.976563,-0.149811,-0.453186,-0.542267,-0.691376,767,57709,3575,3001,-30107
732,172667,4.46455,8.7377,-0.205762,89.9286,-27.6581,127.919,-0.854492,0.854492,0.915527,-0.14978,-0.453156,-0.542267,-0.691406,766,57707,3577,3001,-30107
738,172673,4.43584,8.7042,-0.253613,89.9231,-27.6636,127.93,-1.0376,1.09863,1.09863,-0.149719,-0.453156,-0.542267,-0.691406,768,57707,3582,3001,-30107
744,172679,4.4167,8.77598,-0.291895,89.9231,-27.6691,127.941,-0.976563,1.40381,1.0376,-0.149628,-0.453094,-0.542267,-0.691467,765,57707,3583,3001,-30107
750,172685,4.35928,8.85254,-0.373242,89.9176,-27.6691,127.947,-1.64795,1.0376,1.2207,-0.149597,-0.453064,-0.542236,-0.691528,765,57707,3583,3001,-30107
756,172691,4.47412,8.81904,-0.397168,89.9066,-27.6746,127.952,-2.31934,0.976563,1.40381,-0.149567,-0.453064,-0.542206,-0.691559,765,57706,3584,3001,-30107
762,172697,4.5459,8.74727,-0.29668,89.8956,-27.6801,127.963,-2.99072,1.46484,1.34277,-0.149536,-0.453033,-0.542145,-0.69165,765,57706,3587,3001,-30107
768,172703,4.3832,8.64678,0.124414,89.8627,-27.691,127.991,-2.80762,2.74658,1.2207,-0.149475,-0.452972,-0.542053,-0.691742,762,57706,3592,3001,-30107
774,172709,4.24443,8.47451,0.090918,89.8572,-27.691,128.002,-1.28174,1.95313,1.09863,-0.149353,-0.45282,-0.542023,-0.691895,761,57708,3596,3001,-30107
780,172715,4.1583,8.41709,0.0430664,89.8572,-27.6965,128.013,0.0610352,1.09863,1.52588,-0.149261,-0.45282,-0.542053,-0.691925,759,57708,3597,3001,-30107
786,172721,4.12002,8.52236,0.234473,89.8682,-27.702,128.013,1.58691,-0.12207,1.70898,-0.14917,-0.45285,-0.542084,-0.691864,756,57707,3595,3001,-30107
792,172727,4.16309,8.4793,0.368457,89.8901,-27.713,128.013,2.50244,-1.28174,2.01416,-0.149078,-0.452942,-0.542175,-0.691772,755,57706,3596,3001,-30107
798,172733,4.254,8.24961,0.416309,89.967,-27.7295,127.98,7.08008,-4.15039,2.56348,-0.148956,-0.453064,-0.542267,-0.69162,760,57705,3602,3001,-30107
804,172739,4.28271,8.32139,0.143555,90.0385,-27.7405,127.952,10.2539,-5.5542,2.56348,-0.148651,-0.453522,-0.542725,-0.69104,761,57705,3603,3001,-30107
810,172745,4.33057,8.48408,-0.301465,90.1154,-27.757,127.919,12.3901,-7.01904,3.479,-0.148438,-0.453857,-0.54303,-0.690643,762,57707,3606,3001,-30107
816,172751,4.58418,8.98652,-0.555078,90.2032,-27.7625,127.886,12.9395,-6.89697,2.0752,-0.148254,-0.454163,-0.543365,-0.690216,765,57708,3607,3001,-30107
822,172757,4.67031,9.154,-0.813477,90.2692,-27.7734,127.853,10.0098,-6.10352,2.56348,-0.148132,-0.454468,-0.54361,-0.68985,765,57709,3608,3001,-30107
828,172763,4.79473,8.90996,-0.636426,90.3516,-27.7899,127.826,4.88281,-1.70898,2.2583,-0.14798,-0.454651,-0.543793,-0.689606,763,57707,3606,3001,-30107
834,172769,4.69424,8.76641,-0.512012,90.379,-27.8009,127.826,4.45557,-0.366211,2.0752,-0.147705,-0.454865,-0.544037,-0.689331,765,57705,3608,3001,-30107
840,172775,4.6416,8.73291,-0.435449,90.401,-27.8119,127.831,4.39453,0.610352,2.38037,-0.147522,-0.454895,-0.544159,-0.68924,765,57701,3608,3001,-30107
846,172781,4.43584,8.7999,-0.421094,90.4285,-27.8174,127.831,4.69971,0,1.83105,-0.147369,-0.454956,-0.544312,-0.689117,763,57698,3610,3001,-30107
852,172787,4.43105,8.82383,-0.397168,90.4559,-27.8229,127.831,4.02832,-0.366211,2.01416,-0.147217,-0.455048,-0.544434,-0.689026,763,57696,3612,3001,-30107
858,172793,4.53154,8.73291,-0.267969,90.5054,-27.8448,127.826,4.02832,-0.915527,1.95313,-0.147064,-0.455139,-0.544495,-0.688904,766,57693,3615,3001,-30107
864,172799,4.53154,8.69941,-0.416309,90.5328,-27.8503,127.82,4.57764,-1.15967,1.83105,-0.14682,-0.455322,-0.544739,-0.68866,766,57691,3615,3001,-30107
870,172805,4.54111,8.75684,-0.512012,90.5658,-27.8558,127.815,4.63867,-1.15967,1.83105,-0.146698,-0.455444,-0.544861,-0.688507,766,57690,3616,3001,-30107
876,172811,4.64639,8.81904,-0.535937,90.5878,-27.8668,127.809,4.02832,-0.488281,2.31934,-0.146576,-0.455536,-0.544983,-0.688416,768,57689,3616,3001,-30107
882,172817,4.49326,8.84297,-0.497656,90.6097,-27.8723,127.809,3.90625,0,1.95313,-0.146423,-0.455597,-0.545074,-0.688293,768,57688,3613,3001,-30107
888,172823,4.4167,8.66113,-0.133984,90.6427,-27.8943,127.815,2.62451,0.671387,2.2583,-0.146301,-0.455627,-0.545166,-0.688232,764,57690,3608,3001,-30107
894,172829,4.35449,8.44102,0.0430664,90.6592,-27.9053,127.82,2.99072,0.488281,3.2959,-0.145996,-0.45575,-0.545288,-0.68811,766,57690,3608,3001,-30107
900,172835,4.2875,8.46494,0.129199,90.6921,-27.9163,127.815,5.5542,-0.732422,2.19727,-0.145813,-0.455872,-0.545441,-0.687988,769,57691,3609,3001,-30107
906,172841,4.27314,8.50801,0.0143555,90.7361,-27.9218,127.804,6.89697,-2.50244,2.31934,-0.14566,-0.456024,-0.545624,-0.687775,769,57691,3611,3001,-30107
912,172847,4.35449,8.57979,-0.110059,90.791,-27.9327,127.782,8.05664,-3.60107,2.31934,-0.145508,-0.456207,-0.545807,-0.6875,771,57689,3617,3001,-30107
918,172853,4.44541,8.69941,-0.282324,90.9119,-27.9547,127.733,9.58252,-5.00488,2.2583,-0.145355,-0.456451,-0.546021,-0.687225,776,57685,3628,3001,-30107
924,172859,4.5124,8.7042,-0.330176,90.9723,-27.9602,127.705,9.15527,-5.49316,2.2583,-0.145081,-0.45697,-0.546478,-0.686554,776,57724,3632,3001,-30107
930,172865,4.49326,8.67549,-0.291895,91.0382,-27.9657,127.678,9.21631,-5.5542,1.89209,-0.144989,-0.457214,-0.546722,-0.686249,777,57718,3637,3001,-30107
936,172871,4.50283,8.65156,-0.287109,91.0986,-27.9767,127.645,9.46045,-6.04248,1.95313,-0.144867,-0.457458,-0.546967,-0.685883,778,57713,3639,3001,-30107
942,172877,4.47891,8.61328,-0.368457,91.17,-27.9822,127.612,9.94873,-6.40869,1.95313,-0.144775,-0.457764,-0.547211,-0.685547,778,57749,3644,3001,-30107
948,172883,4.50283,8.71855,-0.598145,91.3129,-27.9932,127.529,9.76563,-7.75146,1.52588,-0.144684,-0.458038,-0.547455,-0.68515,772,57807,3655,3001,-30107
954,172889,4.62246,8.77598,-0.703418,91.3788,-27.9932,127.485,9.0332,-8.05664,1.52588,-0.144562,-0.458649,-0.547913,-0.684387,774,57833,3662,3001,-30107
960,172895,4.68945,8.82383,-0.789551,91.4392,-27.9987,127.447,7.93457,-7.26318,1.58691,-0.144531,-0.458954,-0.548126,-0.684052,774,57857,3668,3001,-30107
966,172901,4.75645,8.91953,-0.813477,91.4941,-28.0042,127.419,6.53076,-5.79834,1.2207,-0.14447,-0.459167,-0.548279,-0.683777,773,57876,3673,3001,-30107
972,172907,4.75645,8.89082,-0.842188,91.5326,-28.0042,127.397,4.88281,-4.27246,1.09863,-0.14444,-0.45932,-0.548401,-0.683563,774,57895,3674,3001,-30107
978,172913,4.7373,8.89561,-0.904395,91.5765,-28.0151,127.375,2.38037,-1.40381,1.46484,-0.144379,-0.459442,-0.548523,-0.683441,775,57926,3685,3001,-30107
984,172919,4.63203,8.93867,-0.952246,91.593,-28.0151,127.37,1.34277,-0.976563,0.793457,-0.144287,-0.459564,-0.548645,-0.683258,774,57938,3690,3001,-30107
990,172925,4.63203,8.97217,-0.961816,91.593,-28.0151,127.37,-0.305176,-0.305176,0.854492,-0.144257,-0.459595,-0.548645,-0.683258,773,57949,3693,3001,-30107
996,172931,4.63203,8.90039,-0.803906,91.5875,-28.0206,127.37,-2.0752,0.12207,0.854492,-0.144257,-0.459595,-0.548615,-0.683289,774,57959,3699,3001,-30107
1002,172937,4.64639,8.79033,-0.62207,91.5765,-28.0206,127.375,-3.23486,0.854492,1.0376,-0.144257,-0.459564,-0.548523,-0.68335,774,57968,3699,3001,-30107
1008,172943,4.56982,8.56065,-0.363672,91.5436,-28.0316,127.397,-2.99072,1.83105,1.2207,-0.144257,-0.459534,-0.548462,-0.683441,769,57984,3699,3001,-30107
1014,172949,4.43584,8.71377,-0.449805,91.5381,-28.0316,127.403,-2.13623,1.09863,0.488281,-0.144226,-0.459442,-0.54837,-0.683594,769,57992,3696,3001,-30107
1020,172955,4.44063,8.78555,-0.636426,91.5271,-28.0316,127.403,-2.38037,0.12207,0.488281,-0.144257,-0.459412,-0.54834,-0.683624,769,57999,3694,3001,-30107
1026,172961,4.49326,8.81426,-0.75127,91.5216,-28.0316,127.397,-2.80762,-0.915527,0.549316,-0.144287,-0.459442,-0.548279,-0.683655,767,58005,3696,3001,-30107
1032,172967,4.56025,8.86211,-0.732129,91.5161,-28.0316,127.392,-3.11279,-1.52588,0.610352,-0.144379,-0.459473,-0.548187,-0.683655,766,58010,3698,3001,-30107
1038,172973,4.8043,8.91953,-0.727344,91.5106,-28.0316,127.359,-3.479,-2.31934,0.183105,-0.14447,-0.459564,-0.548126,-0.683655,768,58022,3704,3001,-30107
1044,172979,4.69424,8.8334,-0.722559,91.4996,-28.0316,127.354,-4.39453,-0.915527,0.0610352,-0.144653,-0.459625,-0.547943,-0.683716,767,58026,3704,3001,-30107
1050,172985,4.79473,8.88603,-0.708203,91.4777,-28.0261,127.359,-5.24902,0.732422,-0.366211,-0.144745,-0.459564,-0.547852,-0.683807,765,58030,3706,3001,-30107
1056,172991,4.69902,8.83818,-0.645996,91.4447,-28.0261,127.37,-6.22559,1.95313,-0.366211,-0.144836,-0.459442,-0.547729,-0.68396,768,57993,3709,3001,-30107
1062,172997,4.56504,8.74248,-0.531152,91.4172,-28.0206,127.381,-6.10352,2.44141,-0.366211,-0.144897,-0.459351,-0.547607,-0.684113,770,58000,3712,3001,-30107
1068,173003,4.5459,8.8334,-0.636426,91.3678,-28.0151,127.392,-5.43213,0.793457,-0.549316,-0.144989,-0.459259,-0.547485,-0.684265,771,58012,3715,3001,-30107
1074,173009,4.67988,8.87646,-0.665137,91.3403,-28.0096,127.397,-6.34766,1.2207,-0.427246,-0.145172,-0.459106,-0.547272,-0.684509,773,58018,3716,3001,-30107
1080,173015,4.71816,8.78076,-0.569434,91.3129,-28.0042,127.408,-6.22559,1.77002,-0.793457,-0.145264,-0.458984,-0.54715,-0.684631,774,58024,3717,3001,-30107
1086,173021,4.63682,8.75205,-0.430664,91.2744,-27.9987,127.425,-7.14111,2.86865,-0.671387,-0.145325,-0.458862,-0.547028,-0.684814,774,58027,3718,3001,-30107
1092,173027,4.56504,8.72813,-0.430664,91.236,-27.9932,127.441,-7.14111,2.99072,-0.732422,-0.145416,-0.45871,-0.546875,-0.684998,774,57990,3716,3001,-30107
1098,173033,4.45498,8.66592,-0.339746,91.1755,-27.9877,127.469,-6.34766,2.38037,-0.671387,-0.145508,-0.458588,-0.546753,-0.685181,776,57970,3712,3001,-30107
1104,173039,4.4502,8.67549,-0.430664,91.1481,-27.9822,127.474,-5.5542,1.83105,-0.549316,-0.14566,-0.458374,-0.546539,-0.685455,775,57939,3708,3001,-30107
1110,173045,4.50283,8.74248,-0.440234,91.1261,-27.9767,127.48,-5.18799,1.40381,-0.732422,-0.145721,-0.458282,-0.546448,-0.685577,775,57953,3705,3001,-30107
1116,173051,4.53633,8.78555,-0.46416,91.0986,-27.9712,127.491,-5.24902,1.64795,-0.488281,-0.145782,-0.458191,-0.546356,-0.685699,779,57964,3702,3001,-30107
1122,173057,4.57939,8.79033,-0.430664,91.0767,-27.9657,127.502,-5.49316,1.89209,-0.549316,-0.145874,-0.458099,-0.546265,-0.685822,780,57974,3700,3001,-30107
1128,173063,4.51719,8.73291,-0.521582,91.0272,-27.9602,127.524,-5.18799,2.0752,-0.671387,-0.145935,-0.458008,-0.546173,-0.685944,779,57989,3691,3001,-30107
1134,173069,4.53154,8.7999,-0.569434,91.0052,-27.9547,127.529,-5.06592,1.70898,-0.427246,-0.146057,-0.457794,-0.54599,-0.686188,781,57997,3690,3001,-30107
1140,173075,4.49326,8.88125,-0.574219,90.9778,-27.9547,127.54,-5.43213,1.83105,-0.488281,-0.146118,-0.457703,-0.545898,-0.68631,781,58004,3584,3001,-30107
1146,173081,4.48369,8.86211,-0.440234,90.9448,-27.9492,127.551,-6.34766,2.38037,-0.549316,-0.146179,-0.457581,-0.545776,-0.686462,779,58011,3687,3001,-30107
1152,173087,4.36885,8.75684,-0.258398,90.9119,-27.9437,127.568,-6.83594,2.50244,-0.305176,-0.14624,-0.457458,-0.545654,-0.686646,776,57977,3584,3001,-30107
1158,173093,4.10566,8.50322,0.339746,90.8514,-27.9437,127.595,-5.67627,1.89209,0.305176,-0.146301,-0.457336,-0.545532,-0.686829,775,57920,3689,3001,-30107
1164,173099,4.09131,8.26875,0.358887,90.8459,-27.9437,127.595,-3.2959,-0.427246,0.427246,-0.146393,-0.457245,-0.545349,-0.687012,772,57896,3689,3001,-30107
1170,173105,4.11045,8.19697,0.263184,90.8569,-27.9437,127.573,0,-3.479,0.305176,-0.146454,-0.457336,-0.545349,-0.68692,770,57873,3687,3001,-30107
1176,173111,4.17266,8.35488,0.186621,90.8899,-27.9382,127.546,2.92969,-6.10352,0.12207,-0.146515,-0.45752,-0.545441,-0.686707,772,57852,3684,3001,-30107
1182,173117,4.26357,8.5415,0.00478516,90.9393,-27.9382,127.502,4.63867,-7.75146,0.0610352,-0.146576,-0.457764,-0.545593,-0.686432,773,57834,3681,3001,-30107
1188,173123,4.36885,8.72813,-0.14834,91.0437,-27.9327,127.419,5.49316,-7.99561,0.0610352,-0.146637,-0.458008,-0.545746,-0.686127,771,57840,3675,3001,-30107
1194,173129,4.37363,8.69463,-0.105273,91.0931,-27.9272,127.381,5.85938,-7.62939,0.12207,-0.146759,-0.458496,-0.546051,-0.685516,771,57824,3675,3001,-30107
1200,173135,4.39277,8.67549,-0.0765625,91.1536,-27.9218,127.337,6.65283,-8.72803,0.0610352,-0.14679,-0.458771,-0.546234,-0.685181,771,57810,3675,3001,-30107
1206,173141,4.31621,8.56543,-0.358887,91.225,-27.9218,127.282,8.05664,-10.6201,-0.12207,-0.146881,-0.459106,-0.546448,-0.684784,769,57795,3676,3001,-30107
1212,173147,4.35449,8.68984,-0.722559,91.3129,-27.9108,127.205,10.376,-13.6719,-0.793457,-0.147003,-0.459534,-0.546722,-0.684235,766,57782,3680,3001,-30107
1218,173153,4.67031,9.26406,-1.11494,91.5051,-27.8998,127.035,9.39941,-16.1743,-0.183105,-0.147156,-0.460022,-0.546997,-0.683655,760,57837,3685,3001,-30107
1224,173159,4.8665,9.40283,-1.50254,91.582,-27.8888,126.953,6.83594,-16.0522,-0.488281,-0.147583,-0.460999,-0.547394,-0.682587,755,57861,3686,3001,-30107
1230,173165,5.23496,9.37412,-1.97148,91.6425,-27.8833,126.876,4.02832,-13.6719,-0.976563,-0.147858,-0.461395,-0.547485,-0.68219,751,57881,3685,3001,-30107
1236,173171,5.23496,9.46982,-2.3543,91.6809,-27.8723,126.815,0.0610352,-10.7422,-0.732422,-0.148102,-0.4617,-0.547485,-0.681946,751,57900,3684,3001,-30107
1242,173177,5.37373,9.56074,-2.76104,91.6919,-27.8668,126.76,-3.90625,-8.8501,-1.15967,-0.148438,-0.461945,-0.547363,-0.681793,750,57916,3684,3001,-30107
1248,173183,5.52207,9.68994,-2.59355,91.6205,-27.8503,126.705,-13.916,-2.19727,-1.34277,-0.148773,-0.462067,-0.547119,-0.681854,748,57945,3683,3001,-30107
1254,173189,5.58906,9.48897,-2.20117,91.5381,-27.8394,126.7,-18.1885,0.915527,-2.01416,-0.149567,-0.461914,-0.546326,-0.682404,748,57916,3685,3001,-30107
1260,173195,5.85703,9.29277,-1.85664,91.4447,-27.8229,126.7,-20.2637,2.68555,-3.23486,-0.150024,-0.4617,-0.545837,-0.682831,749,57890,3685,3001,-30107
1266,173201,6.15371,9.46982,-1.24893,91.3898,-27.7844,126.656,-16.8457,-5.79834,-8.60596,-0.150757,-0.46167,-0.545502,-0.682983,746,57868,3683,3001,-30107
1272,173207,5.9623,10.0105,-1.24414,91.3458,-27.7295,126.606,-15.2588,-7.14111,-10.8032,-0.151581,-0.461609,-0.545258,-0.683044,743,57847,3677,3001,-30107
1278,173213,9.1875,12.8338,-2.79453,91.4612,-27.3999,126.112,-14.0381,-57.9834,-46.3867,-0.153015,-0.461945,-0.545074,-0.682617,733,57814,3669,3001,-30107
1284,173219,10.7427,10.5896,-1.41162,91.4117,-27.1307,125.881,-32.5317,-39.3066,-55.603,-0.159271,-0.462372,-0.545105,-0.680878,776,57840,3664,3001,-30107
1290,173225,11.8768,8.76641,1.3207,91.2415,-26.8286,125.865,-36.8652,-1.40381,-63.2324,-0.161896,-0.460815,-0.545227,-0.681213,812,57823,3659,3001,-30107
1296,173231,9.46504,7.80938,0.803906,91.0382,-26.488,126.035,-26.2451,32.1655,-72.2046,-0.163757,-0.45813,-0.546051,-0.681915,845,57809,3657,3001,-30107
1302,173237,5.83311,8.62764,-1.46904,90.8679,-26.12,126.244,-15.3809,39.978,-78.125,-0.165375,-0.4552,-0.547333,-0.682465,871,57798,3652,3001,-30107
1308,173243,1.98105,10.8958,-1.20107,90.6647,-25.3345,126.409,-13.4888,4.45557,-82.3364,-0.167389,-0.452393,-0.548676,-0.68277,899,57780,3638,3001,-30107
1314,173249,3.04814,10.2307,-2.36387,90.6482,-24.939,126.255,-17.7612,-25.5737,-82.4585,-0.173309,-0.449219,-0.55072,-0.681732,907,57773,3632,3001,-30107
1320,173255,4.34971,8.90039,-2.31602,90.6317,-24.5599,126.041,-22.2778,-35.7056,-77.8198,-0.176849,-0.448456,-0.55127,-0.680878,910,57766,3627,3001,-30107
1326,173261,4.55068,8.06777,-0.818262,90.5988,-24.1974,125.876,-22.0337,-27.771,-76.7822,-0.180176,-0.447449,-0.551849,-0.680206,955,57758,3620,3001,-30107
1332,173267,3.74199,9.05352,-0.564648,90.6152,-23.8184,125.689,-14.4653,-31.9824,-78.5522,-0.183502,-0.446594,-0.552643,-0.67923,990,57752,3612,3001,-30107
1338,173273,6.52217,7.68018,-3.01465,90.6812,-23.1482,125.035,-25.3906,-62.7441,-66.5894,-0.187195,-0.446381,-0.553131,-0.677979,1036,57743,3598,3001,-30107
1344,173279,8.14434,6.59873,-3.23955,90.6537,-22.8845,124.678,-34.9731,-62.1338,-57.8613,-0.194885,-0.447083,-0.552582,-0.675781,1099,57737,3590,3001,-30107
1350,173285,9.69473,6.08672,-2.91416,90.5933,-22.6593,124.343,-39.5508,-56.7017,-49.9878,-0.198425,-0.44751,-0.551788,-0.67511,1149,57731,3578,3001,-30107
1356,173291,10.5608,5.6752,-2.6127,90.4944,-22.478,124.036,-45.4102,-51.5747,-42.9077,-0.201691,-0.447968,-0.55069,-0.674713,1190,57729,3565,3001,-30107
1362,173297,10.8958,5.15361,-2.59834,90.3516,-22.3297,123.755,-51.4526,-45.5322,-37.5977,-0.204773,-0.448364,-0.549347,-0.674652,1220,57726,3550,3001,-30107
1368,173303,8.51279,4.78037,-3.16299,90.0165,-22.1539,123.431,-43.0298,-15.0146,-23.8647,-0.207306,-0.448486,-0.547943,-0.674927,1354,57725,3518,3001,-30107
1374,173309,7.16338,4.91436,-3.23477,89.8792,-22.1484,123.294,-38.9404,-17.7612,-11.5967,-0.210419,-0.448822,-0.545502,-0.67572,1409,57726,3503,3001,-30107
1380,173315,7.39785,4.88564,-3.42617,89.7638,-22.1924,123.074,-42.2363,-32.7759,-1.34277,-0.211914,-0.44989,-0.543732,-0.675964,1456,57727,3486,3001,-30107
1386,173321,8.69941,4.321,-3.8042,89.632,-22.3077,122.811,-48.0957,-39.917,10.376,-0.213318,-0.451416,-0.541504,-0.6763,1495,57728,3467,3001,-30107
1392,173327,9.97227,3.66543,-3.61279,89.4836,-22.467,122.569,-50.5981,-35.5835,19.043,-0.214417,-0.453033,-0.539032,-0.676849,1528,57730,3447,3001,-30107
1398,173333,10.2546,2.8998,-2.76582,89.187,-22.8625,122.195,-43.8232,-22.2778,26.123,-0.215088,-0.45462,-0.53653,-0.677551,1588,57740,3402,3001,-30107
1404,173339,9.8335,2.32559,-2.77539,89.0662,-23.0768,122.064,-36.6211,-15.4419,27.8931,-0.215515,-0.45752,-0.532104,-0.678955,1612,57743,3379,3001,-30107
1410,173345,9.36934,2.00498,-2.60791,88.9838,-23.302,121.954,-26.8555,-10.376,29.8462,-0.215149,-0.458954,-0.530273,-0.679535,1637,57748,3356,3001,-30107
1416,173351,8.80469,1.82793,-2.36865,88.9563,-23.5382,121.855,-15.0757,-7.99561,30.9448,-0.214447,-0.46048,-0.528748,-0.679901,1659,57755,3331,3001,-30107
1422,173357,8.39795,1.86621,-2.10068,88.9948,-23.7909,121.761,-1.83105,-8.17871,33.0811,-0.213409,-0.462158,-0.527588,-0.679993,1680,57762,3307,3001,-30107
1428,173363,8.24961,2.51221,-2.02891,89.2749,-24.3347,121.542,23.1323,-10.1318,38.3301,-0.212036,-0.464081,-0.526733,-0.679779,1698,57768,3284,3001,-30107
1434,173369,8.39316,2.95723,-2.07197,89.4891,-24.6259,121.437,33.4473,-9.58252,40.4663,-0.208405,-0.468475,-0.525787,-0.678619,1736,57779,3249,3001,-30107
1440,173375,8.57022,3.46924,-2.0959,89.7528,-24.9225,121.333,42.5415,-8.97217,41.626,-0.206177,-0.470825,-0.525696,-0.677765,1755,57783,3237,3001,-30107
1446,173381,8.79512,3.96689,-2.08154,90.0494,-25.2246,121.234,50.354,-7.44629,41.5649,-0.203766,-0.473175,-0.525818,-0.676758,1771,57784,3225,3001,-30107
1452,173387,8.81904,4.45498,-2.10547,90.379,-25.5212,121.146,57.0679,-4.39453,40.9546,-0.201172,-0.475494,-0.526154,-0.675629,1787,57786,3215,3001,-30107
1458,173393,8.47451,5.39766,-2.21074,90.7196,-25.8124,121.08,62.7441,-1.15967,40.2222,-0.198395,-0.477722,-0.526703,-0.674438,1753,57788,3206,3001,-30107
1464,173399,8.28789,5.78525,-2.16768,91.4447,-26.3892,120.981,68.7866,3.41797,39.7339,-0.195496,-0.479889,-0.527374,-0.673248,1699,57785,3197,3001,-30107
1470,173405,8.16826,6.07715,-2.18203,91.8073,-26.6748,120.943,69.8853,5.06592,38.8794,-0.189514,-0.484039,-0.528931,-0.670746,1680,57782,3198,3001,-30107
1476,173411,8.0917,6.29248,-2.15332,92.1753,-26.9495,120.91,71.167,5.79834,37.8418,-0.186493,-0.486023,-0.529785,-0.669495,1666,57778,3205,3001,-30107
1482,173417,8.00557,6.50781,-2.01455,92.5543,-27.2186,120.877,72.6318,6.53076,36.8652,-0.183472,-0.487976,-0.530701,-0.668182,1654,57773,3215,3001,-30107
1488,173423,7.90986,6.68486,-1.97627,92.9333,-27.4823,120.844,74.2798,7.01904,35.8276,-0.18042,-0.489868,-0.531677,-0.66684,1644,57766,3228,3001,-30107
1494,173429,7.65146,7.08682,-1.91406,93.7134,-27.9932,120.789,77.4536,7.50732,34.3628,-0.177368,-0.491699,-0.532745,-0.665466,1635,57760,3241,3001,-30107
1500,173435,7.56533,7.28779,-1.86143,94.1144,-28.2404,120.756,78.125,7.14111,33.9966,-0.171265,-0.495361,-0.534973,-0.662567,1631,57745,3274,3001,-30107
1506,173441,7.51748,7.49834,-1.78008,94.5154,-28.4875,120.718,78.7354,6.83594,33.9355,-0.168213,-0.497162,-0.536102,-0.661072,1631,57777,3292,3001,-30107
1512,173447,7.48398,7.75674,-1.78965,94.9219,-28.7292,120.679,78.8574,6.10352,33.2642,-0.165222,-0.498932,-0.537231,-0.659576,1632,57803,3314,3001,-30107
1518,173453,7.37871,8.09648,-1.7418,95.3284,-28.9655,120.635,79.0405,5.49316,33.2031,-0.162231,-0.500702,-0.538391,-0.65802,1587,57825,3339,3001,-30107
1524,173459,6.67529,8.50322,-1.33506,95.7294,-29.2072,120.597,79.2847,6.16455,34.8511,-0.15918,-0.502441,-0.53952,-0.656494,1548,57843,3361,3001,-30107
1530,173465,6.23506,8.53193,-1.3542,96.5479,-29.7565,120.531,80.6885,8.11768,45.105,-0.155975,-0.504242,-0.540588,-0.655029,1484,57869,3408,3001,-30107
1536,173471,5.92402,8.45537,-1.44512,96.9708,-30.0751,120.476,82.0313,6.53076,51.2085,-0.149048,-0.508209,-0.542389,-0.6521,1462,57879,3328,3001,-30107
1542,173477,6.33076,8.80947,-1.90928,97.4158,-30.4047,120.405,84.7778,3.54004,56.1523,-0.145386,-0.510437,-0.543182,-0.650482,1442,57885,3456,3001,-30107
1548,173483,6.47432,9.52246,-1.82793,97.8717,-30.7562,120.322,86.1206,2.31934,59.8755,-0.141632,-0.512787,-0.543915,-0.648834,1424,57889,3480,3001,-30107
1554,173489,6.65615,10.1972,-1.97627,98.3167,-31.1243,120.24,83.0078,3.41797,64.3921,-0.137817,-0.515167,-0.544495,-0.647308,1412,57892,3508,3009,-30108
1560,173495,6.78535,10.3934,-2.4165,99.0967,-31.8933,120.125,72.3877,10.498,69.2749,-0.133972,-0.517426,-0.544861,-0.645996,1403,57894,3538,3009,-30108
1566,173501,6.72793,10.4364,-2.44043,99.4373,-32.2778,120.086,67.2607,12.9395,69.1528,-0.126312,-0.521606,-0.545166,-0.643921,1394,57892,3608,3009,-30108
1572,173507,6.55566,10.4986,-2.37822,99.7449,-32.6569,120.059,61.8286,14.9536,67.5659,-0.122681,-0.523468,-0.545135,-0.643127,1394,57928,3643,3009,-30108
1578,173513,6.24941,10.4938,-2.28252,100.014,-33.0194,120.053,56.0303,16.9678,64.8804,-0.119202,-0.525177,-0.545044,-0.642487,1347,57961,3679,3009,-30108
1584,173519,5.95752,10.3838,-2.17725,100.256,-33.36,120.048,50.293,17.7002,61.3403,-0.115936,-0.526703,-0.544861,-0.641998,1309,57986,3711,3009,-30108
1590,173525,5.61299,10.135,-2.20596,100.464,-33.6786,120.048,44.3726,17.0288,56.7017,-0.112976,-0.528076,-0.544647,-0.641571,1277,58007,3740,3009,-30108
1596,173531,5.01963,9.71865,-2.01455,100.827,-34.2169,120.02,35.8887,12.3291,45.5933,-0.110321,-0.529327,-0.544434,-0.641174,1231,58044,3793,3009,-30108
1602,173537,4.82344,9.5751,-1.91406,100.992,-34.4312,119.993,32.5928,8.60596,39.6729,-0.106018,-0.531555,-0.544067,-0.64035,1216,58059,3821,3009,-30108
1608,173543,4.66074,9.44111,-1.7083,101.157,-34.6124,119.949,30.5786,4.63867,33.3862,-0.10437,-0.532593,-0.544006,-0.639862,1205,58071,3848,3009,-30108
1614,173549,4.51719,9.34541,-1.59824,101.327,-34.7607,119.888,29.9072,1.46484,28.1372,-0.102936,-0.533539,-0.544037,-0.639252,1199,58082,3874,3009,-30108
1620,173555,4.27314,9.33584,-1.35898,101.503,-34.8871,119.828,30.7007,-0.488281,25.1465,-0.101654,-0.534454,-0.544159,-0.638611,1148,58092,3899,3009,-30108
1626,173561,3.25869,9.4459,-0.976172,101.904,-35.1727,119.685,36.0718,-2.01416,31.311,-0.100281,-0.53537,-0.544342,-0.637878,1103,58102,3919,3009,-30108
1632,173567,3.029,9.44111,-1.21064,102.145,-35.3485,119.592,39.3677,-4.57764,38.4521,-0.0969849,-0.53775,-0.544586,-0.6362,1027,58117,3958,3009,-30108
1638,173573,3.19648,9.61338,-1.54082,102.42,-35.5627,119.471,42.6025,-7.56836,45.6543,-0.0950317,-0.539276,-0.544617,-0.635162,996,58123,3978,3009,-30108
1644,173579,3.65586,10.0201,-1.84707,102.711,-35.7935,119.328,43.9453,-9.58252,51.5747,-0.0929565,-0.540985,-0.544525,-0.634094,968,58127,3996,3009,-30108
1650,173585,4.18701,10.3838,-1.9332,102.997,-36.0461,119.185,42.6025,-8.66699,55.9082,-0.0907593,-0.542755,-0.544312,-0.633087,944,58129,4013,3009,-30108
1656,173591,4.5124,10.4843,-1.75137,103.255,-36.3153,119.07,36.9263,1.58691,60.2417,-0.0884399,-0.544403,-0.544006,-0.632263,928,58132,4034,3009,-30108
1662,173597,4.10566,10.2307,-1.66045,103.672,-36.8811,118.927,34.5459,6.46973,61.3403,-0.0835571,-0.547272,-0.543121,-0.631195,911,58137,4074,3009,-30108
1668,173603,3.73721,10.0632,-1.6748,103.859,-37.1722,118.889,33.4473,8.54492,61.9507,-0.0810242,-0.548553,-0.542633,-0.630829,905,58137,4093,3009,-30108
1674,173609,3.47881,9.93877,-1.69395,104.035,-37.4579,118.845,32.6538,8.97217,61.6455,-0.0785217,-0.549805,-0.542145,-0.630493,904,58139,4111,3009,-30108
1680,173615,3.36875,9.88135,-1.62695,104.205,-37.738,118.812,31.25,9.64355,60.8521,-0.0760803,-0.550995,-0.541626,-0.630188,856,58140,4128,3009,-30108
1686,173621,3.29219,9.81436,-1.4499,104.359,-38.0127,118.79,29.7241,10.8032,56.5186,-0.0737,-0.552094,-0.541168,-0.629913,815,58138,4145,3009,-30108
1692,173627,3.34004,9.95313,-1.51689,104.656,-38.5071,118.768,29.3579,11.0474,53.2227,-0.0691528,-0.553955,-0.540436,-0.629425,756,58133,4176,3009,-30108
1698,173633,3.37354,10.1254,-1.63652,104.777,-38.7268,118.779,27.2827,12.6953,49.4385,-0.0670471,-0.554688,-0.540161,-0.629242,737,58130,4190,3009,-30108
1704,173639,3.36396,10.0488,-1.66523,104.875,-38.9355,118.812,24.4141,15.4419,45.9595,-0.0650635,-0.555237,-0.539917,-0.629181,723,58127,4203,3009,-30108
1710,173645,3.24434,9.83828,-1.45469,104.941,-39.1278,118.872,22.3389,18.4326,42.6636,-0.0631714,-0.555573,-0.539703,-0.629242,711,58124,4215,3009,-30108
1716,173651,2.55527,9.4459,-0.555078,104.991,-39.3091,118.965,24.1699,26.062,41.5039,-0.0612183,-0.555756,-0.539581,-0.629364,705,58123,4230,3009,-30108
1722,173657,2.25381,9.18272,-0.29668,105.073,-39.7156,119.224,26.6724,29.9072,44.6777,-0.0567627,-0.555847,-0.539459,-0.629822,607,58118,4263,3009,-30108
1728,173663,2.17246,8.91953,-0.320605,105.128,-39.9463,119.372,31.0059,32.2876,48.9502,-0.0541382,-0.555878,-0.539429,-0.630066,570,58115,4277,3009,-30108
1734,173669,2.45,9.0583,-0.291895,105.211,-40.2045,119.531,37.3535,33.9355,53.6499,-0.051178,-0.555969,-0.539459,-0.630188,538,58112,4291,3009,-30108
1740,173675,2.90459,9.57031,-0.239258,105.293,-40.4846,119.718,41.5649,38.3301,57.1289,-0.0479431,-0.556,-0.539551,-0.630341,516,58149,4303,3009,-30108
1746,173681,3.26348,9.99619,-0.507227,105.37,-41.0999,120.24,41.2598,53.894,61.5234,-0.0443726,-0.555847,-0.539642,-0.630676,498,58182,4314,3009,-30108
1752,173687,3.36396,9.8957,-0.645996,105.359,-41.4185,120.564,41.0767,59.5093,60.1807,-0.0368347,-0.554932,-0.539734,-0.631866,432,58238,4348,3009,-30108
1758,173693,3.51709,10.2642,-0.894824,105.32,-41.7206,120.932,41.5649,64.0259,56.1523,-0.0329895,-0.554108,-0.539917,-0.632629,391,58260,4367,3009,-30108
1764,173699,3.48359,10.9245,-1.43555,105.238,-42.0007,121.355,39.2456,70.6177,50.4761,-0.0292358,-0.552979,-0.540222,-0.633575,357,58279,4382,3009,-30108
1770,173705,3.1582,11.3982,-2.01455,105.073,-42.2589,121.844,32.8979,78.6743,43.5181,-0.0256348,-0.551392,-0.540497,-0.634857,327,58296,4396,3009,-30108
1776,173711,1.51211,10.7427,-1.94756,104.502,-42.6819,123.003,16.6626,90.4541,29.6021,-0.0222473,-0.549438,-0.540741,-0.636505,308,58310,4410,3009,-30108
1782,173717,0.540723,9.9627,-1.51689,104.15,-42.8412,123.629,13.3667,91.1255,23.9868,-0.0162354,-0.544678,-0.541229,-0.64035,199,58331,4439,3009,-30108
1788,173723,-0.507227,9.40762,-0.870898,103.804,-42.984,124.255,14.1602,89.7827,21.1792,-0.0134277,-0.542114,-0.541595,-0.642242,160,58340,4457,3009,-30108
1794,173729,-1.43076,9.34062,-0.583789,103.491,-43.1213,124.871,18.0664,86.3037,21.4844,-0.0105896,-0.539612,-0.542114,-0.643982,83,58347,4472,3009,-30108
1800,173735,-1.97148,9.53682,-0.870898,103.222,-43.2532,125.442,21.5454,78.3691,23.8647,-0.00778198,-0.537323,-0.542694,-0.645416,15,58352,4487,3009,-30108
1806,173741,-1.67959,10.5561,-1.60303,102.81,-43.5004,126.42,20.6909,60.1196,28.1982,-0.00506592,-0.535309,-0.543304,-0.646637,65495,58357,4499,3009,-30108
1812,173747,1.76094,12.3218,0.497656,102.695,-43.5828,126.804,24.4751,45.8984,23.4375,-0.000366211,-0.531952,-0.544586,-0.648346,65407,58362,4512,3009,-30108
1818,173753,3.40225,17.2553,1.78486,103.008,-43.3246,126.958,78.4302,-2.68555,-35.7056,0.000183105,-0.530365,-0.548187,-0.646606,65378,58364,4517,3009,-30108
1824,173759,2.38779,18.8248,-4.74209,102.914,-43.1158,127.381,35.2173,38.269,-34.1187,0.000823975,-0.527618,-0.550568,-0.64682,65350,58364,4523,3009,-30108
1830,173765,0.741699,16.1786,-7.0916,102.387,-42.9126,128.029,-22.4609,71.2891,-41.0767,0.000701904,-0.523773,-0.551514,-0.649139,65326,58364,4529,3009,-30108
1836,173771,-2.85195,14.8579,-2.62705,101.635,-42.7039,128.804,-58.4106,86.731,-52.9785,0.000305176,-0.519318,-0.551697,-0.652557,65306,58363,4539,3009,-30108
1842,173777,-4.84736,14.8531,0.588574,100.085,-42.0667,130.325,-61.9507,79.5288,-69.9463,-0.00204468,-0.509674,-0.552429,-0.659485,65279,58362,4556,3009,-30108
1848,173783,-6.72793,12.1782,1.69395,99.201,-41.6711,131.111,-80.6885,83.1909,-75.2563,-0.0039978,-0.504364,-0.552551,-0.663452,65267,58363,4559,3009,-30108
1854,173789,-5.67998,6.62744,0.488086,98.4375,-41.2372,131.644,-91.9189,45.105,-74.7681,-0.00708008,-0.500061,-0.552307,-0.66687,65209,58367,4558,3009,-30108
1860,173795,-1.804,-0.425879,2.71318,97.9541,-40.7703,131.66,-103.271,-33.1421,-69.3359,-0.0120544,-0.498108,-0.551605,-0.668854,65156,58373,4556,3009,-30108
1866,173801,3.82813,-0.636426,10.6613,97.7399,-40.2869,131.484,-9.21631,-99.5483,-74.0967,-0.0171509,-0.497009,-0.551636,-0.669525,65156,58382,4550,3009,-30108
1872,173807,6.06758,-0.75127,6.24941,98.5254,-39.2651,130.622,44.3115,-105.042,-70.4346,-0.0253906,-0.497284,-0.556824,-0.664764,65139,58328,4530,3009,-30108
1878,173813,6.59873,0.583789,2.04326,99.4043,-38.7872,130.034,98.5107,-125.61,-62.9883,-0.0280457,-0.498474,-0.561401,-0.659882,65122,58306,4520,3009,-30108
1884,173819,9.4459,2.3543,-3.69893,100.426,-38.2874,129.518,136.414,-114.807,-68.6646,-0.0298157,-0.499359,-0.567108,-0.654236,65152,58288,4509,3009,-30108
1890,173825,11.1016,4.6751,-6.52695,101.53,-37.7106,129.073,164.185,-104.858,-85.8154,-0.031311,-0.499664,-0.573914,-0.64798,65169,58269,4503,3009,-30108
1896,173831,12.8242,19.3416,-3.27783,102.678,-36.3867,129.133,87.5244,-16.9678,-130.066,-0.0324097,-0.497925,-0.580627,-0.64325,65177,58308,4517,3009,-30108
1902,173837,9.62295,18.064,-7.35,102.497,-35.777,129.617,19.7144,41.9312,-127.197,-0.0367432,-0.489838,-0.589722,-0.64093,65219,58319,4531,3001,-30107
1908,173843,6.00537,14.566,-8.22568,102.014,-35.2167,130.243,-25.2686,70.3125,-121.094,-0.0389404,-0.484314,-0.591949,-0.642944,65249,58325,4548,3001,-30107
1914,173849,3.63672,12.6328,-5.93838,101.404,-34.7278,130.908,-47.6074,82.9468,-108.826,-0.0409546,-0.478729,-0.593292,-0.645782,65273,58331,4563,3001,-30107
1920,173855,2.10068,11.537,-1.54082,100.794,-34.2719,131.506,-56.2744,74.1577,-99.1821,-0.0430908,-0.473602,-0.594177,-0.648621,65291,58335,4579,3001,-30107
1926,173861,0.698633,8.27354,1.60303,99.8602,-33.4149,132.286,-46.6309,28.9307,-83.6792,-0.0454712,-0.469177,-0.594757,-0.651123,65406,58347,4604,3001,-30107
1932,173867,0.60293,8.11084,0.684277,99.657,-32.9919,132.391,-31.6772,-3.54004,-77.5146,-0.0511169,-0.463257,-0.596375,-0.653442,65452,58356,4610,3001,-30107
1938,173873,1.29199,9.03438,-0.411523,99.6075,-32.58,132.319,-19.4702,-32.4097,-69.7021,-0.0543823,-0.461884,-0.597443,-0.653198,65491,58367,4613,3001,-30107
1944,173879,2.46914,9.24971,-2.62227,99.646,-32.168,132.122,-15.625,-53.1616,-65.6738,-0.0579834,-0.461212,-0.59845,-0.652405,65521,58378,4613,3001,-30107
1950,173885,3.86641,9.30234,-3.43574,99.7174,-31.8054,131.88,-13.7939,-58.5938,-55.1147,-0.0614014,-0.460999,-0.599304,-0.651489,4,58388,4608,3001,-30107
1956,173891,6.46953,9.90527,-2.74189,99.7284,-31.2122,131.545,-21.7285,-35.4614,-45.105,-0.0644836,-0.460846,-0.599854,-0.650787,79,58406,4599,3001,-30107
1962,173897,6.19199,9.38369,-2.11025,99.6185,-30.943,131.517,-26.2451,-17.1509,-45.105,-0.0694885,-0.459229,-0.600586,-0.650726,126,58413,4593,3001,-30107
1968,173903,5.69434,9.17314,-1.23457,99.4702,-30.7013,131.578,-25.3906,-0.488281,-42.6636,-0.0712891,-0.457794,-0.600922,-0.651245,164,58422,4587,3001,-30107
1974,173909,4.7708,9.59902,-1.36377,99.3109,-30.4761,131.688,-22.2778,8.54492,-41.5039,-0.0727539,-0.456146,-0.601318,-0.651886,195,58389,4581,3001,-30107
1980,173915,3.57451,10.4412,-1.8375,99.1681,-30.2673,131.819,-16.2354,12.6343,-38.9404,-0.0739136,-0.454498,-0.601837,-0.652405,222,58359,4576,3001,-30107
1986,173921,3.26826,9.50811,-3.94775,98.8879,-29.9652,131.924,-27.71,-0.915527,-23.5596,-0.0750732,-0.453339,-0.601959,-0.652985,258,58308,4557,3001,-30107
1992,173927,3.5458,9.12051,-2.65098,98.7616,-29.8279,131.896,-29.7852,-9.8877,-20.6299,-0.0779419,-0.451935,-0.601501,-0.654053,275,58287,4547,3001,-30107
1998,173933,4.76602,8.56065,-2.92852,98.6572,-29.696,131.808,-32.1045,-19.2871,-18.9209,-0.0797119,-0.451721,-0.601044,-0.654358,289,58269,4536,3001,-30107
2004,173939,5.11533,8.89082,-2.77061,98.6078,-29.5972,131.754,-16.6016,-11.5356,-13.3057,-0.0808411,-0.451538,-0.600952,-0.654449,350,58253,4524,3001,-30107
2010,173945,5.85703,9.77607,-2.91895,98.5309,-29.5148,131.754,-17.334,-1.64795,-11.2305,-0.081665,-0.451172,-0.6008,-0.654755,402,58238,4513,3001,-30107
2016,173951,4.8043,9.18272,-1.78008,98.1958,-29.3994,131.962,-30.0293,21.1792,-10.6201,-0.0820923,-0.450348,-0.600586,-0.655457,489,58216,4497,3001,-30107
2022,173957,4.14395,7.67061,-1.57432,98.0035,-29.35,132.072,-28.3813,20.0195,-8.72803,-0.0829773,-0.448395,-0.59967,-0.657532,525,58208,4490,3001,-30107
2028,173963,4.06738,7.20166,-1.08623,97.8717,-29.2841,132.133,-22.0947,10.5591,-10.7422,-0.0835571,-0.447693,-0.599365,-0.658203,557,58202,4480,3001,-30107
2034,173969,4.4502,7.929,-0.995313,97.7893,-29.2181,132.166,-14.5264,7.01904,-10.7422,-0.0841064,-0.447174,-0.599274,-0.658569,587,58200,4471,3001,-30107
2040,173975,4.56025,8.53193,-1.22021,97.7234,-29.1577,132.198,-10.6812,6.65283,-10.2539,-0.0845947,-0.446655,-0.599274,-0.658875,617,58200,4465,3001,-30107
2046,173981,4.39277,8.87646,-1.05273,97.5806,-29.0479,132.292,-10.1318,10.3149,-8.54492,-0.0849915,-0.446136,-0.599243,-0.65918,662,58199,4454,3001,-30107
2052,173987,4.47412,8.48408,-1.35898,97.4982,-28.9929,132.325,-14.4653,7.08008,-9.09424,-0.0857849,-0.445129,-0.59906,-0.659943,682,58199,4451,3001,-30107
2058,173993,4.27314,8.00557,-1.43076,97.4377,-28.9435,132.336,-11.0474,4.08936,-8.05664,-0.0862732,-0.444794,-0.598969,-0.660187,698,58199,4449,3001,-30107
2064,173999,4.61289,8.23525,-1.21543,97.3993,-28.8885,132.336,-8.36182,1.15967,-8.42285,-0.086792,-0.444519,-0.598938,-0.660309,711,58199,4445,3001,-30107
2070,174005,4.8665,8.62285,-1.46426,97.3718,-28.8336,132.33,-6.40869,1.15967,-8.72803,-0.0872498,-0.444275,-0.598969,-0.6604,721,58198,4436,3001,-30107
2076,174011,4.90957,9.14922,-2.00498,97.2949,-28.7292,132.358,-7.8125,5.67627,-8.36182,-0.0877075,-0.444,-0.598999,-0.660492,745,58198,4417,3001,-30107
2082,174017,5.0627,9.20186,-2.52656,97.229,-28.6798,132.374,-12.085,5.61523,-9.39941,-0.0885925,-0.443268,-0.598877,-0.66098,756,58198,4407,3001,-30107
2088,174023,4.79951,9.24014,-2.4835,97.1466,-28.6304,132.396,-14.0991,6.95801,-7.93457,-0.0890503,-0.442871,-0.598663,-0.661377,764,58197,4397,3001,-30107
2094,174029,5.05791,9.28799,-2.45479,97.0477,-28.5864,132.418,-17.9443,7.44629,-8.60596,-0.0895691,-0.442474,-0.598389,-0.661835,770,58198,4391,3001,-30107
2100,174035,5.17754,9.12051,-2.38301,96.9324,-28.5425,132.457,-20.5688,9.82666,-8.36182,-0.0901184,-0.441986,-0.597992,-0.662415,778,58199,4383,3001,-30107
2106,174041,4.69902,9.13008,-2.18682,96.6522,-28.4656,132.561,-24.4751,13.3057,-7.8125,-0.0905762,-0.441437,-0.597565,-0.663116,785,58205,4373,3001,-30107
2112,174047,4.49326,8.98174,-2.04805,96.4984,-28.4271,132.599,-27.0386,11.7188,-7.69043,-0.0916443,-0.440369,-0.596497,-0.664642,790,58210,4367,3001,-30107
2118,174053,4.61289,8.75205,-1.82314,96.3446,-28.3832,132.627,-29.6021,8.97217,-7.93457,-0.0923767,-0.439911,-0.595856,-0.665436,796,58214,4362,3001,-30107
2124,174059,4.87607,8.53193,-1.51211,96.1853,-28.3392,132.649,-30.8228,7.14111,-8.91113,-0.0931702,-0.439484,-0.595154,-0.666199,797,58220,4355,3001,-30107
2130,174065,5.10098,8.43145,-1.23457,96.026,-28.2898,132.671,-30.3955,8.05664,-10.0708,-0.0939636,-0.438995,-0.594513,-0.666992,796,58224,4345,3001,-30107
2136,174071,4.99092,8.49365,-1.37813,95.7074,-28.1689,132.748,-28.1982,11.5967,-12.7563,-0.0947266,-0.438446,-0.593933,-0.667786,799,58193,4327,3001,-30107
2142,174077,4.85215,8.70898,-1.51689,95.5481,-28.103,132.792,-28.4424,12.0239,-14.0381,-0.0962219,-0.437134,-0.592896,-0.669342,800,58201,4317,3001,-30107
2148,174083,4.63682,8.90518,-1.60303,95.3833,-28.0371,132.836,-29.7241,11.1694,-14.2212,-0.0970459,-0.436462,-0.592346,-0.670135,800,58209,4308,3001,-30107
2154,174089,4.53633,8.87168,-1.62217,95.2185,-27.9657,132.863,-31.0669,9.33838,-14.4043,-0.0979614,-0.435852,-0.591736,-0.670929,802,58175,4301,3001,-30107
2160,174095,4.48848,8.91953,-1.48818,95.0537,-27.8998,132.891,-31.6772,9.09424,-13.855,-0.0988464,-0.435242,-0.591125,-0.671753,805,58145,4295,3001,-30107
2166,174101,4.65117,8.45537,-1.40684,94.7021,-27.7625,132.924,-34.79,5.85938,-14.7095,-0.0997925,-0.434692,-0.590424,-0.672577,803,58096,4278,3001,-30107
2172,174107,4.84736,8.29268,-1.67002,94.5374,-27.6746,132.913,-34.668,2.38037,-17.1509,-0.102051,-0.433655,-0.58902,-0.674133,803,58078,4267,3001,-30107
2178,174113,5.07227,8.63242,-1.86621,94.3835,-27.5867,132.885,-34.668,-0.12207,-17.8833,-0.103363,-0.433228,-0.588318,-0.674805,803,58063,4257,3001,-30107
2184,174119,5.46943,9.00566,-2.25381,94.2188,-27.4878,132.858,-35.9497,-0.305176,-19.8975,-0.104767,-0.43277,-0.587616,-0.675507,800,58050,4244,3001,-30107
2190,174125,5.39287,9.35498,-2.38779,94.0265,-27.3889,132.847,-41.5039,2.56348,-20.752,-0.106201,-0.43219,-0.586792,-0.676392,795,58038,4228,3001,-30107
2196,174131,4.88086,9.3167,-1.20586,93.4991,-27.1912,132.935,-51.8188,18.0054,-20.6909,-0.107635,-0.431396,-0.585815,-0.67749,789,58020,4197,3001,-30107
2202,174137,4.75166,8.98174,-0.655566,93.175,-27.1088,133.055,-55.3589,26.4893,-18.3105,-0.109894,-0.429016,-0.583557,-0.680603,784,58014,4179,3001,-30107
2208,174143,4.79951,7.91465,-1.61738,92.8564,-27.0099,133.132,-58.1665,19.165,-22.0337,-0.111237,-0.427826,-0.582336,-0.68219,778,58009,4162,3001,-30107
2214,174149,4.22529,8.00557,-1.46426,92.5708,-26.922,133.22,-50.5371,21.1182,-19.2261,-0.112335,-0.426697,-0.581268,-0.683594,774,58007,4147,3001,-30107
2220,174155,4.53154,8.86689,-1.47383,92.2906,-26.8451,133.297,-50.2319,20.0195,-17.8833,-0.113373,-0.425629,-0.5802,-0.684998,770,58010,4128,3001,-30107
2226,174161,4.47891,9.02481,-0.746484,91.6754,-26.6913,133.5,-55.3589,27.771,-15.8081,-0.114471,-0.42453,-0.579071,-0.686462,757,58018,4087,3001,-30107
2232,174167,4.42627,8.91475,0.669922,91.3184,-26.6254,133.66,-60.0586,34.2407,-14.8315,-0.11615,-0.421783,-0.576477,-0.690063,756,58023,4064,3001,-30107
2238,174173,3.99561,7.996,1.67002,90.9558,-26.5594,133.83,-58.4717,36.1328,-14.8926,-0.116852,-0.420227,-0.575165,-0.691956,755,57987,4044,3001,-30107
2244,174179,3.60801,6.96719,1.51689,90.6482,-26.4935,133.984,-49.1333,32.7759,-14.7705,-0.117462,-0.418823,-0.574127,-0.693573,754,57956,4025,3001,-30107
2250,174185,3.24434,6.91934,1.26328,90.4285,-26.4276,134.094,-36.0718,24.4141,-14.4043,-0.118011,-0.417725,-0.573425,-0.694733,751,57927,4005,3001,-30107
2256,174191,3.16299,8.38838,0.674707,90.1923,-26.3068,134.154,-19.4092,5.5542,-12.5122,-0.118591,-0.416962,-0.572968,-0.695435,745,57885,3965,3001,-30107
2262,174197,3.40703,8.65156,0.234473,90.1154,-26.2463,134.121,-18.5547,-1.83105,-11.6577,-0.120026,-0.416351,-0.572296,-0.696136,739,57868,3840,3001,-30107
2268,174203,3.76592,8.68027,0.29668,90.0549,-26.2024,134.083,-17.0898,-3.17383,-10.1929,-0.120789,-0.416229,-0.57196,-0.69635,732,57853,3924,3001,-30107
2274,174209,4.29707,8.56543,0.47373,89.9945,-26.153,134.044,-16.2964,-3.23486,-9.8877,-0.121521,-0.416138,-0.571625,-0.696564,727,57841,3902,3001,-30107
2280,174215,4.25879,8.20654,0.483301,89.9506,-26.1035,134.011,-13.4888,-2.92969,-10.0098,-0.122192,-0.416016,-0.571411,-0.696686,724,57832,3882,3001,-30107
2286,174221,4.25879,8.43623,0.181836,89.9066,-26.0156,133.951,-5.79834,-2.31934,-9.94873,-0.122772,-0.415924,-0.571259,-0.696777,713,57817,3839,3001,-30107
2292,174227,4.13916,8.72813,0.00957031,89.9066,-25.9662,133.918,-4.15039,-2.62451,-9.52148,-0.123749,-0.415741,-0.571289,-0.696686,709,57811,3822,3001,-30107
2298,174233,4.10566,8.84775,-0.0478516,89.9011,-25.9277,133.885,-4.08936,-3.41797,-9.15527,-0.124237,-0.41571,-0.57132,-0.696594,705,57806,3807,3001,-30107
2304,174239,4.4167,8.95781,-0.143555,89.9011,-25.8783,133.846,-3.78418,-3.23486,-9.94873,-0.124725,-0.415649,-0.57135,-0.696503,751,57800,3792,3001,-30107
2310,174245,4.00996,8.65635,-0.14834,89.9066,-25.8344,133.808,-3.84521,-4.57764,-9.52148,-0.125275,-0.415619,-0.571381,-0.696411,789,57795,3779,3001,-30107
2316,174251,4.5459,8.89082,-0.320605,89.9231,-25.741,133.731,-0.671387,-3.78418,-10.9863,-0.125732,-0.415619,-0.571411,-0.696289,808,57789,3757,3001,-30107
