TimeSinceCollection,Timestamp,AccX,AccY,AccZ,AngleRoll,AnglePitch,AngleYaw,AngularVelX,AngularVelY,             AngularVelZ,Q1,Q2,Q3,Q4,MagX,MagY,MagZ,Height,Airpressure
0,23219,4.52676,8.63242,1.32549,84.7375,-28.3337,137.532,5.85938,-7.62939,0.12207,0.105652,0.405182,0.543518,0.727417,313,57771,3522,2892,-30094
6,23225,4.50283,8.61807,1.44512,84.7375,-28.3337,137.532,6.28662,-7.69043,0.12207,0.105743,0.405273,0.543579,0.727325,316,57768,3521,2892,-30094
12,23231,4.29707,8.45537,1.37813,84.7375,-28.3337,137.532,6.83594,-8.42285,0.366211,0.105835,0.405365,0.54361,0.727234,320,57768,3519,2892,-30094
18,23237,4.48848,8.49844,1.40684,84.7375,-28.3337,137.532,7.44629,-8.23975,0.366211,0.105927,0.405396,0.54364,0.727173,323,57769,3519,2892,-30094
24,23243,4.51719,8.6707,0.636426,84.787,-28.3118,137.45,-0.549316,-1.95313,-0.671387,0.104095,0.389587,0.527832,0.747437,323,57769,3520,2892,-30094
30,23249,4.35449,8.53672,1.33984,84.798,-28.3063,137.433,9.0332,-11.1694,0.183105,0.106201,0.405548,0.543671,0.72702,321,57766,3521,2892,-30094
36,23255,4.47891,8.5415,1.41162,84.798,-28.3063,137.433,9.21631,-11.1694,0.793457,0.106262,0.40564,0.543701,0.726929,322,57765,3520,2892,-30094
42,23261,4.4502,8.53193,1.23457,84.798,-28.3063,137.433,10.5591,-12.4512,0.427246,0.106354,0.405731,0.543732,0.726837,322,57765,3521,2892,-30094
48,23267,4.59854,8.55586,1.10537,84.798,-28.3063,137.433,11.3525,-12.7563,0.549316,0.106445,0.405823,0.543762,0.726776,319,57763,3523,2892,-30094
54,23273,4.53633,8.72334,0.531152,84.8529,-28.2953,137.357,-0.244141,-1.70898,-0.305176,0.104401,0.391937,0.529633,0.744873,317,57762,3526,2892,-30094
60,23279,4.8043,8.95781,0.526367,84.8639,-28.2953,137.346,11.7798,-12.0239,0.610352,0.106598,0.405975,0.543823,0.726624,322,57762,3531,2892,-30094
66,23285,4.90479,8.99131,0.516797,84.8639,-28.2953,137.346,9.58252,-9.94873,0.427246,0.106659,0.406036,0.543823,0.726563,323,57762,3533,2892,-30094
72,23291,4.90957,8.98652,0.588574,84.8639,-28.2953,137.346,8.05664,-7.44629,0.732422,0.10672,0.406067,0.543854,0.726532,322,57764,3534,2892,-30094
78,23297,4.78037,8.87646,0.732129,84.8639,-28.2953,137.346,6.53076,-5.43213,0.488281,0.10675,0.406128,0.543854,0.726471,323,57765,3535,2892,-30094
84,23303,4.55547,8.72813,0.502441,84.8914,-28.2898,137.302,-1.0376,-0.549316,0.305176,0.104462,0.393738,0.531311,0.742737,322,57765,3536,2892,-30094
90,23309,4.59854,8.57979,1.05752,84.8914,-28.2898,137.302,5.79834,-4.76074,0.427246,0.106842,0.406189,0.543854,0.72644,321,57762,3538,2892,-30094
96,23315,4.56982,8.6085,1.05273,84.8914,-28.2898,137.302,6.34766,-4.82178,0.305176,0.106873,0.406189,0.543854,0.72644,324,57761,3541,2892,-30094
102,23321,4.28271,8.55107,0.942676,84.8914,-28.2898,137.302,7.32422,-7.01904,-0.305176,0.106903,0.406219,0.543854,0.72641,327,57760,3543,2892,-30094
108,23327,4.62246,8.64199,0.971387,84.8914,-28.2898,137.302,6.83594,-6.40869,0.610352,0.106934,0.406281,0.543854,0.726379,327,57758,3547,2892,-30094
114,23333,4.56982,8.77119,0.416309,84.9133,-28.2843,137.269,-0.549316,-0.732422,0.244141,0.104401,0.394897,0.532562,0.741241,328,57757,3550,2892,-30094
120,23339,4.60811,8.69463,0.92832,84.9133,-28.2843,137.263,6.53076,-5.61523,0.488281,0.107025,0.406342,0.543884,0.726288,333,57755,3557,2892,-30094
126,23345,4.62725,8.68027,0.971387,84.9133,-28.2843,137.263,6.46973,-5.61523,0.305176,0.107056,0.406342,0.543884,0.726288,331,57754,3556,2892,-30094
132,23351,4.61289,8.62764,0.961816,84.9133,-28.2843,137.263,6.28662,-5.37109,0.305176,0.107056,0.406372,0.543884,0.726288,329,57755,3559,2892,-30094
138,23357,4.5459,8.68027,0.947461,84.9133,-28.2843,137.263,7.56836,-6.71387,-0.12207,0.107086,0.406403,0.543884,0.726227,329,57757,3558,2892,-30094
144,23363,4.53633,8.69941,0.516797,84.9408,-28.2788,137.23,0.244141,-1.40381,0.244141,0.104309,0.396088,0.533936,0.739624,328,57758,3558,2892,-30094
150,23369,4.61289,8.69941,0.995313,84.9463,-28.2788,137.225,7.75146,-7.56836,-0.0610352,0.107178,0.406525,0.543976,0.726074,325,57759,3553,2892,-30094
156,23375,4.44063,8.59893,0.92832,84.9463,-28.2788,137.225,7.14111,-6.89697,0.366211,0.107208,0.406586,0.544006,0.726044,328,57759,3551,2892,-30094
162,23381,4.65596,8.66113,0.980957,84.9463,-28.2788,137.225,6.95801,-6.65283,0.244141,0.107208,0.406616,0.544037,0.726013,328,57758,3551,2892,-30094
168,23387,4.57939,8.66592,0.980957,84.9463,-28.2788,137.225,7.99561,-7.38525,-0.0610352,0.107208,0.406647,0.544067,0.725952,326,57756,3553,2892,-30094
174,23393,4.5459,8.75205,0.45459,84.9957,-28.2788,137.186,0.427246,-1.2207,0.610352,0.104248,0.39743,0.535431,0.737823,325,57754,3557,2892,-30094
180,23399,4.51719,8.66592,0.866113,85.0012,-28.2788,137.181,9.15527,-8.97217,-0.244141,0.107239,0.406799,0.544159,0.7258,326,57755,3558,2892,-30094
186,23405,4.58418,8.68984,0.784766,85.0012,-28.2788,137.181,8.66699,-8.36182,0.854492,0.107269,0.40683,0.544189,0.725769,325,57754,3554,2892,-30094
192,23411,4.70381,8.74727,0.674707,85.0012,-28.2788,137.181,9.21631,-8.66699,0.305176,0.107269,0.40686,0.544189,0.725739,324,57754,3548,2892,-30094
198,23417,4.65117,8.78076,0.550293,85.0012,-28.2788,137.181,8.66699,-8.30078,0.305176,0.107269,0.406891,0.54422,0.725708,326,57755,3541,2892,-30094
204,23423,4.49805,8.69463,0.569434,85.0287,-28.2843,137.159,-0.183105,-0.488281,0.610352,0.104126,0.398987,0.537079,0.735809,326,57755,3540,2892,-30094
210,23429,4.62246,8.75684,0.712988,85.0342,-28.2843,137.153,5.85938,-5.49316,0.549316,0.107269,0.406982,0.544281,0.725616,322,57754,3538,2892,-30094
216,23435,4.5459,8.63721,0.736914,85.0342,-28.2843,137.153,5.43213,-5.31006,0.366211,0.107269,0.407043,0.544312,0.725555,322,57754,3542,2892,-30094
222,23441,4.63682,8.63242,0.732129,85.0342,-28.2843,137.153,5.7373,-5.24902,0.305176,0.107239,0.407074,0.544342,0.725494,320,57754,3543,2892,-30094
228,23447,4.63203,8.63721,0.698633,85.0342,-28.2843,137.153,6.16455,-5.43213,0.183105,0.107239,0.407135,0.544403,0.725433,318,57753,3546,2892,-30094
234,23453,4.5459,8.73291,0.449805,85.0946,-28.2953,137.12,0.854492,-1.0376,0.976563,0.103943,0.399963,0.53833,0.734375,317,57753,3548,2892,-30094
240,23459,4.69424,8.7999,0.684277,85.1056,-28.3008,137.12,4.88281,-5.43213,0.427246,0.107178,0.407288,0.544525,0.725281,318,57752,3551,2892,-30094
246,23465,4.68467,8.71377,0.689063,85.1056,-28.3008,137.12,4.45557,-4.45557,0.366211,0.107147,0.407349,0.544556,0.72522,318,57751,3551,2892,-30094
252,23471,4.62246,8.6707,0.717773,85.1056,-28.3008,137.12,4.3335,-3.90625,0.244141,0.107117,0.407379,0.544586,0.725159,316,57751,3551,2892,-30094
258,23477,4.46934,8.66592,0.684277,85.1056,-28.3008,137.12,5.06592,-4.76074,0,0.107086,0.40744,0.544617,0.725098,319,57752,3549,2892,-30094
264,23483,4.60811,8.73291,0.579004,85.188,-28.3173,137.065,2.31934,-3.05176,1.89209,0.10376,0.400787,0.539398,0.733185,320,57752,3549,2892,-30094
270,23489,4.59854,8.67549,0.75127,85.2155,-28.3282,137.043,4.88281,-4.57764,0.488281,0.107086,0.407867,0.544861,0.724701,321,57748,3545,2892,-30094
276,23495,4.44063,8.62764,0.641211,85.2155,-28.3282,137.043,5.31006,-5.61523,-0.12207,0.107056,0.407959,0.544922,0.724609,324,57746,3544,2892,-30094
282,23501,4.57461,8.68027,0.660352,85.2155,-28.3282,137.043,4.88281,-5.12695,0.366211,0.106995,0.408051,0.544983,0.724518,326,57744,3544,2892,-30094
288,23507,4.68467,8.72813,0.684277,85.2155,-28.3282,137.043,4.82178,-5.12695,0.12207,0.106934,0.408112,0.545044,0.724457,325,57743,3544,2892,-30094
294,23513,4.45498,8.65635,0.397168,85.2924,-28.3502,137.01,1.95313,-2.0752,1.28174,0.103638,0.401611,0.540466,0.731934,323,57745,3549,2892,-30094
300,23519,4.6416,8.72813,0.564648,85.3088,-28.3612,137,3.96729,-4.63867,0.183105,0.106842,0.408386,0.545197,0.724213,323,57751,3557,2892,-30094
306,23525,4.68467,8.7377,0.468945,85.3088,-28.3612,137,4.02832,-4.27246,0.12207,0.106812,0.408478,0.545227,0.724091,321,57752,3560,2892,-30094
312,23531,4.65596,8.78076,0.44502,85.3088,-28.3612,137,3.78418,-4.08936,-0.0610352,0.106781,0.408569,0.545288,0.72403,319,57753,3563,2892,-30094
318,23537,4.58418,8.79512,0.507227,85.3088,-28.3612,137,3.23486,-3.84521,-0.183105,0.10675,0.408661,0.545349,0.723938,321,57751,3568,2892,-30094
324,23543,4.64639,8.68027,0.416309,85.3967,-28.3887,136.95,1.64795,-1.77002,1.28174,0.103577,0.402283,0.541321,0.730957,323,57749,3570,2892,-30094
330,23549,4.61289,8.62285,0.712988,85.4132,-28.3887,136.939,1.83105,-2.38037,0.183105,0.106659,0.408936,0.545502,0.723694,327,57745,3571,2892,-30094
336,23555,4.56025,8.63242,0.6125,85.4132,-28.3887,136.939,2.50244,-2.44141,0,0.106659,0.409027,0.545563,0.723572,330,57743,3571,2892,-30094
342,23561,4.52676,8.7042,0.617285,85.4132,-28.3887,136.939,2.44141,-2.92969,0,0.106659,0.409119,0.545593,0.72348,332,57742,3572,2892,-30094
348,23567,4.55547,8.7377,0.579004,85.4132,-28.3887,136.939,2.2583,-3.11279,0,0.106659,0.40921,0.545624,0.723419,331,57740,3576,2892,-30094
354,23573,4.57939,8.64678,0.502441,85.4791,-28.4106,136.89,0.671387,-0.488281,0.976563,0.103668,0.402771,0.54187,0.730255,180,57792,3485,2892,-30094
360,23579,4.50762,8.65156,0.45459,85.4901,-28.4106,136.884,2.38037,-4.57764,-0.610352,0.106628,0.409363,0.545715,0.723267,331,57739,3581,2892,-30094
366,23585,4.67031,8.76162,0.588574,85.4901,-28.4106,136.884,1.70898,-3.96729,-0.610352,0.106628,0.409454,0.545776,0.723175,329,57739,3581,2892,-30094
372,23591,4.66553,8.78076,0.650781,85.4901,-28.4106,136.884,1.28174,-3.479,-0.671387,0.106628,0.409576,0.545837,0.723083,329,57737,3584,2892,-30094
378,23597,4.60811,8.69941,0.727344,85.4901,-28.4106,136.884,0.610352,-2.68555,-0.854492,0.106628,0.409668,0.545868,0.722992,332,57736,3588,2892,-30094
384,23603,4.61768,8.74248,0.373242,85.5725,-28.4271,136.829,1.15967,-0.610352,0.915527,0.104065,0.40329,0.542358,0.729553,120,57790,3504,2892,-30094
390,23609,4.42627,8.52236,0.870898,85.5835,-28.4326,136.824,1.70898,-4.39453,-0.915527,0.106537,0.409851,0.546021,0.722778,329,57728,3596,2892,-30094
396,23615,4.44541,8.58936,0.846973,85.5835,-28.4326,136.824,2.38037,-5.06592,-0.915527,0.106537,0.409912,0.546082,0.722717,329,57728,3598,2892,-30094
402,23621,4.5124,8.62285,0.689063,85.5835,-28.4326,136.824,2.86865,-5.49316,-0.915527,0.106506,0.409973,0.546112,0.722656,330,57729,3599,2892,-30094
408,23627,4.56504,8.73291,0.617285,85.5835,-28.4326,136.824,4.45557,-7.08008,-1.46484,0.106537,0.410095,0.546204,0.722504,327,57729,3598,2892,-30094
414,23633,4.73252,8.72334,0.401953,85.6714,-28.4491,136.763,1.77002,-1.77002,1.09863,0.104675,0.404175,0.54303,0.728485,240,57777,3509,2892,-30094
420,23639,4.79951,8.87646,0.392383,85.6824,-28.4491,136.763,2.80762,-6.46973,-1.15967,0.106476,0.410339,0.546356,0.72226,323,57732,3597,2892,-30094
426,23645,4.83779,8.87168,0.253613,85.6824,-28.4491,136.763,1.52588,-4.08936,-0.793457,0.106415,0.41037,0.546387,0.722229,322,57732,3598,2892,-30094
432,23651,4.71816,8.90996,0.224902,85.6824,-28.4491,136.763,0.610352,-2.80762,-1.09863,0.106384,0.4104,0.546417,0.722198,322,57733,3600,2892,-30094
438,23657,4.58896,8.86211,0.392383,85.6824,-28.4491,136.763,-0.549316,-2.0752,-1.0376,0.106354,0.410431,0.546448,0.722168,324,57734,3605,2892,-30094
444,23663,4.61768,8.72334,0.31582,85.7153,-28.4711,136.758,0.183105,0.183105,1.28174,0.105316,0.404877,0.543396,0.727753,296,57778,3510,2892,-30094
450,23669,4.49326,8.58936,0.669922,85.7208,-28.4711,136.758,0.183105,-2.74658,-0.671387,0.106232,0.410492,0.546478,0.722107,324,57731,3611,2892,-30094
456,23675,4.52197,8.66592,0.6125,85.7208,-28.4711,136.758,0.854492,-2.92969,-0.549316,0.106201,0.410492,0.546509,0.722107,325,57731,3611,2892,-30094
462,23681,4.58896,8.71377,0.488086,85.7208,-28.4711,136.758,0.854492,-3.17383,-0.427246,0.106171,0.410522,0.546478,0.722107,325,57730,3611,2892,-30094
468,23687,4.65117,8.76641,0.425879,85.7208,-28.4711,136.758,0.793457,-3.11279,-0.610352,0.10611,0.410522,0.546478,0.722107,323,57730,3611,2892,-30094
474,23693,4.53633,8.63242,0.492871,85.7208,-28.493,136.769,-0.366211,0.732422,1.2207,0.105835,0.405365,0.54361,0.727234,320,57768,3519,2892,-30094
480,23699,4.54111,8.74248,0.569434,85.7263,-28.493,136.769,-0.671387,-1.89209,-0.793457,0.106018,0.410553,0.546509,0.722107,323,57731,3613,2892,-30094
486,23705,4.51719,8.6707,0.636426,85.7263,-28.493,136.769,-0.549316,-1.95313,-0.671387,0.105988,0.410583,0.546539,0.722076,323,57731,3613,2892,-30094
492,23711,4.46455,8.61807,0.583789,85.7263,-28.493,136.769,-0.0610352,-2.44141,-0.732422,0.105957,0.410645,0.546539,0.722015,324,57730,3615,2892,-30094
498,23717,4.5124,8.67549,0.579004,85.7263,-28.493,136.769,0.427246,-2.74658,-0.305176,0.105927,0.410675,0.54657,0.721985,325,57731,3617,2892,-30094
504,23723,4.62725,8.7377,0.349316,85.7538,-28.5095,136.763,-0.549316,0.427246,1.09863,0.106354,0.405731,0.543732,0.726837,322,57765,3521,2892,-30094
510,23729,4.56982,8.71377,0.555078,85.7538,-28.515,136.763,-0.244141,-2.13623,-0.183105,0.105835,0.410706,0.54657,0.721985,322,57734,3616,2892,-30094
516,23735,4.53633,8.72334,0.531152,85.7538,-28.515,136.763,-0.244141,-1.70898,-0.305176,0.105804,0.410706,0.546539,0.722015,323,57735,3619,2892,-30094
522,23741,4.53154,8.72813,0.478516,85.7538,-28.515,136.763,-0.12207,-1.58691,-0.12207,0.105774,0.410706,0.546509,0.722046,325,57735,3621,2892,-30094
528,23747,4.55068,8.75684,0.459375,85.7538,-28.515,136.763,-0.12207,-1.77002,0.12207,0.105743,0.410675,0.546478,0.722076,324,57732,3624,2892,-30094
534,23753,4.56025,8.66113,0.483301,85.7153,-28.537,136.785,-2.44141,1.28174,1.70898,0.10672,0.406067,0.543854,0.726532,322,57764,3534,2892,-30094
540,23759,4.57461,8.77119,0.44502,85.7098,-28.5425,136.791,-0.854492,-0.854492,0.12207,0.105652,0.410675,0.546295,0.722229,328,57727,3631,2892,-30094
546,23765,4.55547,8.72813,0.502441,85.7098,-28.5425,136.791,-1.0376,-0.549316,0.305176,0.105591,0.410675,0.546265,0.72226,329,57726,3632,2892,-30094
552,23771,4.54111,8.69463,0.507227,85.7098,-28.5425,136.791,-1.0376,-0.488281,0.244141,0.10556,0.410706,0.546265,0.72226,328,57726,3633,2892,-30094
558,23777,4.51719,8.68027,0.531152,85.7098,-28.5425,136.791,-0.793457,-0.610352,0.12207,0.10553,0.410767,0.546295,0.722229,330,57726,3633,2892,-30094
564,23783,4.54111,8.82383,0.29668,85.7208,-28.5645,136.78,-1.09863,-1.15967,1.64795,0.106903,0.406219,0.543854,0.72641,327,57760,3543,2892,-30094
570,23789,4.58896,8.73291,0.435449,85.7208,-28.5754,136.774,-0.305176,-0.793457,0.244141,0.10553,0.41095,0.546204,0.722168,331,57721,3633,2892,-30094
576,23795,4.56982,8.77119,0.416309,85.7208,-28.5754,136.774,-0.549316,-0.732422,0.244141,0.10553,0.411011,0.546143,0.722168,334,57721,3634,2892,-30094
582,23801,4.56982,8.73291,0.488086,85.7208,-28.5754,136.774,-0.854492,-0.427246,0.0610352,0.10553,0.411011,0.546112,0.722198,335,57719,3634,2892,-30094
588,23807,4.55547,8.68984,0.574219,85.7208,-28.5754,136.774,-1.09863,-0.305176,0.183105,0.10553,0.411041,0.546082,0.722198,334,57717,3636,2892,-30094
594,23813,4.62246,8.84297,0.382813,85.7373,-28.5864,136.747,1.15967,-1.77002,0.427246,0.107056,0.406372,0.543884,0.726288,329,57755,3559,2892,-30094
600,23819,4.52676,8.68027,0.555078,85.7538,-28.5919,136.725,0.183105,-1.28174,0,0.105621,0.411316,0.546143,0.721985,339,57718,3635,2892,-30094
606,23825,4.53633,8.69941,0.516797,85.7538,-28.5919,136.725,0.244141,-1.40381,0.244141,0.105682,0.411469,0.546112,0.721924,339,57719,3631,2892,-30094
612,23831,4.56025,8.73291,0.550293,85.7538,-28.5919,136.725,0.0610352,-1.09863,0.12207,0.105743,0.41156,0.546021,0.721924,337,57722,3626,2892,-30094
618,23837,4.5459,8.7042,0.555078,85.7538,-28.5919,136.725,0.0610352,-0.976563,0.244141,0.105804,0.411621,0.545929,0.721954,339,57726,3623,2892,-30094
624,23843,4.7708,8.43623,0.569434,85.7318,-28.6194,136.692,-1.46484,1.89209,1.15967,0.107208,0.406616,0.544037,0.726013,328,57758,3551,2892,-30094
630,23849,4.53154,8.72813,0.483301,85.7318,-28.6194,136.697,0.610352,-1.15967,0.488281,0.105713,0.41156,0.545807,0.722076,342,57727,3623,2892,-30094
636,23855,4.5459,8.75205,0.45459,85.7318,-28.6194,136.697,0.427246,-1.2207,0.610352,0.105682,0.41156,0.545837,0.722076,345,57728,3626,2892,-30094
642,23861,4.58418,8.75684,0.47373,85.7318,-28.6194,136.697,0.183105,-1.0376,0.488281,0.105652,0.411591,0.545837,0.722046,346,57728,3628,2892,-30094
648,23867,4.59375,8.72813,0.46416,85.7318,-28.6194,136.697,-0.183105,-0.793457,0.427246,0.105682,0.411621,0.545776,0.722076,347,57727,3631,2892,-30094
654,23873,4.95742,8.93389,0.062207,85.6659,-28.6249,136.73,-6.89697,5.7373,0.732422,0.107269,0.40686,0.544189,0.725739,324,57754,3548,2892,-30094
660,23879,4.52197,8.69463,0.488086,85.611,-28.6249,136.763,0,-0.488281,0.488281,0.105682,0.411133,0.545288,0.722717,354,57727,3642,2892,-30094
666,23885,4.49805,8.69463,0.569434,85.611,-28.6249,136.763,-0.183105,-0.488281,0.610352,0.105621,0.410889,0.545105,0.723022,351,57727,3642,2892,-30094
672,23891,4.52676,8.66113,0.598145,85.611,-28.6249,136.763,0,-0.610352,0.793457,0.105591,0.410645,0.544891,0.723328,349,57727,3641,2892,-30094
678,23897,4.5124,8.61328,0.588574,85.611,-28.6249,136.763,0.488281,-0.793457,0.793457,0.105591,0.410492,0.544708,0.723541,350,57728,3638,2892,-30094
684,23903,4.4502,8.41709,0.846973,85.3967,-28.6194,136.901,-4.88281,2.92969,0.854492,0.107239,0.407074,0.544342,0.725494,320,57754,3543,2892,-30094
690,23909,4.53633,8.75684,0.478516,85.3802,-28.6194,136.912,1.0376,-1.0376,0.854492,0.105621,0.410217,0.544342,0.723969,354,57725,3628,2892,-30094
696,23915,4.5459,8.73291,0.449805,85.3802,-28.6194,136.912,0.854492,-1.0376,0.976563,0.105621,0.410187,0.544281,0.72403,357,57725,3627,2892,-30094
702,23921,4.54111,8.72334,0.492871,85.3802,-28.6194,136.912,0.793457,-0.732422,1.0376,0.105621,0.410126,0.54425,0.724091,358,57725,3626,2892,-30094
708,23927,4.56025,8.72813,0.488086,85.3802,-28.6194,136.912,0.854492,-0.610352,0.976563,0.105621,0.410126,0.54422,0.724121,355,57724,3622,2892,-30094
714,23933,4.53154,8.50322,0.698633,85.3528,-28.6194,136.923,-0.488281,0.12207,0.488281,0.107117,0.407379,0.544586,0.725159,316,57751,3551,2892,-30094
720,23939,3.91426,8.4458,0.449805,85.3583,-28.6194,136.923,2.50244,-3.78418,0.732422,0.105652,0.410126,0.54425,0.724091,356,57729,3615,2892,-30094
726,23945,4.60811,8.73291,0.579004,85.3583,-28.6194,136.923,2.31934,-3.05176,1.89209,0.105652,0.410156,0.544312,0.72403,357,57729,3617,2892,-30094
732,23951,4.72295,8.75684,0.488086,85.3583,-28.6194,136.923,2.86865,-3.17383,1.40381,0.105621,0.410217,0.544342,0.723969,358,57729,3620,2892,-30094
738,23957,4.57939,8.7042,0.382813,85.3583,-28.6194,136.923,2.13623,-1.40381,1.64795,0.105621,0.410248,0.544403,0.723938,312,57729,3625,2892,-30094
744,23963,4.61768,8.65635,0.478516,85.3967,-28.6194,136.906,0.366211,0.305176,0.793457,0.105591,0.410248,0.544434,0.723907,326,57744,3544,2892,-30094
750,23969,4.53633,8.65156,0.440234,85.4022,-28.6249,136.912,1.34277,-0.671387,1.46484,0.10553,0.410278,0.544495,0.723846,331,57727,3628,2892,-30094
756,23975,4.45498,8.65635,0.397168,85.4022,-28.6249,136.912,1.95313,-2.0752,1.28174,0.105469,0.410248,0.544525,0.723846,336,57728,3626,2892,-30094
762,23981,4.53633,8.68027,0.459375,85.4022,-28.6249,136.912,1.77002,-1.95313,1.95313,0.105438,0.410278,0.544556,0.723816,339,57728,3626,2892,-30094
768,23987,4.65596,8.71855,0.45459,85.4022,-28.6249,136.912,2.01416,-2.01416,1.70898,0.105377,0.410309,0.544617,0.723755,340,57728,3628,2892,-30094
774,23993,4.69902,8.74248,0.210547,85.4407,-28.6359,136.912,0.671387,0.12207,1.15967,0.105316,0.410339,0.544647,0.723724,319,57753,3563,2892,-30094
780,23999,4.46455,8.65635,0.387598,85.4407,-28.6414,136.917,1.15967,-1.28174,1.70898,0.105225,0.41037,0.544708,0.723694,258,57730,3632,2892,-30094
786,24005,4.64639,8.68027,0.416309,85.4407,-28.6414,136.917,1.64795,-1.77002,1.28174,0.105194,0.410339,0.544678,0.723724,270,57730,3630,2892,-30094
792,24011,4.62725,8.68506,0.349316,85.4407,-28.6414,136.917,1.95313,-1.77002,1.28174,0.105133,0.410278,0.544647,0.723785,281,57732,3629,2892,-30094
798,24017,4.56982,8.77598,0.272754,85.4407,-28.6414,136.917,1.89209,-2.44141,0.976563,0.105072,0.410217,0.544617,0.723846,292,57733,3629,2892,-30094
804,24023,4.57939,8.69941,0.344531,85.4132,-28.6523,136.961,-0.671387,1.58691,0.915527,0.105011,0.410187,0.544617,0.723846,332,57742,3572,2892,-30094
810,24029,4.63682,8.71377,0.47373,85.4077,-28.6523,136.967,0.366211,-0.610352,1.15967,0.10495,0.410156,0.544617,0.723877,311,57737,3629,2892,-30094
816,24035,4.57939,8.64678,0.502441,85.4077,-28.6523,136.967,0.671387,-0.488281,0.976563,0.10495,0.410187,0.544617,0.723877,318,57738,3630,2892,-30094
822,24041,4.44541,8.65156,0.47373,85.4077,-28.6523,136.967,1.2207,-1.15967,0.854492,0.10495,0.410217,0.544586,0.723877,324,57739,3629,2892,-30094
828,24047,4.3832,8.64678,0.425879,85.4077,-28.6523,136.967,1.58691,-2.01416,1.09863,0.10498,0.410278,0.544617,0.723846,327,57739,3629,2892,-30094
834,24053,4.45498,8.42666,0.645996,85.4626,-28.6688,136.917,2.99072,-3.479,0.732422,0.10495,0.41037,0.544647,0.723755,329,57737,3584,2892,-30094
840,24059,4.68467,8.73291,0.368457,85.5011,-28.6688,136.89,1.52588,-1.09863,1.2207,0.105042,0.410675,0.544861,0.723389,340,57737,3633,2892,-30094
846,24065,4.61768,8.74248,0.373242,85.5011,-28.6688,136.89,1.15967,-0.610352,0.915527,0.105103,0.410919,0.545013,0.723145,342,57735,3629,2892,-30094
852,24071,4.56982,8.70898,0.354102,85.5011,-28.6688,136.89,1.15967,-0.671387,0.915527,0.105225,0.411163,0.545166,0.72287,344,57733,3623,2892,-30094
858,24077,4.5459,8.69463,0.363672,85.5011,-28.6688,136.89,1.15967,-1.0376,1.0376,0.105347,0.411377,0.545288,0.722656,348,57733,3619,2892,-30094
864,24083,4.65117,8.72334,0.387598,85.6989,-28.6578,136.697,1.28174,-5.00488,-0.305176,0.105469,0.411591,0.54541,0.722412,330,57729,3599,2892,-30094
870,24089,4.64639,8.72334,0.488086,85.7153,-28.6523,136.67,1.64795,-2.01416,1.46484,0.105713,0.411865,0.545471,0.722168,320,57729,3626,2892,-30094
876,24095,4.73252,8.72334,0.401953,85.7153,-28.6523,136.67,1.77002,-1.77002,1.09863,0.105865,0.411987,0.545563,0.722015,328,57727,3630,2892,-30094
882,24101,4.69424,8.74727,0.267969,85.7153,-28.6523,136.67,1.46484,-0.244141,1.09863,0.106018,0.41214,0.545624,0.721863,332,57725,3628,2892,-30094
888,24107,4.61768,8.7999,0.287109,85.7153,-28.6523,136.67,1.0376,0.244141,1.0376,0.106232,0.412354,0.545807,0.721558,335,57724,3628,2892,-30094
894,24113,4.65117,8.75205,-0.0239258,85.9845,-28.6029,136.401,9.27734,-14.6484,-3.11279,0.106445,0.412689,0.546082,0.72113,322,57733,3600,2892,-30094
900,24119,4.57461,8.72813,0.339746,86.0724,-28.5919,136.313,0.244141,0.0610352,1.34277,0.107056,0.413574,0.546661,0.720093,338,57718,3627,2892,-30094
906,24125,4.61768,8.72334,0.31582,86.0724,-28.5919,136.313,0.183105,0.183105,1.28174,0.107391,0.41391,0.546844,0.719696,337,57715,3628,2892,-30094
912,24131,4.6416,8.74248,0.282324,86.0724,-28.5919,136.313,0.0610352,0.549316,1.15967,0.107666,0.414093,0.546875,0.719543,336,57714,3627,2892,-30094
918,24137,4.60811,8.75684,0.277539,86.0724,-28.5919,136.313,-0.183105,0.854492,1.09863,0.107941,0.414093,0.546753,0.719604,336,57715,3628,2892,-30094
924,24143,4.39277,8.81426,0.708203,86.0614,-28.5205,136.203,-8.11768,5.12695,-2.13623,0.108124,0.41394,0.546631,0.719757,325,57730,3611,2892,-30094
930,24149,4.56025,8.64199,0.46416,86.0229,-28.504,136.219,-0.427246,0.854492,1.34277,0.108337,0.413544,0.546326,0.720184,332,57715,3633,2892,-30094
936,24155,4.53633,8.63242,0.492871,86.0229,-28.504,136.219,-0.366211,0.732422,1.2207,0.10849,0.413513,0.546265,0.720215,330,57715,3639,2892,-30094
942,24161,4.52197,8.64678,0.47373,86.0229,-28.504,136.219,0.183105,0.366211,1.09863,0.108643,0.413605,0.546326,0.720093,328,57714,3644,2892,-30094
948,24167,4.52676,8.65156,0.373242,86.0229,-28.504,136.219,0.488281,-0.12207,1.15967,0.108826,0.413757,0.546417,0.71991,324,57713,3647,2892,-30094
954,24173,5.1584,9.45547,-0.641211,86.0779,-28.4546,136.093,-4.3335,-2.0752,-2.2583,0.109039,0.41391,0.546478,0.719727,324,57730,3615,2892,-30094
960,24179,4.6416,8.75205,0.325391,86.0284,-28.4381,136.104,-0.183105,0.12207,1.15967,0.109406,0.413727,0.546204,0.720001,319,57713,3653,2892,-30094
966,24185,4.62725,8.7377,0.349316,86.0284,-28.4381,136.104,-0.549316,0.427246,1.09863,0.109558,0.413391,0.545898,0.720398,316,57713,3651,2892,-30094
972,24191,4.59375,8.70898,0.354102,86.0284,-28.4381,136.104,-0.793457,0.854492,1.0376,0.10968,0.413025,0.545593,0.720825,313,57715,3647,2892,-30094
978,24197,4.56982,8.7377,0.354102,86.0284,-28.4381,136.104,-0.976563,1.09863,1.40381,0.109802,0.41272,0.545349,0.721161,312,57716,3646,2892,-30094
984,24203,4.13916,8.27832,0.712988,85.7648,-28.3612,136.214,-3.11279,-2.31934,-2.56348,0.109985,0.412567,0.545227,0.721313,325,57735,3621,2892,-30094
990,24209,4.55068,8.75205,0.406738,85.7758,-28.3502,136.181,-2.31934,1.46484,1.83105,0.110382,0.412628,0.545227,0.721222,305,57717,3641,2892,-30094
996,24215,4.56025,8.66113,0.483301,85.7758,-28.3502,136.181,-2.44141,1.28174,1.70898,0.110626,0.412689,0.545197,0.721161,303,57717,3640,2892,-30094
1002,24221,4.57461,8.56065,0.574219,85.7758,-28.3502,136.181,-1.83105,1.2207,1.64795,0.110901,0.41272,0.545135,0.721161,302,57717,3639,2892,-30094
1008,24227,4.54111,8.55586,0.540723,85.7758,-28.3502,136.181,-0.976563,0.854492,1.52588,0.111145,0.412689,0.545074,0.721191,299,57717,3639,2892,-30094
1014,24233,4.37842,8.7377,0.512012,85.7758,-28.3502,136.181,-5.43213,-2.0752,-4.5166,0.11142,0.412598,0.545074,0.721222,328,57726,3633,2892,-30094
1020,24239,4.49805,8.8334,0.29668,85.7208,-28.2294,136.071,-0.305176,-0.549316,1.64795,0.112,0.412506,0.544922,0.721283,293,57720,3639,2892,-30094
1026,24245,4.54111,8.82383,0.29668,85.7208,-28.2294,136.071,-1.09863,-1.15967,1.64795,0.112305,0.412506,0.544891,0.721252,291,57721,3639,2892,-30094
1032,24251,4.67031,8.68027,0.239258,85.7208,-28.2294,136.071,-1.34277,-1.09863,1.83105,0.11261,0.412628,0.544891,0.72113,290,57721,3637,2892,-30094
1038,24257,4.69902,8.62285,0.387598,85.7208,-28.2294,136.071,-1.64795,-0.427246,1.40381,0.112915,0.412781,0.545013,0.720917,291,57721,3637,2892,-30094
1044,24263,4.65596,9.1875,-0.234473,85.7208,-28.2294,136.071,-0.854492,-7.56836,-3.90625,0.11322,0.412964,0.545135,0.720673,335,57719,3634,2892,-30094
1050,24269,4.49326,8.53672,0.435449,85.8197,-28.114,135.829,-0.12207,-0.793457,1.09863,0.113831,0.413147,0.545105,0.72049,286,57723,3630,2892,-30094
1056,24275,4.62246,8.84297,0.382813,85.8197,-28.114,135.829,1.15967,-1.77002,0.427246,0.114105,0.413086,0.544983,0.720581,285,57726,3625,2892,-30094
1062,24281,4.43584,8.80947,0,85.8197,-28.114,135.829,0.549316,-3.66211,1.15967,0.11438,0.412964,0.54483,0.720734,283,57727,3622,2892,-30094
1068,24287,4.40234,8.97695,0.100488,85.8197,-28.114,135.829,-1.58691,-3.2959,1.58691,0.114594,0.412781,0.544708,0.720886,280,57728,3619,2892,-30094
1074,24293,4.18701,8.64199,0.483301,85.8197,-28.114,135.829,-5.92041,-0.793457,-4.21143,0.114838,0.412659,0.544617,0.720978,337,57722,3626,2892,-30094
1080,24299,4.87607,8.43623,0.559863,85.6714,-27.9877,135.797,-3.11279,1.2207,1.77002,0.115326,0.412506,0.544495,0.721069,269,57729,3613,2892,-30094
1086,24305,4.7708,8.43623,0.569434,85.6714,-27.9877,135.797,-1.46484,1.89209,1.15967,0.115631,0.412506,0.544464,0.721039,263,57729,3609,2892,-30094
1092,24311,4.62725,8.54629,0.358887,85.6714,-27.9877,135.797,-0.0610352,1.70898,0.854492,0.115906,0.412506,0.544403,0.721039,261,57731,3602,2892,-30094
1098,24317,4.58418,8.7377,0.0478516,85.6714,-27.9877,135.797,0.488281,0.732422,0.793457,0.11618,0.412476,0.544342,0.721069,259,57733,3594,2892,-30094
1104,24323,4.52676,8.66592,0.430664,85.6714,-27.9877,135.797,-5.49316,-2.31934,-4.21143,0.116455,0.412384,0.544312,0.7211,346,57728,3628,2892,-30094
1110,24329,5.00049,8.95781,-0.0861328,85.611,-27.8613,135.687,-4.76074,2.62451,0.732422,0.117004,0.412262,0.544189,0.721161,245,57738,3570,2892,-30094
1116,24335,4.95742,8.93389,0.062207,85.611,-27.8613,135.687,-6.89697,5.7373,0.732422,0.11734,0.412231,0.544189,0.721161,240,57740,3569,2892,-30094
1122,24341,4.7373,8.81426,0.200977,85.611,-27.8613,135.687,-7.87354,7.38525,0.244141,0.117645,0.412231,0.544098,0.72113,235,57741,3571,2892,-30094
1128,24347,4.5124,8.70898,0.373242,85.611,-27.8613,135.687,-8.54492,8.42285,0.732422,0.118011,0.412231,0.544128,0.721069,230,57741,3573,2892,-30094
1134,24353,4.71816,8.87168,0.512012,85.611,-27.8613,135.687,-1.58691,-7.14111,-5.61523,0.118347,0.412323,0.544128,0.720978,349,57727,3641,2892,-30094
1140,24359,4.36406,8.41709,0.76084,85.6384,-27.7075,135.489,-6.04248,3.96729,0.793457,0.119019,0.412445,0.54422,0.720703,216,57749,3573,2892,-30094
1146,24365,4.4502,8.41709,0.846973,85.6384,-27.7075,135.489,-4.88281,2.92969,0.854492,0.119385,0.412506,0.54422,0.720612,209,57751,3571,2892,-30094
1152,24371,4.47412,8.45537,0.823047,85.6384,-27.7075,135.489,-3.72314,2.19727,0.610352,0.119812,0.412506,0.54422,0.720551,203,57754,3567,2892,-30094
1158,24377,4.47891,8.51758,0.765625,85.6384,-27.7075,135.489,-2.92969,1.83105,0.671387,0.120178,0.412506,0.544159,0.72052,200,57755,3565,2892,-30094
1164,24383,4.53633,9.23057,0.0669922,85.6384,-27.7075,135.489,-8.60596,-0.427246,-6.10352,0.120514,0.412415,0.544067,0.720612,358,57725,3626,2892,-30094
1170,24389,4.47412,8.54629,0.703418,85.5396,-27.5262,135.368,-1.15967,0.488281,0.488281,0.121246,0.411987,0.543823,0.720886,232,57755,3565,2892,-30094
1176,24395,4.53154,8.50322,0.698633,85.5396,-27.5262,135.368,-0.488281,0.12207,0.488281,0.121643,0.411835,0.543671,0.721039,226,57756,3567,2892,-30094
1182,24401,4.55547,8.52236,0.598145,85.5396,-27.5262,135.368,0.183105,-0.305176,0.366211,0.12207,0.411621,0.543549,0.721161,269,57756,3566,2892,-30094
1188,24407,4.55068,8.575,0.531152,85.5396,-27.5262,135.368,0.671387,-0.549316,0.305176,0.122406,0.411407,0.543518,0.721283,306,57757,3561,2892,-30094
1194,24413,4.31143,8.86689,0.416309,85.3857,-27.3285,135.324,-7.75146,-1.2207,-8.42285,0.122803,0.411194,0.543488,0.721344,358,57729,3620,2892,-30094
1200,24419,4.59375,8.68984,0.411523,85.3583,-27.2845,135.302,0.549316,-0.183105,0.610352,0.123718,0.410858,0.543335,0.721497,395,57761,3554,2892,-30094
1206,24425,4.61768,8.65635,0.478516,85.3583,-27.2845,135.302,0.366211,0.305176,0.793457,0.124176,0.410767,0.543243,0.721527,417,57762,3546,2892,-30094
1212,24431,4.57939,8.63242,0.507227,85.3583,-27.2845,135.302,0.183105,0.671387,0.671387,0.124695,0.410706,0.543243,0.721497,436,57764,3537,2892,-30094
1218,24437,4.56025,8.59893,0.545508,85.3583,-27.2845,135.302,0.427246,0.915527,0.793457,0.125214,0.410706,0.543243,0.721375,453,57766,3531,2892,-30094
1224,24443,4.6416,9.05352,-0.215332,85.3583,-27.2845,135.302,-7.14111,-8.66699,-10.0708,0.125732,0.410706,0.543274,0.721283,339,57728,3626,2892,-30094
1230,24449,4.63682,8.65156,0.272754,85.3363,-27.0264,135.033,0.732422,-0.0610352,1.28174,0.127014,0.410736,0.543182,0.72113,493,57769,3511,2892,-30094
1236,24455,4.69902,8.74248,0.210547,85.3363,-27.0264,135.033,0.671387,0.12207,1.15967,0.127716,0.410767,0.543152,0.720978,503,57771,3508,2892,-30094
1242,24461,4.72295,8.7999,0.277539,85.3363,-27.0264,135.033,-0.0610352,0.793457,1.0376,0.128418,0.410828,0.543091,0.720886,513,57774,3504,2892,-30094
1248,24467,4.68945,8.76641,0.349316,85.3363,-27.0264,135.033,-1.15967,1.58691,1.15967,0.129211,0.41098,0.54303,0.720703,517,57774,3503,2892,-30094
1254,24473,4.75645,8.64199,0.890039,85.3363,-27.0264,135.033,-3.72314,-14.7095,-14.2212,0.130096,0.411072,0.543091,0.720428,281,57732,3629,2892,-30094
1260,24479,4.59375,8.61807,0.349316,85.4681,-26.6638,134.528,-0.793457,1.83105,0.976563,0.131866,0.411407,0.543488,0.719604,524,57782,3507,2892,-30094
1266,24485,4.57939,8.69941,0.344531,85.4681,-26.6638,134.528,-0.671387,1.58691,0.915527,0.132721,0.41156,0.543854,0.719086,521,57785,3503,2892,-30094
1272,24491,4.50283,8.75205,0.421094,85.4681,-26.6638,134.528,-0.793457,0.976563,0.915527,0.133789,0.411957,0.544281,0.718353,516,57788,3501,2892,-30094
1278,24497,4.42627,8.61807,0.47373,85.4681,-26.6638,134.528,-0.976563,-0.366211,1.09863,0.135284,0.412292,0.544647,0.717621,513,57790,3498,2892,-30094
1284,24503,5.47422,9.74258,-0.813477,85.4681,-26.6638,134.528,-15.9302,-13.4277,-27.2217,0.136719,0.412292,0.544647,0.717346,324,57739,3629,2892,-30094
1290,24509,4.48848,8.4458,0.794336,85.6384,-26.0101,133.797,1.40381,-1.77002,0.976563,0.139679,0.411652,0.544403,0.717346,493,57792,3490,2892,-30094
1296,24515,4.45498,8.42666,0.645996,85.6384,-26.0101,133.797,2.99072,-3.479,0.732422,0.141327,0.411438,0.544189,0.717285,485,57793,3486,2892,-30094
1302,24521,4.46455,8.49844,0.46416,85.6384,-26.0101,133.797,3.90625,-5.12695,0.183105,0.143341,0.411377,0.54422,0.716888,478,57793,3482,2892,-30094
1308,24527,4.56982,8.58936,0.334961,85.6384,-26.0101,133.797,4.63867,-6.7749,-0.0610352,0.145386,0.411072,0.544495,0.716461,519,57790,3475,2892,-30094
1314,24533,6.4791,8.86211,-0.0239258,85.6384,-26.0101,133.797,2.0752,13.7939,-56.0303,0.147095,0.410156,0.545349,0.715973,344,57733,3623,2892,-30094
1320,24539,4.66074,8.82383,0.220117,85.611,-24.7083,133.423,3.11279,-6.34766,-0.732422,0.14975,0.406586,0.547638,0.715729,602,57787,3462,2892,-30094
1326,24545,4.65117,8.72334,0.387598,85.611,-24.7083,133.423,1.28174,-5.00488,-0.305176,0.151398,0.404877,0.548615,0.715576,617,57787,3460,2892,-30094
1332,24551,4.49326,8.53193,0.598145,85.611,-24.7083,133.423,0.244141,-4.63867,-0.671387,0.153381,0.403503,0.549469,0.715271,627,57788,3457,2892,-30094
1338,24557,4.57461,8.40273,0.765625,85.611,-24.7083,133.423,1.28174,-5.06592,-1.2207,0.155518,0.402313,0.550354,0.714813,634,57791,3456,2892,-30094
1344,24563,5.15361,9.34062,0.995313,85.611,-24.7083,133.423,1.2207,-13.1836,-67.749,0.157776,0.401215,0.551361,0.714142,332,57725,3628,2892,-30094
1350,24569,4.46934,8.39795,0.334961,85.7318,-22.868,133.044,7.87354,-12.0239,-2.86865,0.162445,0.398865,0.55368,0.712616,722,57794,3455,2892,-30094
1356,24575,4.65117,8.75205,-0.0239258,85.7318,-22.868,133.044,9.27734,-14.6484,-3.11279,0.164795,0.397461,0.554962,0.711884,754,57793,3456,2892,-30094
1362,24581,4.90957,9.06787,-0.488086,85.7318,-22.868,133.044,8.48389,-15.2588,-3.2959,0.167236,0.395874,0.556274,0.711182,781,57792,3456,2892,-30094
1368,24587,5.1584,9.42676,-0.598145,85.7318,-22.868,133.044,5.06592,-12.6953,-3.05176,0.169739,0.394135,0.557556,0.710541,797,57789,3453,2892,-30094
1374,24593,4.87607,9.98184,0,85.7318,-22.868,133.044,-7.50732,-0.610352,-84.6558,0.172333,0.392303,0.558716,0.709991,336,57714,3627,2892,-30094
1380,24599,4.86172,8.99609,0.186621,85.7813,-20.5609,132.72,-7.14111,2.31934,-3.41797,0.177734,0.388306,0.561005,0.709076,947,57784,3445,2892,-30094
1386,24605,4.39277,8.81426,0.708203,85.7813,-20.5609,132.72,-8.11768,5.12695,-2.13623,0.180542,0.386261,0.562164,0.708557,974,57781,3440,2892,-30094
1392,24611,4.22529,8.60371,0.923535,85.7813,-20.5609,132.72,-6.5918,3.11279,-2.01416,0.183502,0.384308,0.563385,0.707886,995,57778,3435,2901,-30095
1398,24617,4.14395,8.28311,0.6125,85.7813,-20.5609,132.72,-3.90625,-0.610352,-1.64795,0.186646,0.382446,0.564667,0.707062,1060,57777,3430,2901,-30095
1404,24623,4.58896,9.80479,0.942676,86.0284,-28.4875,136.181,-1.64795,-14.5264,-100.891,0.18988,0.380646,0.56604,0.706085,328,57714,3644,2892,-30094
1410,24629,4.99092,9.31191,-0.512012,85.8746,-17.8528,132.138,0.854492,-5.85938,-2.50244,0.196655,0.376801,0.569,0.703888,1181,57768,3417,2901,-30095
1416,24635,5.1584,9.45547,-0.641211,85.8746,-17.8528,132.138,-4.3335,-2.0752,-2.2583,0.200195,0.374756,0.570648,0.702667,1254,57765,3415,2901,-30095
1422,24641,5.19189,9.37412,-0.320605,85.8746,-17.8528,132.138,-9.58252,3.05176,-2.50244,0.203949,0.372803,0.572266,0.701294,1317,57762,3414,2901,-30095
1428,24647,4.90479,9.02002,0.224902,85.8746,-17.8528,132.138,-13.2446,7.62939,-2.38037,0.207916,0.370941,0.573944,0.699768,1365,57756,3414,2901,-30095
1434,24653,4.56025,10.8527,-0.00478516,85.8691,-28.4052,136.187,0.671387,-32.959,-122.009,0.212189,0.36911,0.57547,0.698181,313,57715,3647,2892,-30094
1440,24659,4.02432,8.09648,0.961816,86.2317,-14.5789,131.006,-7.08008,2.13623,-2.56348,0.221252,0.365356,0.578522,0.694794,1534,57734,3409,2901,-30095
1446,24665,4.13916,8.27832,0.712988,86.2317,-14.5789,131.006,-3.11279,-2.31934,-2.56348,0.226013,0.363342,0.580078,0.693024,1578,57767,3405,2901,-30095
1452,24671,4.44063,8.63242,0.478516,86.2317,-14.5789,131.006,-1.64795,-4.63867,-2.62451,0.230988,0.361115,0.581604,0.691284,1614,57795,3398,2901,-30095
1458,24677,4.69424,8.82383,0.45459,86.2317,-14.5789,131.006,-2.99072,-4.57764,-2.92969,0.236084,0.358826,0.583221,0.689392,1689,57818,3392,2901,-30095
1464,24683,5.13926,10.8145,-0.559863,85.7703,-28.3173,136.132,-10.0098,-41.748,-156.555,0.241608,0.356354,0.584686,0.6875,302,57717,3639,2892,-30094
1470,24689,4.61768,8.73291,0.363672,86.347,-10.481,129.452,-4.57764,-1.40381,-4.76074,0.253479,0.351105,0.587708,0.68335,1910,57863,3377,2901,-30095
1476,24695,4.37842,8.7377,0.512012,86.347,-10.481,129.452,-5.43213,-2.0752,-4.5166,0.259888,0.348328,0.589264,0.68103,1967,57871,3370,2901,-30095
1482,24701,4.34014,8.575,0.689063,86.347,-10.481,129.452,-5.7373,-3.17383,-4.39453,0.266571,0.345306,0.59079,0.678619,2064,57877,3363,2901,-30095
1488,24707,4.321,8.46016,0.875684,86.347,-10.481,129.452,-4.27246,-4.57764,-4.27246,0.27356,0.342133,0.592377,0.676086,2138,57879,3356,2901,-30095
1494,24713,4.44063,10.4508,-0.689063,85.7318,-28.1909,136.005,-15.8081,-56.7017,-205.994,0.28067,0.338837,0.594025,0.67337,290,57721,3637,2901,-30095
1500,24719,4.53633,8.89561,-0.0526367,86.2097,-5.13062,127.392,1.46484,-8.72803,-4.3335,0.295746,0.331757,0.597473,0.667358,2432,57979,3320,2901,-30095
1506,24725,4.65596,9.1875,-0.234473,86.2097,-5.13062,127.392,-0.854492,-7.56836,-3.90625,0.303436,0.328003,0.599457,0.663971,2516,57997,3305,2901,-30095
1512,24731,4.76602,9.21621,-0.090918,86.2097,-5.13062,127.392,-4.5166,-5.18799,-3.54004,0.311584,0.324463,0.601501,0.660065,2637,58010,3293,2901,-30095
1518,24737,4.78994,8.97217,0.110059,86.2097,-5.13062,127.392,-7.50732,-2.13623,-3.78418,0.320129,0.321045,0.603271,0.656036,2732,58020,3279,2901,-30095
1524,24743,3.59844,13.9487,-2.46914,85.7593,-28.0756,135.813,-7.50732,-2.13623,-3.78418,0.328949,0.317749,0.60495,0.651703,283,57727,3622,2901,-30095
1530,24749,4.36406,8.59893,0.421094,86.0834,1.29089,124.442,-6.5918,0.183105,-4.27246,0.347351,0.31076,0.607666,0.642975,3064,58124,3222,2901,-30095
1536,24755,4.18701,8.64199,0.483301,86.0834,1.29089,124.442,-5.92041,-0.793457,-4.21143,0.356781,0.306427,0.608734,0.638855,3206,58182,3200,2901,-30095
1542,24761,4.32578,8.6085,0.421094,86.0834,1.29089,124.442,-5.18799,-3.05176,-3.78418,0.36615,0.301331,0.609558,0.635193,3326,58230,3179,2901,-30095
1548,24767,4.4502,8.69463,0.320605,86.0834,1.29089,124.442,-4.15039,-3.84521,-4.82178,0.375214,0.295502,0.610291,0.631927,3468,58264,3154,2901,-30095
1554,24773,2.0624,15.1833,-3.47881,85.6604,-27.9492,135.747,-68.1152,-46.7529,-269.592,0.383911,0.289154,0.611115,0.628815,261,57731,3602,2892,-30094
1560,24779,4.74209,8.79512,0.60293,84.3091,8.53088,121.921,-5.18799,-2.01416,-5.00488,0.402466,0.276611,0.611908,0.62207,3829,58420,3063,2901,-30095
1566,24785,4.52676,8.66592,0.430664,84.3091,8.53088,121.921,-5.49316,-2.31934,-4.21143,0.411987,0.270752,0.611877,0.618408,3961,58489,3027,2901,-30095
1572,24791,4.42148,8.66113,0.555078,84.3091,8.53088,121.921,-5.00488,-2.62451,-4.21143,0.421143,0.264343,0.611877,0.615021,4071,58546,2991,2901,-30095
1578,24797,4.5459,8.88125,0.559863,84.3091,8.53088,121.921,-4.82178,-3.84521,-6.04248,0.430023,0.256897,0.611969,0.611938,4205,58592,2955,2901,-30095
1584,24803,2.63662,10.4938,-2.3543,85.5945,-27.8064,135.637,-94.5435,-16.8457,-293.579,0.43869,0.248627,0.612213,0.608917,235,57741,3571,2892,-30094
1590,24809,4.4502,8.59414,0.531152,81.5295,16.2213,119.636,-3.17383,-6.65283,-4.82178,0.456573,0.232574,0.612518,0.601807,4637,58802,2840,2901,-30095
1596,24815,4.71816,8.87168,0.512012,81.5295,16.2213,119.636,-1.58691,-7.14111,-5.61523,0.465729,0.225342,0.612915,0.597107,4761,58866,2801,2901,-30095
1602,24821,4.46455,8.86689,0.124414,81.5295,16.2213,119.636,-1.89209,-7.44629,-5.12695,0.475189,0.218292,0.61319,0.59198,4865,58918,2763,2901,-30095
1608,24827,4.61768,9.03916,-0.00478516,81.5295,16.2213,119.636,-3.2959,-7.01904,-5.5542,0.484833,0.210663,0.612915,0.587158,4996,58992,2722,2901,-30095
1614,24833,0.349316,8.87168,-5.4168,85.6494,-27.6526,135.417,-112.427,0.793457,-301.514,0.494354,0.202362,0.61203,0.583069,203,57754,3567,2892,-30094
1620,24839,4.82822,9.0583,-0.0143555,78.327,24.3457,116.9,-7.32422,-2.2583,-5.67627,0.51001,0.183655,0.611633,0.576172,5387,59261,2589,2909,-30096
1626,24845,4.53633,9.23057,0.0669922,78.327,24.3457,116.9,-8.60596,-0.427246,-6.10352,0.517853,0.175446,0.610504,0.572906,5517,59333,2544,2909,-30096
1632,24851,4.61768,9.27363,0.205762,78.327,24.3457,116.9,-10.498,-0.366211,-7.99561,0.52652,0.168762,0.608032,0.569641,5628,59432,2501,2909,-30096
1638,24857,4.76123,8.77598,0.301465,78.327,24.3457,116.9,-10.6201,-1.83105,-6.5918,0.536011,0.163666,0.604065,0.566467,5768,59508,2453,2909,-30096
1644,24863,1.16758,6.55088,0.952246,85.4681,-27.4493,135.346,-124.695,-158.203,-213.196,0.545929,0.159637,0.599091,0.563446,269,57756,3566,2892,-30094
1650,24869,4.29707,8.85732,0.354102,72.4768,29.6136,111.16,-7.50732,-0.488281,-8.78906,0.565369,0.152985,0.587952,0.557831,6105,59820,2285,2909,-30096
1656,24875,4.31143,8.86689,0.416309,72.4768,29.6136,111.16,-7.75146,-1.2207,-8.42285,0.573822,0.15036,0.581604,0.556519,6210,59900,2221,2909,-30096
1662,24881,4.40234,8.75684,0.124414,72.4768,29.6136,111.16,-8.8501,-3.11279,-8.8501,0.578003,0.149017,0.57785,0.556519,6299,60010,2155,2909,-30096
1668,24887,4.48369,8.84297,0.392383,72.4768,29.6136,111.16,-7.69043,-3.479,-8.05664,0.579132,0.14978,0.576843,0.556183,6425,60100,2084,2909,-30096
1674,24893,2.41172,3.34004,-0.0334961,85.3363,-27.2021,135.236,79.1626,-58.6548,31.189,0.579376,0.153107,0.576904,0.554901,436,57764,3537,2892,-30094
1680,24899,4.30664,9.04395,0.186621,71.3342,28.938,108.479,-4.82178,-7.14111,-9.27734,0.577881,0.165192,0.576782,0.553162,6713,60373,1872,2909,-30096
1686,24905,4.6416,9.05352,-0.215332,71.3342,28.938,108.479,-7.14111,-8.66699,-10.0708,0.575684,0.171753,0.575439,0.55484,6789,60457,1811,2909,-30096
1692,24911,4.61289,9.16836,0.0574219,71.3342,28.938,108.479,-7.14111,-7.93457,-9.8877,0.572357,0.17746,0.574097,0.557892,6858,60493,1754,2909,-30096
1698,24917,4.321,8.98174,0.162695,71.3342,28.938,108.479,-6.65283,-10.1318,-11.5967,0.567688,0.182831,0.573395,0.561615,6921,60528,1702,2909,-30096
1704,24923,7.59404,2.82324,1.92363,85.3363,-26.9275,134.901,44.7998,40.2832,160.828,0.562134,0.188141,0.573425,0.56543,513,57774,3504,2909,-30096
1710,24929,4.48369,8.95303,0.6125,73.5205,23.8843,110.193,-5.06592,-14.7705,-14.5264,0.549988,0.199036,0.575073,0.571899,7041,60608,1566,2909,-30096
1716,24935,4.75645,8.64199,0.890039,73.5205,23.8843,110.193,-3.72314,-14.7095,-14.2212,0.543396,0.204498,0.576538,0.574799,7049,60617,1530,2909,-30096
1722,24941,4.65596,8.53672,0.492871,73.5205,23.8843,110.193,2.01416,-18.3716,-17.7002,0.536377,0.209778,0.578308,0.577698,7062,60637,1497,2909,-30096
1728,24947,4.48848,8.99131,0.559863,73.5205,23.8843,110.193,3.72314,-16.9067,-17.0898,0.529114,0.214722,0.580048,0.580841,7080,60620,1474,2909,-30096
1734,24953,4.29229,6.40254,-0.913965,85.6384,-26.5045,134.269,48.5229,87.0972,166.687,0.521729,0.219269,0.581543,0.58429,516,57788,3501,2917,-30097
1740,24959,5.55078,10.0249,-1.21064,76.9482,18.8196,113.829,-11.5356,-19.9585,-24.5972,0.506805,0.227783,0.584137,0.591553,7052,60548,1444,2917,-30097
1746,24965,5.47422,9.74258,-0.813477,76.9482,18.8196,113.829,-15.9302,-13.4277,-27.2217,0.499207,0.231689,0.585449,0.595154,7037,60528,1444,2917,-30097
1752,24971,4.39756,9.79043,-0.626855,76.9482,18.8196,113.829,-21.3013,-12.2681,-28.6255,0.491486,0.235352,0.586823,0.598816,7031,60476,1453,2917,-30097
1758,24977,5.03398,9.90527,0.339746,76.9482,18.8196,113.829,-20.5688,-17.8223,-29.1748,0.483582,0.238953,0.588074,0.60257,7032,60440,1468,2917,-30097
1764,24983,-1.97627,5.88096,0.248828,85.6,-25.708,133.511,41.4429,90.1489,174.988,0.475739,0.242615,0.589142,0.606293,478,57793,3482,2917,-30097
1770,24989,8.04385,8.30703,2.13418,79.5355,13.6121,117.559,-0.183105,-7.44629,-51.6968,0.460388,0.251312,0.590393,0.613342,6941,60307,1547,2917,-30097
1776,24995,6.4791,8.86211,-0.0239258,79.5355,13.6121,117.559,2.0752,13.7939,-56.0303,0.453033,0.256775,0.590515,0.616425,6878,60270,1575,2917,-30097
1782,25001,4.63682,10.1302,-0.186621,79.5355,13.6121,117.559,0.488281,19.104,-59.6313,0.445831,0.263245,0.590332,0.619141,6829,60203,1606,2917,-30097
1788,25007,3.49316,10.3646,0.0239258,79.5355,13.6121,117.559,-4.39453,9.8877,-60.791,0.438782,0.270752,0.589844,0.621429,6794,60146,1536,2917,-30097
1794,25013,-2.02891,7.55098,0.507227,85.5725,-24.1205,133.418,93.6279,-28.5645,237.732,0.431763,0.279297,0.58902,0.623322,627,57788,3457,2917,-30097
1800,25019,4.74688,9.24971,0.502441,82.2437,6.66321,118.444,-0.549316,-12.2681,-64.9414,0.417633,0.298309,0.586487,0.626495,6619,59978,1745,2917,-30097
1806,25025,5.15361,9.34062,0.995313,82.2437,6.66321,118.444,1.2207,-13.1836,-67.749,0.410278,0.308136,0.584839,0.628143,6584,59932,1777,2917,-30097
1812,25031,5.49336,9.55596,0.684277,82.2437,6.66321,118.444,2.62451,-11.4136,-71.228,0.402618,0.31781,0.582977,0.630005,6510,59855,1806,2917,-30097
1818,25037,5.74697,9.91963,0.320605,82.2437,6.66321,118.444,2.68555,-7.93457,-74.4019,0.394684,0.327118,0.580933,0.632141,6456,59798,1833,2917,-30097
1824,25043,3.83291,11.6136,-1.54082,85.8142,-22.1484,132.907,60.9741,0.305176,266.907,0.386536,0.335938,0.578705,0.634613,781,57792,3456,2917,-30097
1830,25049,5.05791,10.379,-0.0813477,84.6112,-1.51611,118.619,-5.5542,-2.19727,-82.5806,0.36972,0.351929,0.57373,0.640442,6194,59551,1909,2917,-30097
1836,25055,4.87607,9.98184,0,84.6112,-1.51611,118.619,-7.50732,-0.610352,-84.6558,0.361145,0.359283,0.571167,0.643555,6110,59473,1934,2917,-30097
1842,25061,4.53154,9.72822,-0.119629,84.6112,-1.51611,118.619,-9.0332,0.671387,-86.792,0.352509,0.366394,0.568573,0.646606,6047,59412,1958,2917,-30097
1848,25067,4.22529,9.46982,0.272754,84.6112,-1.51611,118.619,-8.97217,-0.793457,-89.2334,0.343903,0.373322,0.56601,0.649536,5954,59323,1982,2926,-30098
1854,25073,2.18203,11.0968,-0.258398,85.7538,-19.715,132.599,50.6592,30.5176,251.099,0.335266,0.379974,0.563477,0.652374,995,57778,3435,2926,-30098
1860,25079,4.62246,9.86221,0.559863,86.0834,-9.25598,119.74,-1.83105,-14.0991,-97.229,0.317963,0.392456,0.558777,0.657654,5658,59077,2048,2926,-30098
1866,25085,4.58896,9.80479,0.942676,86.0834,-9.25598,119.74,-1.64795,-14.5264,-100.891,0.309326,0.398285,0.55661,0.660095,5554,59009,2067,2926,-30098
1872,25091,4.69424,9.90049,0.29668,86.0834,-9.25598,119.74,1.0376,-13.4277,-104.614,0.30069,0.4039,0.554565,0.662384,5473,58956,2088,2926,-30098
1878,25097,4.31621,10.0775,0.248828,86.0834,-9.25598,119.74,2.19727,-14.5874,-108.643,0.292145,0.409271,0.552612,0.664551,5367,58874,2114,2926,-30098
1884,25103,2.47871,10.647,-0.559863,85.99,-16.8256,131.858,60.9741,46.7529,220.764,0.283722,0.414429,0.55069,0.666626,1317,57762,3414,2926,-30098
1890,25109,4.23486,10.7618,-0.45459,87.572,-16.0236,121.212,-0.244141,-31.0669,-119.202,0.266785,0.42395,0.547607,0.670135,4991,58664,2201,2926,-30098
1896,25115,4.56025,10.8527,-0.00478516,87.572,-16.0236,121.212,0.671387,-32.959,-122.009,0.258209,0.428284,0.546509,0.671661,4875,58590,2229,2926,-30098
1902,25121,4.72295,10.9341,0.119629,87.572,-16.0236,121.212,-3.90625,-35.6445,-127.502,0.249573,0.432434,0.545593,0.673004,4735,58528,2260,2926,-30098
1908,25127,4.98613,10.7427,-0.172266,87.572,-16.0236,121.212,-2.56348,-35.4004,-131.348,0.240936,0.436493,0.5448,0.674164,4622,58477,2291,2926,-30098
1914,25133,1.31113,10.3216,-0.899609,86.3141,-13.3319,130.534,92.8345,55.4199,201.843,0.232239,0.440613,0.544098,0.675079,1614,57795,3398,2926,-30098
1920,25139,4.65596,10.9245,-0.746484,89.577,-21.9562,122.948,-10.8032,-39.7949,-150.757,0.214783,0.449036,0.543091,0.676147,4273,58297,2399,2926,-30098
1926,25145,5.13926,10.8145,-0.559863,89.577,-21.9562,122.948,-10.0098,-41.748,-156.555,0.205933,0.453278,0.542755,0.676331,4151,58240,2440,2926,-30098
1932,25151,4.69902,10.6565,-0.62207,89.577,-21.9562,122.948,-15.3809,-45.5322,-165.466,0.197021,0.457489,0.542572,0.6763,4054,58191,2483,2926,-30098
1938,25157,5.08184,10.5561,-0.76084,89.577,-21.9562,122.948,-13.0005,-48.8281,-172.852,0.188049,0.4617,0.542511,0.676056,3934,58149,2530,2926,-30098
1944,25163,2.62227,11.0872,-1.90928,86.3251,-8.8385,128.815,121.765,47.4243,194.885,0.179077,0.465881,0.542542,0.675598,2064,57877,3363,2926,-30098
1950,25169,4.64639,10.5273,0.14834,92.5049,-27.6526,124.228,-15.7471,-52.7954,-195.496,0.161377,0.474121,0.542725,0.674164,3527,58048,2691,2926,-30098
1956,25175,4.44063,10.4508,-0.689063,92.5049,-27.6526,124.228,-15.8081,-56.7017,-205.994,0.15271,0.478119,0.542908,0.673218,3406,58024,2747,2926,-30098
1962,25181,3.5123,10.3024,0.191406,92.5049,-27.6526,124.228,-14.1602,-55.9082,-211.304,0.144135,0.482025,0.543213,0.672089,3261,58004,2804,2926,-30098
1968,25187,2.81846,11.1446,0.588574,92.5049,-27.6526,124.228,-8.60596,-56.7017,-219.299,0.135742,0.485779,0.543579,0.670807,3144,57985,2862,2926,-30098
1974,25193,2.81846,11.1446,0.588574,86.2262,-3.06519,126.584,-2.80762,-69.7021,-227.295,0.127441,0.48938,0.544037,0.669464,2999,57967,2924,2926,-30098
1980,25199,3.16299,12.5706,-2.77061,95.8832,-32.6843,125.024,-5.43213,-87.9517,-235.107,0.320129,0.321045,0.603271,0.656036,2744,57933,3056,2926,-30098
1986,25205,3.59844,13.9487,-2.46914,95.8832,-32.6843,125.024,-12.6343,-91.7358,-238.586,0.103424,0.499115,0.545532,0.665161,2623,57915,3120,2926,-30098
1992,25211,9.65166,30.936,-6.97676,95.8832,-32.6843,125.024,-18.7378,-93.2617,-245.544,0.0956421,0.502106,0.546021,0.663696,2523,57897,3184,2926,-30098
1998,25217,11.0059,33.965,-6.65137,95.8832,-32.6843,125.024,-32.3486,-82.5195,-253.113,0.0879211,0.505005,0.546417,0.662231,2395,57880,3249,2926,-30098
2004,25223,5.24453,17.1452,-3.22998,95.8832,-32.6843,125.024,-48.4009,-69.519,-258.85,0.0802917,0.507813,0.546661,0.660828,2294,57862,3317,2926,-30098
2010,25229,3.77549,13.1257,-1.92363,99.0308,-37.1777,125.656,111.511,42.1143,158.081,0.375214,0.295502,0.610291,0.631927,2053,57826,3452,2901,-30095
2016,25235,2.0624,15.1833,-3.47881,99.5251,-37.9193,125.739,-68.1152,-46.7529,-269.592,0.0578003,0.515991,0.546814,0.656738,1918,57850,3522,2926,-30098
2022,25241,2.29209,14.5756,-3.31611,99.5251,-37.9193,125.739,-71.2891,-57.251,-270.325,0.0504761,0.518707,0.546753,0.655243,1803,57868,3589,2926,-30098
2028,25247,3.76113,16.2025,-2.95723,99.5251,-37.9193,125.739,-69.8853,-66.7114,-267.761,0.0433044,0.521454,0.546661,0.653625,1711,57881,3656,2926,-30098
2034,25253,5.54121,16.6858,-2.53613,99.5251,-37.9193,125.739,-77.0264,-51.5747,-269.226,0.0362244,0.5242,0.5466,0.651947,1589,57888,3723,2926,-30098
2040,25259,3.97168,14.2358,-1.44033,83.0127,12.2333,120.641,104.736,24.6582,151.978,0.0292664,0.526917,0.546448,0.650208,4205,58592,2955,2901,-30095
2046,25265,2.63662,10.4938,-2.3543,102.684,-42.1545,125.755,-94.5435,-16.8457,-293.579,0.015686,0.532104,0.546082,0.646759,1258,57932,3925,2926,-30098
2052,25271,2.11025,10.135,-2.00977,102.684,-42.1545,125.755,-81.604,-31.189,-294.312,0.00894165,0.534576,0.545776,0.645111,1121,57963,3992,2926,-30098
2058,25277,2.43086,12.2069,-2.23945,102.684,-42.1545,125.755,-62.7441,-41.626,-299.316,0.00210571,0.536926,0.545258,0.643646,1004,57989,4056,2926,-30098
2064,25283,3.33047,14.9488,-2.13896,102.684,-42.1545,125.755,-57.4951,-51.7578,-306.335,-0.00482178,0.539185,0.544525,0.642365,911,58007,4121,2926,-30098
2070,25289,2.97158,16.5327,-3.67021,80.1892,20.3027,118.048,-77.0874,-50.7202,-311.279,-0.0118103,0.541412,0.543427,0.641327,4996,58992,2722,2926,-30098
2076,25295,0.349316,8.87168,-5.4168,105.101,-46.5656,125.909,-112.427,0.793457,-301.514,-0.0187378,0.543549,0.541962,0.640594,560,58075,4307,2926,-30098
2082,25301,-4.10088,9.02959,-4.37842,105.101,-46.5656,125.909,-105.713,12.085,-293.091,-0.0322571,0.547546,0.538269,0.639771,458,58113,4364,2909,-30096
2088,25307,-6.70879,10.0393,-3.48359,105.101,-46.5656,125.909,-111.633,-18.9209,-275.146,-0.0387573,0.549316,0.536346,0.639465,370,58145,4418,2909,-30096
2094,25313,-7.52227,9.64209,-4.34971,105.101,-46.5656,125.909,-115.845,-66.8945,-257.751,-0.0450134,0.550903,0.534515,0.639252,250,58170,4468,2909,-30096
2100,25319,-6.12979,8.79033,-3.97168,75.8661,27.5262,114.785,-121.216,-116.15,-239.746,-0.0510254,0.552246,0.532806,0.639099,155,58189,4517,2909,-30096
2106,25325,1.16758,6.55088,0.952246,106.221,-50.7184,126.563,-124.695,-158.203,-213.196,0.545929,0.159637,0.599091,0.563446,65465,58250,4605,2909,-30096
2112,25331,4.12002,3.0625,0.200977,106.221,-50.7184,126.563,-129.944,-166.138,-203.735,-0.0672607,0.555634,0.529022,0.637787,65333,58291,4646,2909,-30096
2118,25337,3.78984,-1.23936,4.78516,106.221,-50.7184,126.563,-143.921,-159.668,-161.316,-0.0721741,0.556763,0.528412,0.63678,65220,58326,4686,2909,-30096
2124,25343,2.58398,-2.37822,7.26865,106.221,-50.7184,126.563,-96.0083,-80.0171,-82.2754,-0.0769348,0.557953,0.528137,0.635406,65129,58353,4724,2909,-30096
2130,25349,2.58398,-2.37822,7.26865,70.4443,30.1025,109.182,-17.334,-31.3721,-29.48,-0.0815735,0.559204,0.528076,0.633759,65052,58375,4759,2909,-30096
2136,25355,2.41172,3.34004,-0.0334961,108.43,-53.465,126.381,79.1626,-58.6548,31.189,-0.085968,0.560455,0.528046,0.632111,64845,58402,4832,2909,-30096
2142,25361,3.0625,6.72314,-1.37334,108.43,-53.465,126.381,78.125,-66.6504,76.416,-0.0940247,0.562286,0.52771,0.629608,64766,58448,4866,2909,-30096
2148,25367,6.39775,7.90986,-3.12949,108.43,-53.465,126.381,41.3208,-56.7627,117.371,-0.0975342,0.562653,0.527435,0.628967,64696,58487,4898,2909,-30096
2154,25373,8.53672,5.20625,-2.37344,108.43,-53.465,126.381,16.1743,-25.7568,138.245,-0.100677,0.562561,0.527161,0.628784,64637,58518,4930,2909,-30096
2160,25379,-1.73701,15.0397,0.090918,72.0758,26.4661,108.803,16.7236,8.30078,156.311,-0.103455,0.561951,0.526947,0.629089,64541,58543,4962,2909,-30096
2166,25385,7.59404,2.82324,1.92363,108.32,-55.069,127.798,44.7998,40.2832,160.828,-0.105896,0.560822,0.526733,0.629852,64389,58616,5015,2909,-30096
2172,25391,6.98154,2.99072,1.3207,108.32,-55.069,127.798,59.1431,47.6074,160.828,-0.11026,0.557495,0.525879,0.632751,64331,58666,5035,2909,-30096
2178,25397,6.51738,3.50273,0.488086,108.32,-55.069,127.798,69.0918,57.8613,160.278,-0.112366,0.555664,0.525085,0.634644,64283,58711,5054,2909,-30096
2184,25403,5.9623,4.34971,-0.0957031,108.32,-55.069,127.798,72.876,69.8853,161.926,-0.114258,0.553955,0.524078,0.636627,64194,58750,5071,2909,-30096
2190,25409,-2.9333,12.9486,0.210547,75.3937,21.3684,111.929,66.5894,78.8574,163.757,-0.115845,0.552368,0.523102,0.638519,7080,60620,1474,2909,-30096
2196,25415,4.29229,6.40254,-0.913965,105.721,-55.6458,130.759,48.5229,87.0972,166.687,-0.115845,0.549835,0.523529,0.64035,63996,58848,5105,2909,-30096
2202,25421,4.01475,6.3499,-0.392383,105.721,-55.6458,130.759,46.814,89.7217,165.588,-0.111908,0.548035,0.529236,0.637878,63947,58875,5108,2901,-30095
2208,25427,3.56016,6.58437,-0.0191406,105.721,-55.6458,130.759,46.0205,95.2148,163.757,-0.107361,0.544098,0.532745,0.63913,63900,58899,5109,2901,-30095
2214,25433,2.40693,6.62266,-0.110059,105.721,-55.6458,130.759,44.3115,101.379,163.574,-0.102325,0.537628,0.534393,0.644043,63854,58880,5112,2901,-30095
2220,25439,-4.6751,7.45049,-2.77061,78.3325,16.3092,115.818,41.8091,104.187,166.992,-0.0969238,0.530975,0.535645,0.649353,7032,60440,1468,2901,-30095
2226,25445,-1.97627,5.88096,0.248828,102.074,-50.8063,133.369,41.4429,90.1489,174.988,-0.081543,0.525696,0.538239,0.653595,63806,58856,5099,2901,-30095
2232,25451,-3.18691,5.57471,0.818262,102.074,-50.8063,133.369,45.5322,74.8901,182.068,-0.0727539,0.52713,0.53952,0.652405,63792,58862,5087,2901,-30095
2238,25457,-4.12002,5.3833,1.31113,102.074,-50.8063,133.369,53.5889,54.0771,190.369,-0.0652466,0.529968,0.540466,0.650146,63777,58828,5076,2901,-30095
2244,25463,-4.66074,5.31152,1.73223,102.074,-50.8063,133.369,63.6597,32.5317,201.477,-0.0581665,0.534027,0.542145,0.646057,63803,58803,5066,2901,-30095
2250,25469,16.0446,-1.20586,-8.13955,80.7825,10.4315,118.433,75.6226,9.52148,213.806,-0.0514832,0.53772,0.545624,0.640594,6794,60146,1536,2901,-30095
2256,25475,-2.02891,7.55098,0.507227,107.342,-46.3898,127.079,93.6279,-28.5645,237.732,-0.0414124,0.538818,0.55896,0.628845,63934,58753,5050,2901,-30095
2262,25481,-0.349316,8.66113,-0.0478516,107.342,-46.3898,127.079,96.0083,-36.3159,247.742,-0.0388184,0.535126,0.566498,0.625366,63990,58739,5053,2901,-30095
2268,25487,1.30635,9.68516,-0.521582,107.342,-46.3898,127.079,94.3604,-36.6211,255.981,-0.0374451,0.528839,0.572693,0.625183,64032,58726,5059,2901,-30095
2274,25493,2.59834,10.4412,-1.10059,107.342,-46.3898,127.079,89.2334,-30.8838,261.719,-0.037384,0.520264,0.577057,0.628326,64107,58712,5070,2901,-30095
2280,25499,2.59834,10.4412,-1.10059,83.6224,2.57629,118.345,81.4819,-21.9116,265.503,-0.0383911,0.510284,0.580719,0.633087,64170,58699,5087,2901,-30095
2286,25505,3.83291,11.6136,-1.54082,103.744,-42.5171,134.577,47.2412,188.232,-171.753,0.386536,0.335938,0.578705,0.634613,64267,58674,5124,2901,-30095
2292,25511,3.37354,11.4939,-1.0958,103.744,-42.5171,134.577,53.1006,11.0474,265.869,-0.0409851,0.480469,0.594818,0.643066,64309,58665,5140,2901,-30095
2298,25517,2.77061,11.2643,-0.684277,103.744,-42.5171,134.577,49.2554,17.8223,264.038,-0.0393677,0.47345,0.598938,0.644562,64347,58657,5154,2901,-30095
2304,25523,2.31123,11.1542,-0.435449,103.744,-42.5171,134.577,48.584,21.1792,261.78,-0.0359192,0.468536,0.60141,0.646027,64381,58649,5165,2901,-30095
2310,25529,2.14854,11.1255,-0.339746,85.3583,-5.48767,119.136,48.645,23.4375,258.972,-0.0310669,0.465698,0.602844,0.647003,64457,58641,5172,2901,-30095
2316,25535,2.18203,11.0968,-0.258398,101.865,-38.606,136.796,50.6592,30.5176,251.099,0.335266,0.379974,0.563477,0.652374,64574,58631,5179,2901,-30095
2322,25541,2.12461,11.0585,-0.301465,101.865,-38.606,136.796,52.5513,34.729,246.277,-0.0140381,0.46283,0.605682,0.647003,64614,58632,5179,2901,-30095
2328,25547,2.07676,11.0202,-0.564648,99.5581,120.883,-171.101,54.4434,38.0859,241.394,-0.00912476,0.462158,0.607056,0.646301,64614,58632,5179,2901,-30095
2334,25553,1.95234,10.9628,-0.732129,99.5581,120.883,-171.101,56.6406,40.7104,236.45,-0.00488281,0.46106,0.608612,0.64566,64715,58639,5177,2901,-30095
2340,25559,1.95713,11.1638,-1.06709,86.814,-12.7716,120.443,57.0068,42.5415,231.812,-0.00112915,0.459442,0.610138,0.645386,64773,58645,5177,2901,-30095
2346,25565,2.47871,10.647,-0.559863,101.481,-35.6232,136.159,-50.5371,8.11768,-74.707,0.283722,0.414429,0.55069,0.666626,64895,58655,5170,2901,-30095
2352,25571,2.51699,10.5321,-0.30625,101.481,-35.6232,136.159,67.5659,52.1851,214.417,0.00793457,0.451904,0.61142,0.649445,64961,58620,5165,2901,-30095
2358,25577,2.2251,10.7092,-0.368457,101.481,-35.6232,136.159,73.4253,57.6782,208.984,0.0106201,0.449066,0.610901,0.651855,65020,58589,5162,2901,-30095
2364,25583,1.75615,10.7427,-0.708203,101.481,-35.6232,136.159,77.4536,60.6079,205.383,0.0132751,0.44635,0.61026,0.654236,65070,58565,5153,2901,-30095
2370,25589,1.36377,10.5991,-1.01924,101.481,-35.6232,136.159,81.8481,60.791,203.125,0.0160828,0.443909,0.609711,0.656372,65114,58547,5142,2901,-30095
2376,25595,1.31113,10.3216,-0.899609,98.9099,-33.6566,137.34,-55.3589,7.26318,-54.9316,0.232239,0.440613,0.544098,0.675079,65181,58524,5111,2926,-30098
2382,25601,1.59824,10.2881,-0.866113,98.6298,-33.371,137.428,98.877,53.7109,201.477,0.0237732,0.438049,0.608856,0.660858,65208,58519,5092,2901,-30095
2388,25607,1.92842,10.3742,-0.875684,98.6298,-33.371,137.428,105.042,52.3682,200.867,0.0263672,0.436401,0.608551,0.662109,65280,58515,5071,2901,-30095
2394,25613,2.1916,10.5034,-1.05752,98.6298,-33.371,137.428,110.84,51.8799,200.134,0.028595,0.434692,0.608307,0.663361,65340,58512,5048,2901,-30095
2400,25619,2.34951,10.7092,-1.37334,98.6298,-33.371,137.428,115.723,50.9644,198.73,0.0310059,0.433289,0.607788,0.664673,65393,58472,5024,2901,-30095
