TimeSinceCollection,Timestamp,AccX,AccY,AccZ,AngleRoll,AnglePitch,AngleYaw,AngularVelX,AngularVelY,             AngularVelZ,Q1,Q2,Q3,Q4,MagX,MagY,MagZ,Height,Airpressure
0,65838,4.40234,8.77119,-0.210547,89.3024,-27.4438,125.964,-1.40381,-0.732422,-0.488281,0.165314,0.460449,0.531555,0.691376,1082,57842,3349,2984,-30105
6,65844,4.39277,8.81426,-0.248828,89.3024,-27.4438,125.958,-1.64795,-0.915527,-0.183105,0.165405,0.460449,0.531525,0.691345,1082,57842,3352,2984,-30105
12,65850,4.40713,8.81426,-0.14834,89.2969,-27.4384,125.953,-2.0752,-0.793457,0,0.165466,0.46048,0.531494,0.691376,1078,57842,3352,2984,-30105
18,65856,4.4502,8.71377,-0.124414,89.2914,-27.4384,125.947,-2.0752,-0.671387,-0.0610352,0.165527,0.46048,0.531464,0.691376,1078,57843,3351,2984,-30105
24,65862,4.46934,8.68984,-0.110059,89.2914,-27.4329,125.947,-1.83105,-0.549316,-0.183105,0.165558,0.46048,0.531433,0.691376,1078,57844,3352,2984,-30105
30,65868,4.4167,8.79512,-0.15791,89.2914,-27.4274,125.936,-1.46484,-0.732422,-0.427246,0.165619,0.46048,0.531433,0.691376,1074,57844,3352,2984,-30105
36,65874,4.37363,8.81904,-0.181836,89.2914,-27.4219,125.936,-1.70898,-0.549316,-0.305176,0.16571,0.46048,0.531433,0.691345,1072,57846,3354,2984,-30105
42,65880,4.37842,8.78076,-0.13877,89.2859,-27.4219,125.931,-1.89209,-0.610352,-0.0610352,0.165771,0.46048,0.531403,0.691345,1071,57845,3354,2984,-30105
48,65886,4.47412,8.75205,-0.119629,89.2859,-27.4219,125.925,-1.77002,-0.488281,-0.12207,0.165802,0.46048,0.531372,0.691345,1068,57844,3352,2984,-30105
54,65892,4.44541,8.75684,-0.153125,89.2804,-27.4164,125.925,-1.77002,-0.488281,-0.183105,0.165833,0.46048,0.531372,0.691376,1066,57844,3351,2984,-30105
60,65898,4.4167,8.81426,-0.186621,89.2749,-27.4164,125.92,-1.83105,-0.12207,0.12207,0.165863,0.46048,0.531372,0.691376,1068,57843,3347,2984,-30105
66,65904,4.40713,8.77598,-0.143555,89.2749,-27.4109,125.92,-1.95313,-0.183105,0.183105,0.165924,0.46048,0.531311,0.691376,1068,57841,3343,2984,-30105
72,65910,4.40234,8.73291,-0.062207,89.2694,-27.4109,125.92,-1.95313,-0.12207,0.0610352,0.165955,0.46048,0.531281,0.691406,1069,57839,3341,2984,-30105
78,65916,4.3832,8.68027,-0.0574219,89.2639,-27.4109,125.914,-1.70898,-0.183105,0.12207,0.165985,0.460449,0.531281,0.691406,1070,57837,3339,2984,-30105
84,65922,4.40234,8.71377,-0.119629,89.2639,-27.4109,125.914,-1.09863,-0.488281,0.12207,0.166016,0.46048,0.53125,0.691406,1072,57836,3338,2984,-30105
90,65928,4.40713,8.82383,-0.196191,89.2694,-27.4054,125.903,-1.34277,-0.549316,0.183105,0.166046,0.46048,0.53125,0.691376,1071,57832,3340,2984,-30105
96,65934,4.44063,8.80469,-0.153125,89.2639,-27.4054,125.903,-1.77002,-0.305176,0.12207,0.166107,0.46051,0.531219,0.691406,1070,57832,3345,2984,-30105
102,65940,4.44063,8.75205,-0.105273,89.2639,-27.4054,125.903,-1.83105,-0.0610352,0.0610352,0.166138,0.46048,0.531219,0.691406,1071,57832,3347,2984,-30105
108,65946,4.40713,8.6707,-0.090918,89.2584,-27.3999,125.903,-1.40381,-0.12207,0.0610352,0.166168,0.46048,0.531219,0.691406,1069,57833,3351,2984,-30105
114,65952,4.37363,8.74248,-0.124414,89.2584,-27.3999,125.898,-1.0376,-0.366211,0.305176,0.166168,0.46051,0.531189,0.691406,1067,57834,3352,2984,-30105
120,65958,4.39277,8.79033,-0.14834,89.2639,-27.3999,125.892,-1.09863,-0.671387,0.366211,0.166168,0.46051,0.531219,0.691376,1069,57838,3353,2984,-30105
126,65964,4.42627,8.74727,-0.124414,89.2639,-27.3999,125.892,-1.15967,-0.488281,0.244141,0.166229,0.460541,0.531189,0.691376,1069,57838,3352,2984,-30105
132,65970,4.42148,8.74248,-0.13877,89.2639,-27.3999,125.892,-1.28174,-0.305176,0.183105,0.166229,0.460541,0.531189,0.691376,1070,57839,3353,2984,-30105
138,65976,4.4167,8.72334,-0.119629,89.2639,-27.3999,125.887,-1.15967,-0.12207,0.12207,0.16626,0.460541,0.531189,0.691376,1072,57841,3352,2984,-30105
144,65982,4.45498,8.77119,-0.16748,89.2639,-27.3944,125.887,-1.0376,-0.305176,0,0.16626,0.460541,0.531189,0.691376,1075,57842,3353,2984,-30105
150,65988,4.4502,8.81904,-0.277539,89.2639,-27.3889,125.881,-1.28174,-0.610352,-0.12207,0.16629,0.460541,0.531189,0.691345,1073,57841,3355,2984,-30105
156,65994,4.46455,8.81426,-0.210547,89.2639,-27.3889,125.876,-1.77002,-0.305176,-0.12207,0.166351,0.460541,0.531189,0.691345,1075,57840,3358,2984,-30105
162,66000,4.46455,8.75684,-0.186621,89.2584,-27.3834,125.876,-2.01416,-0.12207,-0.305176,0.166412,0.46051,0.531158,0.691345,1076,57840,3360,2984,-30105
168,66006,4.43584,8.75684,-0.177051,89.2584,-27.3834,125.876,-1.70898,0.0610352,-0.183105,0.166443,0.46051,0.531158,0.691376,1075,57838,3361,2984,-30105
174,66012,4.37842,8.79033,-0.186621,89.2529,-27.3779,125.876,-1.64795,-0.12207,-0.244141,0.166473,0.46048,0.531158,0.691376,1074,57837,3359,2984,-30105
180,66018,4.39277,8.79033,-0.133984,89.2474,-27.3724,125.87,-1.83105,-0.305176,-0.0610352,0.166504,0.46048,0.531158,0.691376,1072,57836,3355,2984,-30105
186,66024,4.39277,8.78555,-0.0669922,89.2419,-27.3724,125.87,-2.01416,-0.183105,0.183105,0.166565,0.46048,0.531097,0.691406,1068,57836,3352,2984,-30105
192,66030,4.39277,8.72334,-0.0669922,89.2419,-27.3724,125.87,-1.83105,-0.0610352,0.244141,0.166595,0.460449,0.531097,0.691406,1065,57838,3348,2984,-30105
198,66036,4.38799,8.72334,-0.0957031,89.2419,-27.3724,125.87,-1.34277,-0.183105,0,0.166626,0.460449,0.531067,0.691406,1064,57800,3346,2984,-30105
204,66042,4.37363,8.75684,-0.13877,89.2419,-27.3724,125.865,-0.854492,-0.427246,0.183105,0.166626,0.46048,0.531097,0.691406,1062,57765,3344,2984,-30105
210,66048,4.42148,8.82383,-0.200977,89.2419,-27.3724,125.859,-1.34277,-0.366211,0.366211,0.166656,0.46051,0.531067,0.691376,1057,57782,3335,2984,-30105
216,66054,4.45977,8.81426,-0.224902,89.2419,-27.3724,125.854,-1.70898,-0.305176,0.427246,0.166687,0.46051,0.531036,0.691376,1057,57789,3333,2984,-30105
222,66060,4.45498,8.7999,-0.191406,89.2365,-27.3724,125.854,-1.70898,0,0.366211,0.166718,0.46051,0.531006,0.691406,1057,57795,3334,2984,-30105
228,66066,4.45498,8.81426,-0.162695,89.2365,-27.3724,125.854,-1.83105,0.0610352,0.244141,0.166748,0.46051,0.531006,0.691406,1056,57800,3335,2984,-30105
234,66072,4.40234,8.78076,-0.153125,89.2255,-27.3669,125.859,-2.13623,0.488281,0.366211,0.166748,0.46048,0.530975,0.691437,1055,57805,3338,2984,-30105
240,66078,4.42148,8.77598,-0.13877,89.2145,-27.3669,125.859,-1.89209,0.183105,0.366211,0.166779,0.46048,0.530945,0.691467,1055,57816,3336,2984,-30105
246,66084,4.42627,8.77119,-0.16748,89.2145,-27.3669,125.859,-1.89209,0.244141,0.305176,0.166809,0.460449,0.530884,0.691528,1053,57819,3331,2984,-30105
252,66090,4.43584,8.81904,-0.191406,89.209,-27.3669,125.859,-1.95313,0.244141,0.305176,0.166809,0.460419,0.530884,0.691559,1052,57822,3326,2984,-30105
258,66096,4.44541,8.82383,-0.153125,89.198,-27.3669,125.865,-2.31934,0.549316,0.305176,0.16684,0.460419,0.530823,0.691589,1054,57824,3323,2984,-30105
264,66102,4.44063,8.78555,-0.105273,89.1925,-27.3669,125.87,-2.68555,0.915527,0.366211,0.16684,0.460358,0.530792,0.69165,1056,57825,3327,2984,-30105
270,66108,4.38799,8.72334,-0.0765625,89.1705,-27.3669,125.876,-2.31934,0.732422,0.366211,0.16684,0.460327,0.530762,0.691681,1053,57828,3333,2984,-30105
276,66114,4.38799,8.7042,-0.110059,89.165,-27.3669,125.881,-1.83105,0.671387,0.549316,0.16687,0.460266,0.530701,0.691772,1052,57831,3335,2984,-30105
282,66120,4.40234,8.75684,-0.124414,89.165,-27.3724,125.881,-1.70898,0.305176,0.671387,0.16684,0.460266,0.53067,0.691803,1052,57833,3335,2984,-30105
288,66126,4.4167,8.78076,-0.172266,89.1595,-27.3724,125.887,-1.70898,0.366211,0.427246,0.16687,0.460266,0.53067,0.691803,1051,57834,3329,2984,-30105
294,66132,4.45977,8.80947,-0.15791,89.1541,-27.3724,125.887,-1.89209,0.488281,0.732422,0.16684,0.460236,0.53064,0.691833,1050,57836,3324,2984,-30105
300,66138,4.42627,8.76641,-0.143555,89.1376,-27.3724,125.898,-1.95313,0.915527,0.488281,0.16684,0.460236,0.530609,0.691895,1055,57838,3318,2984,-30105
306,66144,4.37363,8.79033,-0.124414,89.1321,-27.3724,125.903,-1.89209,1.0376,0.549316,0.16684,0.460175,0.530548,0.691956,1053,57838,3314,2984,-30105
312,66150,4.40234,8.7999,-0.16748,89.1266,-27.3779,125.909,-2.0752,0.915527,0.732422,0.16684,0.460144,0.530518,0.692017,1052,57837,3312,2984,-30105
318,66156,4.42627,8.78076,-0.13877,89.1156,-27.3779,125.914,-2.0752,0.976563,0.671387,0.166809,0.460114,0.530487,0.692047,1052,57836,3312,2984,-30105
324,66162,4.4502,8.76162,-0.119629,89.1101,-27.3779,125.92,-2.2583,1.2207,0.671387,0.166809,0.460083,0.530457,0.692108,1052,57836,3311,2984,-30105
330,66168,4.42627,8.75205,-0.105273,89.0936,-27.3834,125.931,-2.0752,1.15967,0.732422,0.166809,0.460052,0.530426,0.692139,1050,57838,3313,2984,-30105
336,66174,4.39756,8.76641,-0.0957031,89.0826,-27.3834,125.936,-1.95313,1.40381,0.976563,0.166748,0.459991,0.530365,0.692261,1051,57840,3316,2984,-30105
342,66180,4.42627,8.79512,-0.119629,89.0771,-27.3889,125.947,-2.01416,1.34277,0.793457,0.166718,0.459961,0.530334,0.692291,1054,57842,3319,2984,-30105
348,66186,4.4167,8.76162,-0.100488,89.0717,-27.3889,125.953,-2.01416,1.09863,1.0376,0.166718,0.45993,0.530304,0.692352,1057,57841,3319,2984,-30105
354,66192,4.43584,8.76162,-0.110059,89.0607,-27.3944,125.958,-1.83105,1.28174,0.854492,0.166687,0.4599,0.530273,0.692383,1058,57840,3317,2984,-30105
360,66198,4.4167,8.78555,-0.110059,89.0497,-27.3944,125.969,-1.83105,1.40381,0.732422,0.166656,0.459869,0.530243,0.692444,1063,57803,3311,2984,-30105
366,66204,4.40713,8.77598,-0.114844,89.0387,-27.3999,125.98,-1.95313,1.28174,0.793457,0.166595,0.459808,0.530212,0.692535,1062,57807,3309,2984,-30105
372,66210,4.40234,8.75684,-0.090918,89.0332,-27.3999,125.986,-1.83105,1.28174,1.0376,0.166565,0.459778,0.530182,0.692566,1062,57812,3307,2984,-30105
378,66216,4.39277,8.73291,-0.0813477,89.0277,-27.4054,125.991,-1.64795,1.15967,0.976563,0.166565,0.459747,0.530151,0.692627,1063,57776,3308,2984,-30105
384,66222,4.40234,8.75684,-0.0813477,89.0222,-27.4054,125.997,-1.40381,1.2207,0.976563,0.166504,0.459717,0.530121,0.692657,1064,57783,3309,2984,-30105
390,66228,4.43105,8.79033,-0.114844,89.0167,-27.4164,126.008,-1.28174,1.15967,1.09863,0.166473,0.459717,0.530121,0.692688,1062,57794,3305,2984,-30105
396,66234,4.42627,8.78555,-0.129199,89.0112,-27.4164,126.013,-1.34277,1.28174,1.28174,0.166412,0.459686,0.53009,0.692749,1063,57800,3306,2984,-30105
402,66240,4.4167,8.79033,-0.0765625,89.0057,-27.4219,126.019,-1.46484,1.28174,1.2207,0.166351,0.459656,0.53006,0.69278,1065,57806,3307,2984,-30105
408,66246,4.41191,8.77119,-0.0813477,89.0002,-27.4274,126.024,-1.34277,1.46484,1.40381,0.16629,0.459656,0.530029,0.692841,1065,57811,3309,2984,-30105
414,66252,4.40713,8.77119,-0.114844,88.9948,-27.4329,126.035,-1.40381,1.34277,1.28174,0.16626,0.459625,0.530029,0.692871,1066,57816,3310,2984,-30105
420,66258,4.40234,8.77598,-0.133984,88.9893,-27.4438,126.046,-1.15967,1.2207,1.52588,0.166199,0.459595,0.529999,0.692902,1071,57825,3307,2984,-30105
426,66264,4.40713,8.78555,-0.0957031,88.9838,-27.4493,126.057,-1.15967,1.58691,1.58691,0.166077,0.459595,0.529968,0.692993,1070,57827,3308,2984,-30105
432,66270,4.40713,8.78555,-0.119629,88.9783,-27.4548,126.063,-1.28174,1.64795,1.70898,0.166016,0.459564,0.529938,0.693024,1069,57830,3312,2984,-30105
438,66276,4.44541,8.78555,-0.129199,88.9728,-27.4603,126.074,-1.15967,1.64795,1.95313,0.165924,0.459564,0.529907,0.693054,1070,57792,3316,2984,-30105
444,66282,4.43105,8.77598,-0.14834,88.9673,-27.4658,126.085,-1.28174,1.95313,1.95313,0.165863,0.459534,0.529907,0.693115,1070,57799,3320,2984,-30105
450,66288,4.45498,8.77598,-0.143555,88.9508,-27.4823,126.107,-1.83105,2.31934,1.83105,0.165771,0.459503,0.529877,0.693176,1069,57809,3316,2984,-30105
456,66294,4.47412,8.73291,-0.133984,88.9398,-27.4878,126.118,-1.64795,2.38037,1.83105,0.165619,0.459412,0.529785,0.693329,1070,57813,3315,2984,-30105
462,66300,4.43105,8.78076,-0.124414,88.9343,-27.4933,126.129,-1.58691,2.2583,1.77002,0.165527,0.459381,0.529785,0.69339,1072,57815,3316,2984,-30105
468,66306,4.4167,8.79033,-0.114844,88.9233,-27.5043,126.145,-1.46484,2.31934,1.89209,0.165466,0.459351,0.529755,0.693451,1073,57818,3314,2984,-30105
474,66312,4.42148,8.82383,-0.090918,88.9124,-27.5098,126.156,-1.83105,2.62451,1.89209,0.165375,0.45932,0.529694,0.693512,1074,57820,3312,2984,-30105
480,66318,4.46455,8.69463,-0.0239258,88.8959,-27.5208,126.183,-1.83105,2.50244,1.95313,0.165283,0.459259,0.529663,0.693604,1082,57826,3308,2984,-30105
486,66324,4.41191,8.69463,0,88.8849,-27.5317,126.194,-1.64795,2.31934,1.89209,0.165131,0.459198,0.529602,0.693756,1086,57828,3304,2984,-30105
492,66330,4.40234,8.70898,-0.090918,88.8794,-27.5372,126.205,-0.976563,2.01416,1.70898,0.16507,0.459167,0.529572,0.693787,1089,57830,3300,2984,-30105
498,66336,4.43105,8.74727,-0.143555,88.8739,-27.5427,126.211,-0.915527,1.58691,1.58691,0.165009,0.459167,0.529572,0.693817,1094,57833,3302,2984,-30105
504,66342,4.45498,8.81904,-0.177051,88.8739,-27.5482,126.216,-1.09863,1.40381,1.46484,0.164948,0.459137,0.529572,0.693848,1096,57834,3303,2984,-30105
510,66348,4.48369,8.77119,-0.062207,88.8574,-27.5592,126.233,-1.89209,2.01416,1.58691,0.164886,0.459137,0.529541,0.693909,1096,57836,3308,2984,-30105
516,66354,4.44541,8.68027,0,88.8464,-27.5647,126.244,-1.89209,2.01416,1.46484,0.164764,0.459045,0.529449,0.694031,1097,57838,3312,2984,-30105
522,66360,4.44063,8.62764,0.0334961,88.8409,-27.5647,126.255,-1.58691,1.70898,1.34277,0.164734,0.459045,0.529419,0.694092,1099,57839,3316,2984,-30105
528,66366,4.40713,8.64199,-0.0765625,88.8409,-27.5702,126.255,-0.732422,0.854492,1.09863,0.164673,0.459015,0.529419,0.694092,1098,57840,3317,2984,-30105
534,66372,4.4502,8.73291,-0.210547,88.8464,-27.5757,126.255,-0.427246,0.183105,1.0376,0.164673,0.459045,0.529419,0.694092,1098,57841,3319,2984,-30105
540,66378,4.52676,8.86211,-0.0717773,88.8409,-27.5812,126.26,-1.70898,0.610352,0.976563,0.164642,0.459076,0.529419,0.694092,1103,57843,3324,2984,-30105
546,66384,4.47412,8.71377,0.0239258,88.83,-27.5812,126.266,-2.19727,1.0376,0.671387,0.164612,0.459045,0.529358,0.694153,1104,57843,3323,2984,-30105
552,66390,4.4167,8.60371,0.090918,88.83,-27.5812,126.266,-1.34277,0.915527,0.671387,0.164612,0.459015,0.529327,0.694183,1104,57843,3320,2984,-30105
558,66396,4.36885,8.62764,0.00478516,88.83,-27.5812,126.266,-0.244141,0.244141,0.488281,0.164581,0.459015,0.529358,0.694153,1106,57844,3318,2984,-30105
564,66402,4.36885,8.75205,-0.0717773,88.8409,-27.5867,126.266,0.183105,-0.610352,0.915527,0.164581,0.459076,0.529388,0.694122,1108,57845,3314,2984,-30105
570,66408,4.55068,8.79033,-0.133984,88.8464,-27.5867,126.255,-0.854492,-0.427246,0.549316,0.164581,0.459106,0.529388,0.694092,1109,57845,3313,2984,-30105
576,66414,4.57461,8.71855,-0.090918,88.8464,-27.5867,126.249,-1.34277,-0.0610352,0.305176,0.164581,0.459137,0.529388,0.694061,1111,57847,3313,2984,-30105
582,66420,4.53633,8.70898,-0.143555,88.8519,-27.5867,126.249,-0.671387,0,0.0610352,0.164612,0.459137,0.529388,0.694061,1115,57808,3313,2984,-30105
588,66426,4.40234,8.79512,-0.196191,88.8519,-27.5812,126.244,-0.488281,-0.305176,-0.12207,0.164642,0.459167,0.529388,0.694031,1115,57813,3312,2984,-30105
594,66432,4.40713,8.85254,-0.16748,88.8574,-27.5812,126.238,-0.854492,-0.671387,0.244141,0.164673,0.459198,0.529388,0.694,1118,57818,3313,2984,-30105
600,66438,4.45498,8.71855,0.0239258,88.8519,-27.5812,126.227,-1.58691,-0.488281,0.366211,0.164703,0.459198,0.529388,0.694,1126,57824,3315,2984,-30105
606,66444,4.44541,8.65635,0.0669922,88.8574,-27.5812,126.227,-1.09863,-0.366211,0.244141,0.164764,0.459259,0.529327,0.694,1126,57826,3315,2984,-30105
612,66450,4.43105,8.68027,-0.105273,88.8629,-27.5812,126.222,-0.244141,-0.488281,0,0.164764,0.459259,0.529358,0.69397,1124,57827,3315,2984,-30105
618,66456,4.43105,8.7377,-0.196191,88.8629,-27.5757,126.216,-0.610352,-0.610352,-0.244141,0.164825,0.45929,0.529388,0.693939,1125,57830,3315,2984,-30105
624,66462,4.55068,8.82383,-0.258398,88.8684,-27.5702,126.205,-1.0376,-1.2207,-0.305176,0.164856,0.45932,0.529388,0.693909,1126,57832,3319,2984,-30105
630,66468,4.59854,8.89561,-0.344531,88.8684,-27.5592,126.194,-2.2583,-0.671387,-0.915527,0.164948,0.45932,0.529358,0.693878,1123,57833,3319,2984,-30105
636,66474,4.55547,8.89082,-0.172266,88.8574,-27.5537,126.189,-3.23486,0.0610352,-0.854492,0.165131,0.45929,0.529297,0.693909,1125,57836,3321,2984,-30105
642,66480,4.42627,8.75684,0.0669922,88.8409,-27.5482,126.189,-3.78418,0.488281,-0.854492,0.165222,0.459259,0.529236,0.69397,1126,57797,3323,2984,-30105
648,66486,4.31143,8.58457,0.215332,88.83,-27.5427,126.189,-3.23486,0,-0.671387,0.165314,0.459229,0.529175,0.694,1123,57764,3323,2984,-30105
654,66492,4.25879,8.51758,0.177051,88.83,-27.5372,126.178,-1.40381,-1.28174,-0.793457,0.165405,0.459229,0.529175,0.69397,1120,57734,3324,2984,-30105
660,66498,4.39277,8.85732,-0.153125,88.8574,-27.5317,126.14,0.244141,-3.17383,-0.366211,0.165466,0.45932,0.529205,0.693878,1119,57681,3329,2984,-30105
666,66504,4.5124,8.91475,-0.177051,88.8684,-27.5262,126.123,-0.549316,-2.56348,-0.366211,0.165619,0.459473,0.529236,0.693726,1117,57699,3330,2984,-30105
672,66510,4.55547,8.84775,-0.119629,88.8684,-27.5262,126.118,-1.58691,-1.2207,-0.305176,0.16571,0.459503,0.529205,0.693695,1116,57715,3334,2984,-30105
678,66516,4.50283,8.75684,-0.0382813,88.8629,-27.5208,126.112,-2.01416,-0.244141,-0.427246,0.165771,0.459503,0.529175,0.693695,1116,57730,3340,2984,-30105
684,66522,4.39756,8.69941,-0.0574219,88.8629,-27.5208,126.112,-1.46484,-0.244141,-0.305176,0.165802,0.459503,0.529175,0.693695,1115,57742,3343,2984,-30105
690,66528,4.39277,8.79033,-0.186621,88.8739,-27.5098,126.096,-0.671387,-1.58691,-0.305176,0.165833,0.459503,0.529205,0.693665,1109,57763,3344,2984,-30105
696,66534,4.45498,8.84297,-0.172266,88.8739,-27.5098,126.085,-1.34277,-1.40381,-0.12207,0.165955,0.459595,0.529205,0.693604,1108,57773,3344,2984,-30105
702,66540,4.52676,8.80947,-0.119629,88.8739,-27.5098,126.079,-1.89209,-0.671387,0.12207,0.166016,0.459595,0.529175,0.693604,1109,57740,3345,2984,-30105
708,66546,4.50762,8.79033,-0.0813477,88.8684,-27.5043,126.079,-2.19727,0.0610352,-0.183105,0.166046,0.459595,0.529144,0.693634,1108,57753,3346,2984,-30105
714,66552,4.44063,8.75205,-0.0430664,88.8629,-27.5043,126.079,-2.2583,0.366211,-0.0610352,0.166077,0.459564,0.529114,0.693665,1107,57724,3345,2984,-30105
720,66558,4.34014,8.74248,-0.0382813,88.8574,-27.4988,126.079,-1.46484,-0.244141,-0.0610352,0.166107,0.459534,0.529083,0.693665,1108,57674,3345,2984,-30105
726,66564,4.37842,8.74727,-0.062207,88.8574,-27.4988,126.074,-1.40381,-0.488281,0.244141,0.166168,0.459564,0.529053,0.693665,1105,57652,3344,2984,-30105
732,66570,4.4167,8.71855,-0.0382813,88.8519,-27.4988,126.068,-1.46484,-0.427246,0.366211,0.166199,0.459564,0.529053,0.693665,1102,57632,3343,2984,-30105
738,66576,4.45977,8.69941,-0.0239258,88.8519,-27.4988,126.068,-1.64795,-0.12207,0,0.166229,0.459564,0.529022,0.693665,1102,57614,3341,2984,-30105
744,66582,4.5124,8.70898,-0.114844,88.8519,-27.4933,126.063,-1.15967,-0.305176,0,0.16626,0.459564,0.529022,0.693665,1102,57640,3339,2984,-30105
750,66588,4.46455,8.8334,-0.229688,88.8519,-27.4878,126.057,-1.52588,-0.366211,-0.366211,0.16629,0.459595,0.529022,0.693665,1100,57682,3334,2984,-30105
756,66594,4.49805,8.84297,-0.191406,88.8464,-27.4823,126.052,-1.95313,-0.183105,-0.427246,0.166412,0.459564,0.528992,0.693665,1102,57700,3331,2984,-30105
762,66600,4.48369,8.80947,-0.124414,88.8409,-27.4823,126.052,-2.44141,-0.12207,-0.366211,0.166473,0.459564,0.528961,0.693665,1105,57715,3328,2984,-30105
768,66606,4.43105,8.72334,-0.0143555,88.8354,-27.4768,126.052,-2.2583,0.12207,-0.244141,0.166504,0.459534,0.528931,0.693695,1104,57728,3323,2984,-30105
774,66612,4.36885,8.73291,0.0813477,88.83,-27.4768,126.046,-1.95313,0.12207,-0.366211,0.166565,0.459534,0.5289,0.693726,1104,57739,3319,2984,-30105
780,66618,4.35449,8.68027,-0.00478516,88.83,-27.4713,126.041,-0.671387,-0.915527,-0.244141,0.166626,0.459534,0.5289,0.693695,1102,57759,3315,2984,-30105
786,66624,4.35928,8.71855,-0.0526367,88.8409,-27.4658,126.03,-0.305176,-1.40381,0,0.166687,0.459595,0.528931,0.693634,1103,57767,3315,2984,-30105
792,66630,4.4167,8.77119,-0.0239258,88.8464,-27.4658,126.024,-0.427246,-1.28174,0,0.166718,0.459625,0.528931,0.693573,1102,57775,3317,2984,-30105
798,66636,4.44541,8.76641,-0.0526367,88.8519,-27.4658,126.013,-0.671387,-1.34277,0,0.166748,0.459656,0.528931,0.693542,1105,57783,3321,2984,-30105
804,66642,4.43584,8.7377,-0.0861328,88.8574,-27.4603,126.008,-0.671387,-0.793457,0,0.166779,0.459686,0.528961,0.693512,1107,57790,3323,2984,-30105
810,66648,4.43105,8.76641,-0.119629,88.8629,-27.4548,125.997,-0.732422,-0.976563,-0.305176,0.166809,0.459686,0.528961,0.693481,1105,57798,3325,2984,-30105
816,66654,4.46455,8.74727,-0.172266,88.8684,-27.4493,125.991,-0.610352,-1.2207,-0.427246,0.166901,0.459717,0.528992,0.69342,1106,57802,3325,2984,-30105
822,66660,4.45498,8.79033,-0.210547,88.8739,-27.4493,125.986,-0.549316,-1.34277,-0.305176,0.166931,0.459778,0.529022,0.69339,1107,57805,3323,2984,-30105
828,66666,4.46934,8.86689,-0.186621,88.8739,-27.4438,125.975,-1.0376,-1.09863,-0.305176,0.166992,0.459778,0.529022,0.693359,1106,57809,3317,2984,-30105
834,66672,4.45977,8.83818,-0.0717773,88.8739,-27.4438,125.969,-1.40381,-0.732422,-0.305176,0.167053,0.459778,0.529022,0.693329,1104,57814,3311,2984,-30105
840,66678,4.38799,8.68984,0.00957031,88.8739,-27.4384,125.964,-1.15967,-0.488281,-0.12207,0.167084,0.459808,0.528992,0.693329,1104,57824,3305,2984,-30105
846,66684,4.3832,8.7042,-0.0143555,88.8794,-27.4329,125.958,-0.610352,-0.732422,-0.244141,0.167145,0.459808,0.529022,0.693298,1101,57827,3302,2984,-30105
852,66690,4.37842,8.74248,-0.090918,88.8849,-27.4329,125.953,-0.610352,-1.0376,-0.0610352,0.167175,0.459839,0.529022,0.693268,1098,57830,3301,2984,-30105
858,66696,4.46455,8.74727,-0.162695,88.8904,-27.4274,125.947,-0.793457,-1.28174,-0.183105,0.167206,0.459869,0.529022,0.693237,1097,57833,3302,2984,-30105
864,66702,4.5124,8.80469,-0.253613,88.8959,-27.4274,125.936,-0.671387,-1.58691,-0.488281,0.167267,0.4599,0.529053,0.693176,1095,57837,3304,2984,-30105
870,66708,4.52197,8.86211,-0.267969,88.8904,-27.4164,125.925,-2.31934,-0.488281,-0.488281,0.167328,0.45993,0.529053,0.693146,1091,57839,3308,2984,-30105
876,66714,4.64639,8.78555,-0.411523,88.8794,-27.4109,125.925,-3.90625,-0.0610352,-0.976563,0.167511,0.459869,0.528961,0.693207,1092,57840,3310,2984,-30105
882,66720,4.7708,8.87646,-0.30625,88.8684,-27.3999,125.925,-3.60107,0.244141,-1.83105,0.167603,0.459808,0.528931,0.693268,1093,57841,3311,2984,-30105
888,66726,4.48369,8.81426,-0.411523,88.8519,-27.3889,125.92,-3.90625,0.183105,-1.89209,0.167725,0.459747,0.52887,0.693298,1092,57840,3309,2984,-30105
894,66732,4.44541,8.9291,-0.311035,88.8354,-27.3779,125.92,-4.39453,0.366211,-2.13623,0.167877,0.459656,0.528839,0.693359,1091,57840,3308,2984,-30105
900,66738,4.27793,8.69463,0.186621,88.7915,-27.356,125.925,-5.85938,0.244141,-1.64795,0.16803,0.459564,0.528748,0.693451,1092,57842,3305,2984,-30105
906,66744,4.31143,8.56065,0.239258,88.775,-27.3505,125.925,-4.88281,0.244141,-1.46484,0.168304,0.459412,0.528564,0.693604,1090,57843,3304,2984,-30105
912,66750,4.21572,8.53193,0.258398,88.7695,-27.3395,125.914,-2.68555,-1.58691,-1.89209,0.168457,0.459412,0.528564,0.693604,1088,57845,3305,2984,-30105
918,66756,4.24443,8.60371,0.0574219,88.775,-27.3285,125.898,-1.46484,-2.74658,-1.77002,0.168579,0.459442,0.528564,0.693542,1086,57805,3306,2984,-30105
924,66762,4.3832,8.74248,-0.0382813,88.786,-27.3175,125.876,-0.610352,-3.60107,-1.83105,0.168732,0.459503,0.528595,0.693451,1085,57770,3310,2984,-30105
930,66768,4.5459,8.86689,-0.14834,88.797,-27.2955,125.843,-1.89209,-2.62451,-1.83105,0.168854,0.459564,0.528595,0.693359,1079,57785,3315,2984,-30105
936,66774,4.5124,8.82383,-0.13877,88.797,-27.2845,125.832,-2.50244,-1.46484,-1.95313,0.169128,0.459564,0.528595,0.693298,1080,57752,3316,2984,-30105
942,66780,4.44063,8.83818,-0.0574219,88.7915,-27.2736,125.826,-2.44141,-0.915527,-1.95313,0.16925,0.459534,0.528595,0.693298,1083,57722,3316,2984,-30105
948,66786,4.27793,8.75205,-0.0334961,88.7915,-27.2626,125.821,-2.13623,-1.15967,-1.83105,0.169373,0.459534,0.528595,0.693268,1081,57696,3312,2984,-30105
954,66792,4.31621,8.7377,-0.0526367,88.786,-27.2516,125.81,-1.95313,-1.2207,-1.83105,0.169495,0.459503,0.528595,0.693268,1080,57673,3304,2984,-30105
960,66798,4.36406,8.51758,0.133984,88.7915,-27.2131,125.771,-2.50244,-3.72314,-1.15967,0.1698,0.459442,0.528687,0.693146,1077,57634,3294,2984,-30105
966,66804,4.33535,8.46973,0.349316,88.808,-27.2021,125.75,-0.183105,-3.84521,-1.40381,0.170105,0.459595,0.528656,0.692993,1075,57656,3290,2984,-30105
972,66810,4.34971,8.67549,0.200977,88.83,-27.1912,125.728,1.70898,-3.96729,-1.77002,0.170197,0.459686,0.528748,0.692841,1073,57676,3291,2984,-30105
978,66816,4.34014,8.78555,-0.16748,88.8519,-27.1857,125.706,1.77002,-4.08936,-1.70898,0.170288,0.459778,0.528839,0.692688,1072,57694,3292,2984,-30105
984,66822,4.4167,8.90996,-0.330176,88.8739,-27.1747,125.678,1.28174,-4.45557,-1.40381,0.17041,0.459869,0.5289,0.692535,1074,57708,3294,2984,-30105
990,66828,4.52676,8.86689,-0.210547,88.9014,-27.1527,125.634,-0.671387,-3.479,-1.77002,0.170532,0.459961,0.528961,0.692413,1069,57732,3290,2984,-30105
996,66834,4.56982,8.82861,-0.239258,88.9069,-27.1417,125.618,-1.28174,-2.86865,-2.19727,0.170807,0.460052,0.528992,0.692261,1069,57744,3290,2984,-30105
1002,66840,4.61289,8.84297,-0.387598,88.9233,-27.1307,125.596,-0.671387,-3.60107,-2.62451,0.17099,0.460114,0.529053,0.692139,1067,57715,3291,2984,-30105
1008,66846,4.61289,8.97695,-0.617285,88.9343,-27.1143,125.574,-0.305176,-4.15039,-3.11279,0.171173,0.460144,0.529114,0.692017,1063,57688,3292,2984,-30105
1014,66852,4.77559,9.2832,-0.607715,88.9343,-27.0978,125.563,-2.13623,-1.95313,-2.92969,0.171326,0.460144,0.529114,0.691986,1059,57665,3292,2984,-30105
1020,66858,4.40234,9.00088,-0.224902,88.8904,-27.0648,125.557,-6.89697,1.40381,-2.56348,0.171539,0.460083,0.529083,0.692017,1052,57626,3294,2984,-30105
1026,66864,4.36885,8.78555,0.0957031,88.8574,-27.0538,125.568,-7.14111,1.83105,-2.44141,0.171875,0.459778,0.528839,0.692291,1047,57608,3296,2984,-30105
1032,66870,4.25879,8.57979,0.210547,88.83,-27.0374,125.574,-5.79834,1.09863,-2.68555,0.172028,0.459656,0.528778,0.692383,1043,57633,3297,2984,-30105
1038,66876,4.09609,8.54629,0.13877,88.819,-27.0264,125.568,-3.66211,0.0610352,-2.56348,0.17218,0.459595,0.528748,0.692413,1041,57656,3301,2984,-30105
1044,66882,4.10566,8.73291,0.00957031,88.819,-27.0099,125.563,-2.13623,-1.58691,-2.2583,0.172302,0.459564,0.528748,0.692383,1038,57676,3303,2984,-30105
1050,66888,4.33535,8.81904,-0.062207,88.819,-26.9934,125.53,-2.68555,-2.92969,-1.64795,0.172455,0.459595,0.528748,0.692352,1031,57711,3298,2984,-30105
1056,66894,4.43105,8.7999,0.0430664,88.8135,-26.9824,125.519,-3.17383,-1.70898,-1.40381,0.17276,0.459625,0.528687,0.692322,1029,57684,3294,2984,-30105
1062,66900,4.30664,8.69463,0.0957031,88.808,-26.9714,125.513,-2.99072,-1.28174,-1.64795,0.172882,0.459595,0.528656,0.692322,1028,57702,3289,2984,-30105
1068,66906,4.26836,8.68027,0.0526367,88.8025,-26.9659,125.513,-2.56348,-0.610352,-1.28174,0.172943,0.459564,0.528656,0.692322,1025,57716,3281,2984,-30105
1074,66912,4.36406,8.81426,0.143555,88.8025,-26.955,125.502,-1.77002,-1.40381,-1.77002,0.173065,0.459534,0.528656,0.692291,1022,57730,3274,2984,-30105
1080,66918,4.33057,8.62285,-0.090918,88.819,-26.944,125.469,-0.732422,-3.84521,-1.2207,0.173187,0.459595,0.528656,0.69223,1017,57756,3261,2984,-30105
1086,66924,4.4502,8.77119,-0.105273,88.8354,-26.933,125.447,-0.12207,-3.78418,-1.46484,0.173401,0.459747,0.528717,0.692047,1012,57766,3258,2984,-30105
1092,66930,4.48848,8.94346,-0.13877,88.8409,-26.9275,125.436,-0.915527,-2.01416,-1.09863,0.173492,0.459747,0.528717,0.691986,1009,57775,3257,2984,-30105
1098,66936,4.4167,8.9626,-0.105273,88.8354,-26.9165,125.436,-1.89209,-1.15967,-1.34277,0.173553,0.459747,0.528748,0.691986,1008,57784,3258,2984,-30105
1104,66942,4.254,8.85732,-0.062207,88.83,-26.911,125.431,-2.50244,-0.549316,-1.15967,0.173645,0.459686,0.528717,0.691986,1008,57750,3261,2984,-30105
1110,66948,4.26357,8.71377,-0.0143555,88.8245,-26.9,125.431,-1.77002,-1.15967,-0.915527,0.173706,0.459656,0.528717,0.692017,1004,57771,3266,2984,-30105
1116,66954,4.25879,8.77598,-0.0478516,88.8245,-26.8945,125.42,-1.15967,-1.64795,-0.915527,0.173828,0.459656,0.528717,0.691986,1003,57739,3268,2984,-30105
1122,66960,4.24443,8.81426,-0.062207,88.83,-26.889,125.414,-0.976563,-2.31934,-0.732422,0.173889,0.459686,0.528748,0.691925,1001,57752,3270,2984,-30105
1128,66966,4.321,8.83818,-0.177051,88.8409,-26.8835,125.398,-0.915527,-2.74658,-0.610352,0.173981,0.459717,0.528748,0.691864,996,57762,3270,2984,-30105
1134,66972,4.40234,8.89561,-0.282324,88.8464,-26.8781,125.387,-1.0376,-2.38037,-0.610352,0.174042,0.459778,0.528778,0.691833,992,57772,3268,2984,-30105
1140,66978,4.49805,9.00566,-0.181836,88.8354,-26.8726,125.392,-3.05176,0.366211,-0.366211,0.174072,0.459778,0.528748,0.691803,991,57789,3264,2984,-30105
1146,66984,4.3832,8.82861,-0.177051,88.819,-26.8671,125.398,-3.60107,0.732422,-0.244141,0.174164,0.459656,0.528687,0.691925,988,57794,3260,2984,-30105
1152,66990,4.30664,8.78555,-0.114844,88.808,-26.8671,125.403,-3.54004,1.0376,-0.366211,0.174194,0.459564,0.528625,0.692017,986,57800,3258,2984,-30105
1158,66996,4.29229,8.7999,-0.0191406,88.7915,-26.8616,125.414,-3.479,1.28174,-0.305176,0.174225,0.459473,0.528595,0.692078,986,57766,3256,2984,-30105
1164,67002,4.24922,8.78555,-0.0478516,88.775,-26.8561,125.42,-3.41797,0.915527,-0.183105,0.174255,0.459412,0.528564,0.692169,987,57735,3257,2984,-30105
1170,67008,4.22529,8.76162,0.0143555,88.7531,-26.8561,125.431,-3.05176,0.671387,0.305176,0.174255,0.459381,0.528503,0.69223,984,57683,3255,2984,-30105
1176,67014,4.27793,8.77598,0.00957031,88.7421,-26.8561,125.436,-3.11279,0.854492,0.427246,0.174286,0.459259,0.528412,0.692352,984,57661,3256,2984,-30105
1182,67020,4.33535,8.74248,-0.00478516,88.7311,-26.8561,125.442,-2.80762,0.671387,0.244141,0.174316,0.459229,0.528381,0.692413,982,57640,3258,2984,-30105
1188,67026,4.37363,8.76641,-0.114844,88.7256,-26.8561,125.447,-2.31934,0.427246,0.12207,0.174316,0.459198,0.528351,0.692444,980,57621,3258,2984,-30105
1194,67032,4.35449,8.88603,-0.177051,88.7146,-26.8506,125.453,-2.31934,0.549316,0,0.174347,0.459137,0.528351,0.692474,978,57605,3259,2984,-30105
1200,67038,4.35928,8.85254,-0.0478516,88.6871,-26.8506,125.464,-3.84521,1.2207,0.366211,0.174377,0.459106,0.52829,0.692535,979,57576,3261,2984,-30105
1206,67044,4.4167,8.76641,0.0478516,88.6652,-26.8506,125.48,-4.15039,2.2583,0.366211,0.174377,0.458954,0.528168,0.692749,979,57605,3261,2984,-30105
1212,67050,4.31143,8.72813,0.15791,88.6487,-26.8506,125.497,-3.479,2.38037,0.183105,0.174377,0.458832,0.528107,0.692841,978,57631,3263,2984,-30105
1218,67056,4.16787,8.70898,0.062207,88.6377,-26.8506,125.508,-2.68555,1.77002,0.366211,0.174347,0.458771,0.528076,0.692932,979,57614,3262,2984,-30105
1224,67062,4.1248,8.78076,0,88.6322,-26.8451,125.513,-1.83105,0.549316,0.366211,0.174347,0.45874,0.528076,0.692963,978,57598,3261,2984,-30105
1230,67068,4.32578,8.84297,-0.0382813,88.6267,-26.8506,125.513,-1.58691,-0.12207,0.854492,0.174347,0.45874,0.528076,0.692963,974,57608,3257,2984,-30105
1236,67074,4.3832,8.87646,-0.0765625,88.6212,-26.8561,125.519,-1.89209,0.488281,1.09863,0.174316,0.45871,0.528015,0.693024,975,57593,3258,2984,-30105
1242,67080,4.34971,8.90518,-0.105273,88.6102,-26.8561,125.53,-2.62451,1.58691,1.09863,0.174286,0.458649,0.527985,0.693085,978,57580,3259,2984,-30105
1248,67086,4.27314,8.90518,-0.143555,88.5938,-26.8616,125.541,-3.35693,2.19727,1.46484,0.174225,0.458588,0.527924,0.693207,978,57567,3258,2984,-30105
1254,67092,4.27793,8.8334,-0.0957031,88.5718,-26.8671,125.557,-3.84521,2.68555,1.58691,0.174164,0.458496,0.527832,0.693329,978,57555,3258,2984,-30105
1260,67098,4.47412,9.00088,0.0143555,88.5168,-26.8726,125.612,-4.76074,5.98145,0.366211,0.174103,0.458405,0.52774,0.693481,981,57573,3259,2984,-30105
1266,67104,4.22051,8.84775,0.00957031,88.4729,-26.8835,125.651,-6.04248,6.46973,3.11279,0.173889,0.458008,0.527557,0.693939,980,57561,3257,2984,-30105
1272,67110,4.10566,8.71377,0.124414,88.4235,-26.9,125.7,-6.83594,8.48389,3.96729,0.173706,0.457794,0.527374,0.694275,982,57550,3256,2984,-30105
1278,67116,4.14873,8.81426,0.172266,88.3685,-26.9165,125.755,-7.26318,8.78906,4.02832,0.173523,0.45755,0.527191,0.694611,987,57541,3255,2984,-30105
1284,67122,4.07695,8.76162,0.354102,88.3081,-26.9385,125.81,-7.99561,10.0708,4.94385,0.173279,0.457275,0.526978,0.695007,991,57533,3254,2984,-30105
1290,67128,3.82813,8.4123,0.722559,88.1982,-26.9824,125.936,-6.53076,10.0708,6.89697,0.173035,0.457001,0.526794,0.695404,993,57554,3255,2984,-30105
1296,67134,3.85205,8.3501,0.913965,88.1543,-27.0154,125.997,-3.96729,10.1318,7.69043,0.172302,0.456573,0.526459,0.696106,993,57545,3254,2984,-30105
1302,67140,3.90469,8.27832,0.717773,88.1268,-27.0593,126.057,-1.15967,9.15527,9.33838,0.171814,0.456482,0.526337,0.696381,995,57537,3254,2984,-30105
1308,67146,3.94775,8.48887,0.421094,88.1158,-27.1033,126.107,1.83105,8.30078,10.0708,0.171265,0.456421,0.526306,0.696564,995,57529,3253,2984,-30105
1314,67152,3.97646,8.76641,0.258398,88.1104,-27.1527,126.161,2.74658,7.8125,10.8643,0.170685,0.456421,0.526306,0.696747,996,57523,3249,2984,-30105
1320,67158,4.84736,9.02481,0.0861328,88.1049,-27.2571,126.249,2.50244,5.92041,11.4136,0.170074,0.456451,0.526245,0.696899,1007,57517,3249,2984,-30105
1326,67164,5.29238,8.71377,-0.090918,88.1323,-27.29,126.266,6.16455,2.44141,7.32422,0.169128,0.456635,0.526306,0.696991,1012,57514,3246,2984,-30105
1332,67170,5.14404,8.75684,-0.794336,88.1543,-27.3175,126.31,7.26318,7.8125,6.71387,0.16861,0.456573,0.526489,0.696991,1017,57510,3244,2984,-30105
1338,67176,4.90479,9.47939,-0.813477,88.1598,-27.3395,126.37,6.10352,10.1318,5.49316,0.168091,0.456451,0.526672,0.697083,1025,57506,3242,2984,-30105
1344,67182,4.4167,9.38848,-0.593359,88.1433,-27.3615,126.436,1.70898,12.4512,5.00488,0.167603,0.456177,0.526764,0.697296,1032,57502,3240,2984,-30105
1350,67188,4.00996,8.37402,1.1915,88.0444,-27.4109,126.606,-2.92969,14.7095,6.53076,0.167145,0.455841,0.526703,0.697662,1039,57493,3235,2984,-30105
1356,67194,3.97646,7.76631,1.28721,88.0334,-27.4384,126.667,2.56348,10.8032,6.46973,0.166199,0.455353,0.526672,0.698242,1045,57490,3237,2984,-30105
1362,67200,4.05781,7.72803,0.741699,88.0829,-27.4658,126.689,11.7798,3.54004,6.04248,0.16568,0.455444,0.526978,0.698059,1052,57487,3240,2984,-30105
1368,67206,4.52676,8.25439,-0.703418,88.2037,-27.4878,126.661,20.6909,-5.92041,5.24902,0.165253,0.455872,0.527496,0.697479,1058,57484,3243,2984,-30105
1374,67212,4.98135,9.16357,-2.25381,88.3575,-27.5098,126.595,23.4985,-10.8643,4.21143,0.164948,0.456482,0.528076,0.696747,1063,57482,3247,2984,-30105
1380,67218,6.07715,11.0011,-2.6749,88.4674,-27.5482,126.541,0.0610352,0.793457,3.84521,0.164703,0.45697,0.528442,0.696198,1030,57480,3256,2984,-30105
1386,67224,6.04844,10.5082,-1.94277,88.3685,-27.5592,126.601,-15.2588,12.8174,3.60107,0.164551,0.456726,0.527985,0.696747,1042,57478,3258,2984,-30105
1392,67230,5.35938,9.35977,-1.00967,88.2037,-27.5702,126.705,-24.353,21.5454,3.17383,0.16449,0.456055,0.527344,0.697662,1052,57477,3261,2984,-30105
1398,67236,4.71338,8.56065,-0.177051,88.0334,-27.5812,126.837,-24.231,25.5127,3.05176,0.164307,0.455261,0.526764,0.698669,1013,57478,3263,2984,-30105
1404,67242,4.10566,8.27354,0.282324,87.8851,-27.5922,126.958,-19.7144,23.6816,2.86865,0.164124,0.454529,0.526306,0.699554,978,57479,3267,2984,-30105
1410,67248,3.9334,8.5415,0.253613,87.6764,-27.6086,127.134,-12.3291,15.2588,3.05176,0.16391,0.453949,0.52597,0.700226,1009,57477,3274,2984,-30105
1416,67254,4.20137,8.78076,0.339746,87.594,-27.6251,127.2,-11.8408,13.6108,3.72314,0.163574,0.453156,0.52536,0.701233,974,57476,3277,2984,-30105
1422,67260,4.31143,8.81904,0.502441,87.5061,-27.6361,127.271,-12.8784,14.0381,3.78418,0.163422,0.452789,0.525055,0.701782,993,57476,3278,2984,-30105
1428,67266,4.35449,8.69941,0.703418,87.4072,-27.6526,127.348,-13.6108,15.5029,3.78418,0.163239,0.452332,0.524719,0.702362,1008,57475,3277,2984,-30105
1434,67272,4.24443,8.49365,0.861328,87.3083,-27.6636,127.43,-13.0615,15.9912,3.66211,0.163055,0.451874,0.524384,0.702942,1022,57476,3277,2984,-30105
1440,67278,4.04824,8.15869,0.866113,87.171,-27.6855,127.573,-7.26318,11.9629,3.60107,0.162842,0.451477,0.524139,0.70343,955,57481,3270,2984,-30105
1446,67284,4.01953,8.21611,0.913965,87.1436,-27.702,127.617,-2.2583,8.60596,3.78418,0.162354,0.450989,0.523926,0.70401,926,57483,3266,2984,-30105
1452,67290,4.11045,8.3501,0.957031,87.1381,-27.7185,127.656,1.52588,6.40869,3.96729,0.162048,0.450897,0.523987,0.704102,901,57484,3261,2984,-30105
1458,67296,4.18701,8.4458,0.990527,87.1545,-27.735,127.683,4.08936,5.18799,4.08936,0.161713,0.450836,0.524139,0.704102,882,57484,3259,2984,-30105
1464,67302,4.36885,8.46494,0.823047,87.1765,-27.746,127.711,5.92041,4.27246,3.90625,0.161377,0.450836,0.524323,0.704041,865,57483,3259,2984,-30105
1470,67308,4.5459,8.50322,0.311035,87.2479,-27.7789,127.749,8.60596,2.44141,3.2959,0.161041,0.450867,0.524536,0.703949,834,57480,3261,2984,-30105
1476,67314,4.55068,8.68984,0.143555,87.2919,-27.7899,127.76,9.46045,1.83105,3.23486,0.16037,0.450989,0.525085,0.703613,823,57480,3262,2984,-30105
1482,67320,4.52197,8.88125,0.090918,87.3358,-27.8009,127.771,8.54492,1.52588,2.86865,0.160065,0.45105,0.52533,0.703461,814,57479,3260,2984,-30105
1488,67326,4.59854,8.8334,0.0765625,87.3743,-27.8119,127.782,6.89697,1.40381,2.80762,0.15979,0.45108,0.525543,0.703339,805,57478,3256,2984,-30105
1494,67332,4.59854,8.77598,0.105273,87.4017,-27.8229,127.793,5.85938,1.40381,2.74658,0.159546,0.451141,0.525726,0.703217,793,57476,3251,2984,-30105
1500,67338,4.57461,8.62285,0.133984,87.4622,-27.8394,127.804,6.22559,0.793457,2.13623,0.159332,0.451202,0.525909,0.703094,782,57475,3252,2984,-30105
1506,67344,4.56025,8.70898,0.200977,87.5006,-27.8448,127.809,6.22559,0.671387,1.89209,0.158905,0.451294,0.526306,0.70282,773,57474,3256,2984,-30105
1512,67350,4.55547,8.77119,0.14834,87.5281,-27.8558,127.815,5.92041,0.671387,1.83105,0.158722,0.451355,0.526489,0.702698,767,57473,3260,2984,-30105
1518,67356,4.50283,8.79033,0.172266,87.561,-27.8613,127.82,5.67627,0.793457,1.95313,0.158508,0.451416,0.526672,0.702576,761,57472,3264,2984,-30105
1524,67362,4.41191,8.79512,0.248828,87.5885,-27.8723,127.831,5.61523,0.915527,2.2583,0.158295,0.451447,0.526825,0.702454,758,57472,3263,2984,-30105
1530,67368,4.56504,8.65635,-0.401953,87.6599,-27.8888,127.826,6.89697,-0.793457,2.62451,0.158112,0.451538,0.527008,0.702332,747,57470,3263,2984,-30105
1536,67374,4.69424,8.96738,-0.397168,87.7039,-27.8998,127.826,7.56836,-0.12207,2.74658,0.157654,0.451782,0.527405,0.701965,747,57471,3264,2984,-30105
1542,67380,4.6751,9.24014,-0.186621,87.7313,-27.9163,127.837,5.00488,1.52588,2.86865,0.15744,0.451813,0.527557,0.701874,747,57471,3268,2984,-30105
1548,67386,4.65596,9.07744,-0.0430664,87.7368,-27.9272,127.859,2.13623,3.84521,2.99072,0.157227,0.451782,0.527618,0.701904,747,57470,3271,2984,-30105
1554,67392,4.56504,8.74248,0.00478516,87.7313,-27.9382,127.886,1.0376,4.82178,3.05176,0.156982,0.451721,0.527679,0.701965,746,57468,3273,2984,-30105
1560,67398,4.33535,8.51279,0.373242,87.7533,-27.9657,127.936,5.06592,3.84521,3.66211,0.156738,0.45166,0.52774,0.701996,748,57469,3283,2984,-30105
1566,67404,4.26836,8.57022,0.47373,87.7808,-27.9822,127.952,5.98145,2.99072,3.78418,0.156128,0.451691,0.528046,0.701874,746,57470,3285,2984,-30105
1572,67410,4.36885,8.59414,0.325391,87.8137,-27.9987,127.963,6.7749,1.70898,4.21143,0.155792,0.451782,0.528229,0.701782,745,57469,3284,2984,-30105
1578,67416,4.42627,8.61328,0.282324,87.8522,-28.0151,127.969,7.08008,0.793457,3.66211,0.155518,0.451874,0.528412,0.70163,745,57470,3282,2984,-30105
1584,67422,4.41191,8.71855,0.382813,87.8851,-28.0316,127.974,6.04248,0.366211,3.78418,0.155273,0.451965,0.528564,0.701508,745,57469,3280,2984,-30105
1590,67428,4.40234,8.43145,0.392383,87.9565,-28.0591,127.969,7.08008,-1.34277,3.11279,0.15506,0.452087,0.528717,0.701385,745,57543,3280,2984,-30105
1596,67434,4.35449,8.46494,0.574219,88.0115,-28.0756,127.963,9.33838,-2.19727,3.60107,0.154572,0.452423,0.529114,0.700958,747,57575,3284,2984,-30105
1602,67440,4.44541,8.47451,0.291895,88.0774,-28.092,127.947,10.9863,-3.78418,3.479,0.154327,0.452667,0.529388,0.700623,751,57603,3288,2984,-30105
1608,67446,4.59854,8.49365,-0.0239258,88.1543,-28.103,127.919,11.5356,-5.24902,2.74658,0.154144,0.452942,0.529694,0.700287,752,57628,3291,2984,-30105
1614,67452,4.70381,8.74727,-0.267969,88.2257,-28.114,127.892,11.4136,-5.37109,2.01416,0.153961,0.453186,0.529999,0.699921,753,57651,3295,2984,-30105
1620,67458,4.68467,8.95303,-0.143555,88.3246,-28.125,127.859,6.40869,-2.92969,1.28174,0.153839,0.4534,0.530273,0.699615,753,57655,3305,2984,-30105
1626,67464,4.52676,8.86211,0.00957031,88.3521,-28.125,127.853,4.63867,-1.34277,1.28174,0.153595,0.453613,0.530579,0.69928,752,57674,3312,2984,-30105
1632,67470,4.4167,8.77598,0.0574219,88.3795,-28.1305,127.848,3.35693,-1.15967,1.0376,0.153503,0.453674,0.530701,0.699188,750,57692,3321,2984,-30105
1638,67476,4.4167,8.67549,0.0287109,88.4015,-28.1305,127.842,2.86865,-1.95313,1.09863,0.153442,0.453766,0.530792,0.699066,750,57708,3330,2984,-30105
1644,67482,4.45498,8.59893,-0.0717773,88.4235,-28.136,127.831,2.68555,-3.23486,0.732422,0.153442,0.453857,0.530884,0.698944,751,57721,3341,2984,-30105
1650,67488,4.49326,8.77119,0.186621,88.4839,-28.1415,127.798,3.72314,-3.05176,1.15967,0.153412,0.45401,0.530975,0.698761,752,57745,3352,2984,-30105
1656,67494,4.52197,8.79033,0.258398,88.5059,-28.147,127.793,2.68555,-2.13623,1.46484,0.15329,0.454193,0.531189,0.698517,753,57757,3359,2984,-30105
1662,67500,4.44541,8.54629,0.205762,88.5223,-28.147,127.782,1.83105,-2.31934,1.2207,0.153229,0.454285,0.53125,0.698425,753,57767,3363,2984,-30105
1668,67506,4.39756,8.46973,0.344531,88.5443,-28.1525,127.776,2.86865,-1.83105,1.40381,0.153168,0.454346,0.531342,0.698334,752,57776,3365,2984,-30105
1674,67512,4.38799,8.50801,0.401953,88.5663,-28.158,127.771,3.35693,-2.62451,1.40381,0.153076,0.454437,0.531433,0.698212,750,57782,3369,2984,-30105
1680,67518,4.5459,8.49844,0.0143555,88.6157,-28.1635,127.738,2.56348,-3.96729,0.732422,0.153046,0.454559,0.531525,0.69809,750,57791,3370,2984,-30105
1686,67524,4.66553,8.56543,-0.196191,88.6377,-28.1635,127.727,1.83105,-3.72314,0.488281,0.153046,0.454773,0.531677,0.697845,750,57794,3370,2984,-30105
1692,67530,4.8043,8.63721,-0.373242,88.6487,-28.158,127.711,0.366211,-2.86865,-0.0610352,0.153076,0.454834,0.531708,0.697754,749,57799,3370,2984,-30105
1698,67536,4.9,8.7999,-0.449805,88.6487,-28.158,127.711,-1.34277,-0.854492,-0.427246,0.153107,0.454803,0.531708,0.697754,750,57803,3369,2984,-30105
1704,67542,4.81387,9.00088,-0.406738,88.6267,-28.1525,127.733,-3.66211,2.74658,-0.427246,0.153107,0.454681,0.531647,0.697876,752,57807,3372,2984,-30105
1710,67548,4.5459,8.70898,-0.090918,88.5059,-28.1415,127.809,-11.0474,7.56836,-0.793457,0.153137,0.454407,0.531494,0.698181,751,57812,3374,2984,-30105
1716,67554,4.43584,8.46973,0.200977,88.4235,-28.1305,127.864,-12.085,8.72803,-0.854492,0.153229,0.453705,0.531036,0.698975,753,57816,3375,2984,-30105
1722,67560,4.29707,8.3501,0.31582,88.3466,-28.125,127.914,-11.9629,8.60596,-0.671387,0.153259,0.453339,0.530762,0.699402,756,57819,3376,2984,-30105
1728,67566,3.8377,8.27354,0.655566,88.2806,-28.125,127.952,-10.437,6.22559,0.427246,0.15329,0.453064,0.530548,0.699768,756,57822,3376,2984,-30105
1734,67572,3.81855,8.25918,0.631641,88.2312,-28.125,127.985,-8.48389,4.08936,0.244141,0.15332,0.45285,0.530334,0.700043,757,57822,3375,2984,-30105
1740,67578,3.84727,8.37881,1.0623,88.1708,-28.136,128.002,-5.24902,-0.793457,1.77002,0.153351,0.452728,0.530182,0.700226,757,57829,3370,2984,-30105
1746,67584,3.94297,8.32139,0.971387,88.1653,-28.147,127.996,-3.17383,-3.05176,2.92969,0.153381,0.452789,0.529907,0.700378,756,57831,3362,2984,-30105
1752,67590,4.08174,8.17305,0.62207,88.1818,-28.1635,127.969,0.305176,-6.10352,3.66211,0.153381,0.453033,0.529846,0.700287,756,57792,3358,2984,-30105
1758,67596,4.18223,8.25439,0.363672,88.2257,-28.1799,127.93,3.90625,-8.60596,4.08936,0.153351,0.453339,0.529877,0.700043,756,57758,3353,2984,-30105
1764,67602,4.36885,8.53672,0.00478516,88.2861,-28.1964,127.881,6.95801,-10.5591,4.21143,0.15329,0.453766,0.529999,0.699707,758,57768,3348,2984,-30105
1770,67608,4.43584,8.90039,-0.46416,88.4344,-28.2513,127.738,7.26318,-15.3809,6.16455,0.153259,0.454254,0.53009,0.699341,758,57785,3345,2984,-30105
1776,67614,4.63682,8.74248,-0.775195,88.5223,-28.2843,127.656,8.05664,-16.4795,6.95801,0.153229,0.455536,0.530182,0.698425,762,57792,3345,2984,-30105
1782,67620,4.92393,8.9626,-0.957031,88.6102,-28.3173,127.562,8.54492,-16.8457,7.20215,0.153229,0.456207,0.530243,0.697937,765,57798,3343,2984,-30105
1788,67626,5.12012,9.48418,-1.29199,88.7036,-28.3502,127.48,9.15527,-15.686,7.32422,0.153168,0.456909,0.530304,0.697449,765,57803,3344,2984,-30105
1794,67632,5.25889,9.88135,-1.49775,88.764,-28.3887,127.408,4.57764,-12.3901,7.38525,0.153137,0.457458,0.530273,0.697113,763,57806,3346,2984,-30105
1800,67638,5.68955,9.72822,-1.82314,88.764,-28.4436,127.343,-7.20215,-2.01416,5.61523,0.153168,0.457886,0.53009,0.69696,766,57814,3354,2984,-30105
1806,67644,5.56992,9.64688,-1.58867,88.6981,-28.4711,127.365,-13.0005,4.21143,5.85938,0.153168,0.457977,0.529358,0.697449,767,57817,3353,2984,-30105
1812,67650,5.48857,9.65645,-1.0001,88.5883,-28.4821,127.414,-18.9209,9.76563,3.84521,0.153229,0.457672,0.528839,0.698059,768,57819,3353,2984,-30105
1818,67656,5.20147,9.28799,-0.6125,88.4509,-28.4985,127.48,-22.9492,12.9395,3.05176,0.15329,0.457245,0.528198,0.698792,770,57822,3352,2984,-30105
1824,67662,4.73252,8.85254,0,88.3081,-28.504,127.557,-23.0713,14.4043,2.31934,0.153351,0.456726,0.527588,0.699554,773,57825,3349,2984,-30105
1830,67668,4.80908,8.44102,-0.220117,88.0719,-28.5095,127.65,-18.7378,7.75146,0.549316,0.153503,0.456329,0.527008,0.700256,775,57829,3354,2984,-30105
1836,67674,4.83779,8.72813,-0.368457,87.9895,-28.504,127.672,-16.1743,5.06592,-0.549316,0.1539,0.45578,0.526123,0.701172,779,57833,3356,2984,-30105
1842,67680,4.90479,9.13008,-0.401953,87.9071,-28.493,127.683,-17.395,3.66211,-1.34277,0.154205,0.455566,0.525696,0.701569,782,57795,3355,2984,-30105
1848,67686,5.03877,9.16836,-0.224902,87.8082,-28.4875,127.7,-19.7754,4.45557,-1.46484,0.154572,0.455322,0.525208,0.702026,783,57761,3350,2984,-30105
1854,67692,5.1249,8.97695,-0.143555,87.6929,-28.4766,127.733,-21.4233,6.71387,-1.58691,0.154877,0.454987,0.524658,0.702576,782,57771,3345,2984,-30105
1860,67698,5.10098,9.14443,-0.459375,87.4402,-28.4601,127.815,-23.3765,10.9253,-2.50244,0.155182,0.454651,0.524078,0.703156,785,57712,3331,2984,-30105
1866,67704,4.80908,8.8334,-0.358887,87.3029,-28.4381,127.864,-24.7803,11.1694,-2.92969,0.155823,0.453674,0.522949,0.704498,786,57686,3323,2984,-30105
1872,67710,5.25889,8.98652,-0.832617,87.1655,-28.4271,127.919,-24.0479,11.5356,-2.50244,0.156128,0.453156,0.522369,0.70517,786,57665,3316,2984,-30105
1878,67716,4.8665,9.02959,-0.44502,87.0172,-28.3997,127.974,-26.6113,12.207,-4.76074,0.156555,0.452576,0.521759,0.705902,787,57647,3309,2984,-30105
1884,67722,4.99092,8.98174,-0.397168,86.8579,-28.3777,128.029,-28.3203,12.2681,-3.479,0.156952,0.452026,0.521088,0.706665,788,57633,3303,2984,-30105
1890,67728,4.98613,8.79033,-0.186621,86.4899,-28.3063,128.156,-33.1421,15.9302,-6.7749,0.157532,0.451355,0.520355,0.70752,788,57607,3285,2984,-30105
1896,67734,5.04834,8.62764,-0.244043,86.2976,-28.2568,128.216,-34.8511,14.3433,-8.91113,0.158691,0.449799,0.51886,0.709351,791,57597,3275,2984,-30105
1902,67740,4.96221,8.75205,-0.344531,86.0999,-28.2074,128.287,-35.0342,15.8081,-9.70459,0.159332,0.448944,0.518097,0.710266,795,57587,3265,2984,-30105
1908,67746,4.62246,8.84297,0.449805,85.8801,-28.158,128.375,-38.3301,18.9819,-8.54492,0.159943,0.448029,0.517273,0.711365,795,57577,3255,2984,-30105
1914,67752,4.87129,8.69941,0.0765625,85.6604,-28.103,128.441,-39.0625,15.9302,-11.0474,0.160706,0.447113,0.516418,0.712372,796,57569,3246,2984,-30105
1920,67758,4.40713,8.72334,0.789551,85.199,-27.9877,128.611,-40.8325,19.2871,-10.3149,0.161469,0.446136,0.515533,0.71344,797,57560,3227,2984,-30105
1926,67764,4.56025,8.4458,0.870898,84.9683,-27.9272,128.688,-40.8936,17.2729,-11.2305,0.162903,0.444153,0.513763,0.715637,794,57557,3213,2984,-30105
1932,67770,4.31143,8.18262,0.722559,84.7485,-27.8558,128.765,-38.5742,17.8223,-12.5732,0.163635,0.443146,0.51297,0.716644,791,57553,3199,2984,-30105
1938,67776,4.42627,8.35488,0.813477,84.5453,-27.7954,128.831,-36.9263,15.2588,-11.7798,0.164398,0.442261,0.512207,0.71759,790,57554,3184,2984,-30105
1944,67782,4.15352,8.40752,0.693848,84.3585,-27.713,128.881,-36.0718,12.0239,-15.3198,0.165283,0.441376,0.511505,0.718414,791,57555,3167,2984,-30105
1950,67788,4.43105,8.46016,0.574219,84.0289,-27.5647,128.914,-33.02,6.16455,-15.7471,0.166229,0.440643,0.510803,0.719116,786,57559,3134,2984,-30105
1956,67794,4.48848,8.89082,0.574219,83.8696,-27.4768,128.919,-34.0576,4.5166,-17.0288,0.168304,0.43927,0.509521,0.720398,784,57564,3117,2984,-30105
1962,67800,4.21094,9.1875,1.43555,83.7048,-27.4054,128.93,-34.3018,4.76074,-14.4653,0.169281,0.438629,0.50882,0.721069,784,57569,3102,2984,-30105
1968,67806,4.36885,8.57022,0.722559,83.5565,-27.334,128.914,-32.8369,1.0376,-15.3198,0.170349,0.43808,0.508148,0.721619,779,57574,3083,2984,-30105
1974,67812,3.98125,8.40273,0.636426,83.4302,-27.2516,128.892,-30.4565,-0.671387,-17.2119,0.171448,0.437561,0.507568,0.722076,774,57579,3063,2984,-30105
1980,67818,4.62246,9.26406,1.73223,83.2928,-27.0703,128.688,-22.583,-22.3389,-22.7051,0.172699,0.437286,0.507019,0.722351,763,57590,3024,2984,-30105
1986,67824,4.12002,8.52715,0.913965,83.2819,-26.9714,128.529,-18.4937,-24.9634,-23.5596,0.175903,0.437531,0.506378,0.721863,754,57594,3006,2984,-30105
1992,67830,4.78037,8.58936,1.26328,83.2874,-26.8726,128.37,-15.9912,-25.5737,-23.4375,0.17746,0.437744,0.506195,0.721497,744,57598,2990,2993,-30106
1998,67836,4.40234,8.7042,1.7418,83.3038,-26.7682,128.205,-14.4043,-27.0386,-24.4141,0.179047,0.437958,0.506042,0.721069,786,57604,2977,2993,-30106
2004,67842,4.16787,8.72334,2.55527,83.3258,-26.6638,128.035,-13.2446,-28.0762,-25.0244,0.180634,0.438232,0.505951,0.720581,822,57567,2964,2993,-30106
2010,67848,5.1584,11.0394,3.8999,83.6444,-26.3947,127.458,13.3057,-61.2793,-36.3159,0.182434,0.43869,0.506134,0.719696,872,57581,2934,2993,-30106
2016,67854,5.9623,10.9676,1.10059,83.996,-26.1694,126.942,24.1089,-88.8672,-55.9692,0.187744,0.44162,0.507965,0.71524,892,57587,2919,2993,-30106
2022,67860,7.29258,10.2163,-1.15322,84.3365,-25.9222,126.42,20.4468,-88.9893,-59.8755,0.191101,0.443237,0.509033,0.712585,907,57593,2906,2993,-30106
2028,67866,11.2595,10.7188,2.76104,84.6771,-25.6421,125.876,20.6909,-93.2007,-66.5894,0.194733,0.444824,0.510193,0.709778,916,57599,2894,2993,-30106
2034,67872,31.0844,20.8346,9.46504,85.0232,-25.2521,125.414,29.1748,-77.9419,-90.271,0.198517,0.445557,0.512085,0.70694,918,57603,2885,2993,-30106
2040,67878,12.5419,11.5514,-3.65586,85.7867,-24.071,124.991,65.6738,-9.70459,-137.756,0.201996,0.444946,0.515472,0.703827,966,57607,2878,2993,-30106
2046,67884,8.59414,14.7957,-5.34023,86.0889,-23.3459,124.926,55.481,0.793457,-153.564,0.208374,0.440125,0.524323,0.698456,1023,57604,2867,2993,-30106
2052,67890,6.33076,16.7815,-6.5126,86.2976,-22.5714,124.772,30.5176,-15.3809,-164.429,0.212982,0.437378,0.528076,0.695953,1089,57599,2867,2993,-30106
2058,67896,6.43604,16.3222,-6.60352,86.4294,-21.7749,124.481,4.15039,-39.6729,-169.8,0.218811,0.434967,0.530884,0.693512,1139,57593,2872,2993,-30106
2064,67902,8.2209,15.4704,-5.50293,86.5118,-20.9509,124.047,-14.7095,-65.8569,-177.795,0.22583,0.433014,0.53299,0.690857,1174,57586,2878,2993,-30106
2070,67908,11.2882,13.5563,-1.37813,86.5228,-19.1162,123.036,-39.5508,-75.0122,-204.651,0.233948,0.431122,0.534668,0.688049,1288,57568,2890,2993,-30106
2076,67914,11.4796,12.5371,-0.497656,86.424,-18.111,122.607,-48.2788,-63.5376,-215.82,0.250977,0.425262,0.538025,0.683044,1368,57560,2893,2993,-30106
2082,67920,11.5562,12.4701,1.09102,86.3196,-17.0398,122.217,-45.166,-56.2744,-229.797,0.259735,0.421448,0.54007,0.680542,1432,57551,2895,2993,-30106
2088,67926,11.4557,12.3218,-0.334961,86.2482,-15.8862,121.772,-41.1987,-65.6738,-247.925,0.269104,0.41748,0.542389,0.67746,1525,57580,2890,2993,-30106
2094,67932,10.3551,12.9917,1.16758,86.1823,-14.6667,121.328,-37.5366,-65.4907,-261.658,0.278778,0.413208,0.544983,0.674103,1641,57603,2884,2993,-30106
2100,67938,12.7907,11.6758,5.84746,85.979,-12.085,120.163,-45.7153,-103.638,-285.95,0.289276,0.408875,0.54715,0.670563,1731,57622,2873,2993,-30106
2106,67944,15.5087,11.9198,6.98154,85.9186,-10.6897,119.366,-43.396,-133.057,-305.786,0.312927,0.401306,0.5513,0.661041,1974,57642,2833,2993,-30106
2112,67950,17.4802,12.7716,3.90947,85.9351,-9.14612,118.493,-26.9165,-148.071,-337.83,0.326202,0.397522,0.554016,0.654602,2082,57645,2810,2993,-30106
2118,67956,18.5951,13.9248,-1.84229,86.0559,-7.43774,117.664,0.549316,-137.634,-372.131,0.33963,0.392944,0.558075,0.647064,2210,57684,2785,2993,-30106
2124,67962,19.6096,16.0016,-12.3648,86.3306,-5.57556,116.906,37.1094,-121.46,-402.283,0.352722,0.387695,0.563721,0.638245,2354,57710,2760,2993,-30106
2130,67968,18.04,24.9163,-25.8686,86.7535,-2.04346,116.016,-5.67627,-10.8032,-334.229,0.36557,0.38208,0.570709,0.628113,2670,57805,2700,2993,-30106
2136,67974,25.5049,47.5549,-30.7063,86.1493,-0.401001,116.082,-127.258,43.5181,-350.708,0.384552,0.363617,0.578064,0.620972,2845,57833,2668,2993,-30106
2142,67980,38.0994,82.6253,-73.8972,84.9957,1.6864,116.043,-239.807,37.7808,-441.284,0.398834,0.34848,0.578735,0.620026,2990,57897,2638,2993,-30106
2148,67986,18.1836,36.0753,-22.5524,83.2599,3.69141,116.246,-360.657,96.2524,-417.542,0.412628,0.33017,0.576569,0.623047,3148,57943,2604,2993,-30106
2154,67992,18.1501,26.3423,-13.4128,81.2988,5.74585,116.62,-411.987,143.494,-422.241,0.425842,0.309387,0.573578,0.627594,3318,58018,2563,2993,-30106
2160,67998,13.9392,16.3126,-8.03906,77.7887,10.1404,117.268,-352.173,146.484,-451.843,0.438293,0.287506,0.571472,0.631317,3698,58161,2457,2993,-30106
2166,68004,13.8961,13.3554,-7.53662,76.1188,12.2717,117.147,-345.276,89.4775,-448.547,0.464386,0.247772,0.566895,0.633606,3903,58223,2394,2993,-30106
2172,68010,15.0445,13.7047,-7.37393,74.6521,14.4141,116.917,-300.11,81.9092,-455.2,0.477509,0.229645,0.56485,0.632507,4077,58313,2329,2993,-30106
2178,68016,16.2504,18.7147,-15.7623,73.4106,16.6113,116.494,-243.469,60.1196,-475.098,0.490875,0.212738,0.563843,0.629089,4264,58380,2261,2993,-30106
2184,68022,10.9628,14.0109,-20.1359,71.6968,18.6383,115.906,-327.026,33.0811,-451.294,0.504791,0.195343,0.559479,0.627625,4462,58469,2185,2993,-30106
2190,68028,4.74209,-7.30215,-15.8724,67.2253,21.8298,115.664,-497.375,127.686,-297.791,0.515839,0.175934,0.552795,0.63028,4794,58687,2021,2993,-30106
2196,68034,3.39746,-13.0108,-2.05762,64.4843,22.5824,115.801,-583.557,105.652,-160.706,0.529175,0.137665,0.531219,0.647064,4987,58781,1934,2993,-30106
2202,68040,3.30654,-18.5951,9.20186,61.9958,22.9395,116.131,-549.805,107.727,-70.8008,0.531219,0.122253,0.518494,0.658722,5155,58860,1848,2993,-30106
2208,68046,7.77588,-23.0501,17.0782,60.661,23.0603,116.84,-346.985,148.01,6.10352,0.528839,0.112091,0.511871,0.667542,5298,58964,1758,2993,-30106
2214,68052,6.92891,-25.7681,7.39785,60.5347,22.9559,117.653,-112.732,142.7,55.542,0.523895,0.108643,0.511597,0.672211,5473,59056,1664,2993,-30106
2220,68058,12.049,-11.7428,-0.0765625,62.7155,21.9122,118.51,237.793,5.5542,94.0552,0.518402,0.112244,0.515533,0.672882,5722,59214,1494,2993,-30106
2226,68064,14.0396,-6.79492,-5.74219,64.314,21.1816,118.57,295.593,-32.8369,94.7266,0.509094,0.133423,0.529266,0.665436,5809,59282,1426,2993,-30106
2232,68070,16.6954,-1.52646,-8.63721,65.9399,20.462,118.63,300.232,-27.771,92.7734,0.504425,0.145081,0.536591,0.660645,5888,59345,1369,3009,-30108
2238,68076,18.5903,2.83281,-9.29756,67.5769,19.8083,118.806,296.265,-0.610352,91.2476,0.499023,0.155792,0.544312,0.656006,5962,59406,1329,3009,-30108
2244,68082,18.3798,5.62734,-8.16826,69.093,19.2151,119.196,258.972,46.4478,94.1772,0.492584,0.164337,0.551819,0.652496,6034,59422,1303,3009,-30108
2250,68088,15.3747,7.98643,-8.64678,71.5265,18.1934,120.509,158.691,118.286,97.3511,0.485413,0.170532,0.558716,0.650391,6162,59450,1290,3009,-30108
2256,68094,12.1447,6.80449,-9.3167,72.4493,17.6276,121.333,115.479,135.132,114.38,0.469421,0.178284,0.569641,0.650574,6223,59468,1301,3009,-30108
2262,68100,9.77607,5.26367,-8.56543,73.2184,16.9409,122.195,86.3037,137.024,137.268,0.460602,0.181549,0.573517,0.652557,6230,59487,1314,3009,-30108
2268,68106,8.74727,3.65107,-6.93848,73.916,16.1115,123.041,73.7305,129.028,163.208,0.451294,0.185394,0.57663,0.655243,6241,59504,1337,3009,-30108
2274,68112,8.99609,2.38779,-5.38809,74.5862,15.1227,123.871,73.6694,121.46,191.223,0.441345,0.190155,0.579254,0.658325,6256,59525,1365,3009,-30108
2280,68118,9.80957,1.34463,-3.32568,75.9485,12.7441,125.634,79.7119,129.761,245.239,0.430511,0.195587,0.581665,0.661774,6257,59500,1444,3009,-30108
2286,68124,9.25449,1.00488,-2.44521,76.6351,11.3873,126.601,82.3975,139.893,267.639,0.405701,0.207642,0.586151,0.669769,6248,59497,1489,3009,-30108
2292,68130,8.04863,0.693848,-1.84229,77.3273,9.93713,127.601,87.1582,147.278,285.645,0.391968,0.214081,0.588287,0.674042,6245,59498,1535,3009,-30108
2298,68136,6.44082,0.401953,-1.27764,78.0304,8.41003,128.595,96.1914,147.522,299.194,0.377655,0.220917,0.590393,0.678162,6204,59468,1584,3009,-30108
2304,68142,4.79473,0.16748,-1.03838,78.7225,6.82251,129.556,101.257,144.653,309.875,0.362976,0.228088,0.592316,0.682098,6185,59451,1638,3009,-30108
2310,68148,2.00977,1.62695,-0.689063,80.376,3.44421,131.045,152.71,91.3086,322.693,0.348358,0.236572,0.594421,0.684998,6049,59373,1755,3009,-30108
2316,68154,1.804,2.33994,-1.03359,81.3153,1.65894,131.501,175.293,53.894,328.735,0.320099,0.257538,0.598511,0.687683,5983,59310,1813,3009,-30108
2322,68160,2.96201,3.46924,-1.44512,82.326,-0.197754,131.781,192.2,24.231,339.111,0.306427,0.27002,0.60022,0.687592,5890,59264,1878,3009,-30108
2328,68166,4.55068,5.01963,-2.11025,83.3698,-2.0929,131.918,202.515,0.427246,343.201,0.29306,0.283325,0.601685,0.686798,5823,59229,1948,3009,-30108
2334,68172,5.7374,6.62266,-2.75625,84.4354,-3.99353,131.924,205.75,-18.0054,343.994,0.280029,0.297089,0.602753,0.685486,5729,59162,2020,3009,-30108
2340,68178,9.73301,8.98174,-3.2252,86.5613,-7.81677,131.776,205.688,-23.4375,345.764,0.267059,0.311066,0.603485,0.683838,5477,59029,2176,3009,-30108
2346,68184,11.0633,10.2498,-3.13428,87.6105,-9.67896,131.704,204.346,-13.0615,340.088,0.240845,0.337708,0.604462,0.680023,5362,58958,2252,3059,-30114
2352,68190,11.2021,10.9149,-3.2252,88.6707,-11.4972,131.666,207.336,-0.488281,334.351,0.227417,0.350037,0.605042,0.677917,5274,58901,2328,3059,-30114
2358,68196,11.7619,13.7143,-3.18691,89.6429,-13.2935,131.693,194.275,19.6533,331.116,0.213745,0.361389,0.605255,0.676208,5162,58856,2406,3059,-30114
2364,68202,11.7332,14.9345,-4.40713,90.5109,-15.0677,131.792,178.345,38.3301,328.247,0.199921,0.371765,0.605042,0.674988,5030,58778,2491,3059,-30114
2370,68208,10.3312,15.9489,-5.39287,91.9885,-18.5724,132.198,153.931,73.3032,325.562,0.185883,0.381317,0.604431,0.674225,4878,58712,2573,3059,-30114
2376,68214,9.21621,16.4466,-4.92871,92.5928,-20.3137,132.473,141.663,85.4492,324.707,0.157288,0.398224,0.602173,0.673767,4616,58609,2738,3059,-30114
2382,68220,7.93857,16.3844,-4.23486,93.1256,-22.0441,132.781,130.188,92.8955,323.364,0.143036,0.405884,0.600403,0.67395,4455,58572,2817,3059,-30114
2388,68226,6.78057,16.0351,-3.65107,93.62,-23.7524,133.077,124.634,93.6279,320.19,0.128967,0.413239,0.598419,0.674072,4331,58541,2898,3059,-30114
2394,68232,6.24463,16.2887,-3.08164,94.1089,-25.4169,133.352,123.108,91.4307,314.331,0.115204,0.420319,0.596344,0.674011,4188,58475,2982,3059,-30114
