TimeSinceCollection,Timestamp,AccX,AccY,AccZ,AngleRoll,AnglePitch,AngleYaw,AngularVelX,AngularVelY,             AngularVelZ,Q1,Q2,Q3,Q4,MagX,MagY,MagZ,Height,Airpressure
0,246276,5.03398,8.30703,-0.435449,91.3458,-31.7944,134.088,-1.95313,1.46484,0.427246,0.081604,0.44458,0.558868,0.69516,64995,57890,3902,3118,-30121
6,246282,5.10576,8.45059,-0.497656,91.3184,-31.7944,134.11,-2.86865,1.70898,0.549316,0.0815735,0.444489,0.558807,0.695251,64999,57891,3902,3118,-30121
12,246288,5.14404,8.39316,-0.478516,91.3074,-31.7999,134.121,-2.80762,2.2583,0.549316,0.0815735,0.444458,0.558777,0.695313,65002,57891,3903,3118,-30121
18,246294,5.13447,8.36924,-0.512012,91.2909,-31.7999,134.132,-2.86865,2.44141,0.305176,0.081543,0.444397,0.558716,0.695404,65003,57890,3901,3118,-30121
24,246300,5.08184,8.40752,-0.488086,91.2744,-31.7999,134.143,-2.99072,2.50244,0.305176,0.081543,0.444305,0.558685,0.695496,65004,57891,3900,3118,-30121
30,246306,5.04355,8.43623,-0.435449,91.2579,-31.7999,134.16,-3.23486,2.74658,0.488281,0.0815125,0.444244,0.558624,0.695587,65005,57892,3900,3118,-30121
36,246312,5.05791,8.32139,-0.411523,91.236,-31.7999,134.176,-3.35693,2.50244,0.427246,0.0814819,0.444092,0.558502,0.69577,65002,57891,3899,3118,-30121
42,246318,5.0627,8.40752,-0.378027,91.2085,-31.7999,134.198,-2.80762,2.38037,0.549316,0.0814514,0.444,0.558472,0.695862,65002,57892,3901,3118,-30121
48,246324,5.09141,8.35488,-0.387598,91.192,-31.7999,134.214,-2.92969,2.38037,0.488281,0.0814209,0.443939,0.558411,0.695953,65005,57893,3900,3118,-30121
54,246330,5.10098,8.34053,-0.421094,91.1755,-31.7999,134.225,-2.74658,2.50244,0.427246,0.0814209,0.443878,0.55838,0.696045,65005,57893,3899,3118,-30121
60,246336,5.03877,8.38838,-0.382813,91.1591,-31.8054,134.236,-2.86865,2.31934,0.488281,0.0813904,0.443787,0.558319,0.696106,65003,57893,3899,3118,-30121
66,246342,5.0627,8.37881,-0.406738,91.1426,-31.8054,134.253,-2.92969,2.44141,0.549316,0.0813599,0.443726,0.558289,0.696198,65001,57895,3899,3118,-30121
72,246348,5.05791,8.35967,-0.416309,91.1151,-31.8054,134.275,-2.56348,2.13623,0.427246,0.0813293,0.443573,0.558197,0.696381,64999,57897,3897,3118,-30121
78,246354,5.05791,8.42188,-0.401953,91.1041,-31.8054,134.291,-2.50244,2.31934,0.549316,0.0812988,0.443512,0.558136,0.696442,64997,57899,3893,3118,-30121
84,246360,5.07705,8.39316,-0.368457,91.0876,-31.8054,134.302,-2.86865,2.19727,0.244141,0.0812683,0.443451,0.558105,0.696533,64996,57901,3891,3118,-30121
90,246366,5.08662,8.33574,-0.425879,91.0767,-31.8054,134.313,-2.44141,1.83105,0.427246,0.0812683,0.44339,0.558075,0.696594,64999,57902,3889,3118,-30121
96,246372,5.05791,8.42188,-0.387598,91.0657,-31.8054,134.319,-2.0752,1.83105,0.488281,0.0812378,0.443329,0.558044,0.696655,65001,57903,3886,3118,-30121
102,246378,5.04355,8.31182,-0.392383,91.0547,-31.8054,134.33,-2.19727,1.34277,0.488281,0.0812073,0.443207,0.557953,0.696808,65005,57905,3884,3118,-30121
108,246384,5.05791,8.3501,-0.392383,91.0382,-31.8109,134.346,-1.89209,1.15967,0.549316,0.0811768,0.443176,0.557922,0.696838,65009,57906,3883,3118,-30121
114,246390,5.08662,8.4123,-0.378027,91.0327,-31.8109,134.346,-1.89209,0.915527,0.427246,0.0811768,0.443146,0.557922,0.696899,65010,57906,3881,3118,-30121
120,246396,5.08184,8.4123,-0.30625,91.0217,-31.8109,134.352,-2.01416,1.09863,0.610352,0.0811768,0.443115,0.557892,0.69693,65010,57906,3877,3118,-30121
126,246402,5.04355,8.34053,-0.344531,91.0162,-31.8109,134.357,-1.89209,0.976563,0.671387,0.0811462,0.443085,0.557861,0.69696,65012,57906,3875,3118,-30121
132,246408,5.04834,8.33574,-0.344531,91.0107,-31.8109,134.363,-1.28174,0.732422,0.549316,0.0811157,0.443054,0.557831,0.697021,65010,57907,3871,3118,-30121
138,246414,5.11533,8.46973,-0.440234,91.0107,-31.8164,134.363,-1.0376,0.305176,0.671387,0.0811157,0.443054,0.557831,0.697021,65007,57908,3871,3118,-30121
144,246420,5.14883,8.43145,-0.421094,91.0052,-31.8164,134.368,-1.58691,0.732422,0.549316,0.0811157,0.443054,0.557831,0.697021,65008,57909,3873,3118,-30121
150,246426,5.09141,8.38838,-0.363672,90.9998,-31.8164,134.374,-1.83105,0.854492,0.610352,0.0810852,0.443054,0.5578,0.697052,65010,57908,3874,3118,-30121
156,246432,5.03877,8.33096,-0.29668,90.9943,-31.8164,134.379,-1.40381,1.0376,0.610352,0.0810852,0.443024,0.55777,0.697083,65011,57908,3875,3118,-30121
162,246438,5.05312,8.3501,-0.368457,90.9943,-31.8164,134.379,-1.0376,0.366211,0.549316,0.0810547,0.442993,0.55777,0.697113,65013,57911,3880,3118,-30121
168,246444,5.11055,8.49365,-0.416309,90.9943,-31.8219,134.379,-1.2207,0.12207,0.671387,0.0810547,0.442993,0.55777,0.697113,65016,57913,3879,3118,-30121
174,246450,5.08662,8.39316,-0.416309,90.9888,-31.8219,134.385,-1.89209,0.488281,0.549316,0.0810242,0.442993,0.55777,0.697113,65016,57914,3876,3118,-30121
180,246456,5.12012,8.32139,-0.478516,90.9888,-31.8219,134.385,-1.34277,0.366211,0.427246,0.0810242,0.442993,0.557739,0.697144,65017,57916,3874,3118,-30121
186,246462,5.14883,8.42188,-0.502441,90.9888,-31.8219,134.385,-1.2207,0.549316,0.488281,0.0810242,0.442993,0.557739,0.697144,65022,57917,3873,3118,-30121
192,246468,5.09619,8.51279,-0.488086,90.9833,-31.8219,134.39,-1.58691,0.671387,0.366211,0.0810242,0.442963,0.557709,0.697174,65026,57919,3872,3118,-30121
198,246474,5.11533,8.38359,-0.478516,90.9723,-31.8219,134.396,-2.44141,1.2207,0.427246,0.0810242,0.442932,0.557648,0.697235,65024,57918,3866,3118,-30121
204,246480,5.09619,8.42188,-0.392383,90.9503,-31.8219,134.407,-2.86865,1.40381,0.183105,0.0810547,0.442902,0.557617,0.697296,65025,57919,3862,3118,-30121
210,246486,5.10098,8.38838,-0.416309,90.9338,-31.8219,134.412,-2.74658,1.58691,0.305176,0.0810547,0.442841,0.557556,0.697357,65025,57918,3861,3118,-30121
216,246492,5.11533,8.38838,-0.397168,90.9229,-31.8219,134.423,-2.56348,1.58691,0.244141,0.0810547,0.44281,0.557526,0.697449,65022,57915,3861,3118,-30121
222,246498,5.08184,8.38838,-0.363672,90.9119,-31.8219,134.429,-2.74658,1.70898,0.366211,0.0810547,0.442749,0.557465,0.69751,65021,57916,3857,3118,-30121
228,246504,5.07227,8.35967,-0.354102,90.9009,-31.8219,134.44,-2.62451,1.64795,0.427246,0.0810547,0.442688,0.557434,0.697571,65022,57916,3854,3118,-30121
234,246510,5.00527,8.32617,-0.272754,90.8789,-31.8219,134.451,-2.38037,1.40381,0.366211,0.0810547,0.442627,0.557343,0.697693,65020,57915,3853,3118,-30121
240,246516,5.02441,8.30225,-0.311035,90.8679,-31.8219,134.456,-2.01416,1.0376,0.488281,0.0810547,0.442566,0.557312,0.697754,65019,57914,3850,3118,-30121
246,246522,5.02441,8.33096,-0.301465,90.8679,-31.8219,134.462,-1.52588,0.610352,0.488281,0.0810547,0.442535,0.557281,0.697784,65021,57915,3848,3118,-30121
252,246528,5.05791,8.37402,-0.354102,90.8624,-31.8219,134.456,-1.46484,0.183105,0.549316,0.0810547,0.442535,0.557251,0.697815,65022,57915,3846,3118,-30121
258,246534,5.08184,8.37402,-0.368457,90.8624,-31.8274,134.462,-1.52588,0.305176,0.671387,0.0810547,0.442535,0.557251,0.697815,65023,57915,3843,3118,-30121
264,246540,5.07705,8.33096,-0.282324,90.8569,-31.8274,134.462,-1.28174,0.366211,0.549316,0.0810547,0.442535,0.55719,0.697845,65028,57919,3840,3118,-30121
270,246546,5.0292,8.32139,-0.239258,90.8514,-31.8274,134.462,-1.15967,0.427246,0.488281,0.0810547,0.442535,0.55719,0.697876,65030,57921,3841,3118,-30121
276,246552,5.00049,8.28311,-0.263184,90.8569,-31.8274,134.462,-0.915527,-0.0610352,0.610352,0.0810547,0.442535,0.55719,0.697876,65027,57921,3839,3118,-30121
282,246558,5.00527,8.32139,-0.282324,90.8569,-31.8274,134.462,-0.366211,-0.12207,0.610352,0.0810547,0.442535,0.55719,0.697876,65026,57922,3837,3118,-30121
288,246564,5.01006,8.35488,-0.277539,90.8624,-31.8329,134.456,-0.305176,-0.671387,0.732422,0.0810242,0.442566,0.55719,0.697845,65026,57924,3838,3118,-30121
294,246570,5.0292,8.38359,-0.31582,90.8734,-31.8329,134.451,-0.12207,-0.976563,0.671387,0.0810242,0.442627,0.55722,0.697784,65025,57925,3840,3118,-30121
300,246576,5.07227,8.35967,-0.358887,90.8899,-31.8329,134.44,0.427246,-1.0376,0.732422,0.0810242,0.442657,0.55722,0.697754,65024,57924,3845,3118,-30121
306,246582,5.08662,8.38359,-0.368457,90.9009,-31.8384,134.429,0.366211,-1.0376,0.671387,0.0810242,0.442719,0.557281,0.697693,65027,57923,3849,3118,-30121
312,246588,5.09619,8.4123,-0.430664,90.9064,-31.8384,134.423,0.0610352,-0.915527,0.671387,0.0809937,0.442749,0.557312,0.697632,65028,57922,3851,3118,-30121
318,246594,5.07705,8.41709,-0.449805,90.9119,-31.8384,134.418,0,-1.09863,0.793457,0.0809937,0.44281,0.557312,0.697601,65027,57921,3852,3118,-30121
324,246600,5.12969,8.40273,-0.449805,90.9229,-31.8384,134.412,0,-1.2207,0.671387,0.0809937,0.442841,0.557343,0.697571,65027,57920,3849,3118,-30121
330,246606,5.1249,8.41709,-0.425879,90.9393,-31.8439,134.401,-0.12207,-0.671387,0.488281,0.0810242,0.442932,0.557373,0.697479,65028,57919,3849,3118,-30121
336,246612,5.12969,8.43145,-0.397168,90.9393,-31.8439,134.396,-0.610352,-0.305176,0.610352,0.0810242,0.442963,0.557404,0.697418,65028,57918,3852,3118,-30121
342,246618,5.11055,8.37402,-0.397168,90.9448,-31.8439,134.396,-0.732422,-0.244141,0.549316,0.0809937,0.442993,0.557404,0.697418,65028,57919,3855,3118,-30121
348,246624,5.0627,8.36445,-0.378027,90.9448,-31.8439,134.396,-0.549316,-0.305176,0.427246,0.0809937,0.442993,0.557404,0.697418,65031,57920,3859,3118,-30121
354,246630,5.10098,8.38359,-0.397168,90.9503,-31.8439,134.39,-0.366211,-0.488281,0.488281,0.0809937,0.443024,0.557404,0.697388,65031,57920,3861,3118,-30121
360,246636,5.14883,8.4458,-0.449805,90.9558,-31.8439,134.385,-0.305176,-0.549316,0.488281,0.0809937,0.443054,0.557434,0.697327,65032,57919,3866,3118,-30121
366,246642,5.16318,8.44102,-0.45459,90.9558,-31.8439,134.385,-1.09863,-0.0610352,0.549316,0.0809937,0.443085,0.557434,0.697327,65036,57919,3865,3118,-30121
372,246648,5.13447,8.43145,-0.468945,90.9558,-31.8439,134.385,-1.0376,0.427246,0.366211,0.0809937,0.443085,0.557434,0.697327,65037,57917,3865,3118,-30121
378,246654,5.1249,8.43145,-0.430664,90.9503,-31.8439,134.385,-1.52588,0.549316,0.366211,0.0809937,0.443085,0.557434,0.697327,65035,57916,3863,3118,-30121
384,246660,5.09619,8.40752,-0.416309,90.9503,-31.8439,134.39,-1.40381,0.488281,0.305176,0.0809937,0.443054,0.557434,0.697357,65035,57916,3862,3118,-30121
390,246666,5.11055,8.39795,-0.435449,90.9448,-31.8439,134.39,-1.46484,0.610352,0.488281,0.0810242,0.443054,0.557404,0.697357,65036,57916,3861,3118,-30121
396,246672,5.14404,8.43623,-0.47373,90.9338,-31.8494,134.396,-2.01416,0.732422,0.427246,0.0809937,0.443024,0.557373,0.697418,65035,57917,3862,3118,-30121
402,246678,5.13926,8.43145,-0.483301,90.9283,-31.8494,134.401,-2.2583,1.2207,0.305176,0.0810242,0.443024,0.557343,0.697449,65035,57918,3860,3118,-30121
408,246684,5.14883,8.4123,-0.497656,90.9119,-31.8494,134.407,-2.62451,1.64795,0.305176,0.0810242,0.442993,0.557312,0.69751,65036,57920,3859,3118,-30121
414,246690,5.14404,8.41709,-0.440234,90.9009,-31.8494,134.418,-2.86865,1.70898,0.183105,0.0810242,0.442932,0.557251,0.697571,65035,57920,3855,3118,-30121
420,246696,5.10098,8.37881,-0.416309,90.8844,-31.8494,134.423,-2.92969,1.83105,0.305176,0.0810242,0.442871,0.55722,0.697632,65033,57920,3851,3118,-30121
426,246702,5.08184,8.40273,-0.421094,90.8679,-31.8439,134.434,-3.11279,2.0752,0.183105,0.0810242,0.44278,0.557098,0.697784,65031,57923,3848,3118,-30121
432,246708,5.07705,8.38359,-0.387598,90.835,-31.8439,134.456,-3.23486,2.38037,0.183105,0.0810242,0.442688,0.557068,0.697876,65030,57922,3849,3118,-30121
438,246714,5.06748,8.34053,-0.330176,90.8185,-31.8439,134.473,-3.2959,2.50244,0.183105,0.0810242,0.442627,0.557007,0.697968,65027,57922,3852,3118,-30121
444,246720,5.08184,8.34531,-0.378027,90.802,-31.8439,134.484,-3.05176,2.44141,0.366211,0.0810242,0.442535,0.556946,0.698059,65027,57922,3855,3118,-30121
450,246726,5.05791,8.37402,-0.363672,90.7855,-31.8439,134.495,-3.05176,2.56348,0.183105,0.0810242,0.442474,0.556885,0.698151,65031,57923,3856,3118,-30121
456,246732,5.05791,8.36924,-0.363672,90.769,-31.8439,134.511,-3.11279,2.38037,0.305176,0.0809937,0.442322,0.556793,0.698334,65034,57921,3856,3118,-30121
462,246738,5.07227,8.41709,-0.330176,90.7361,-31.8439,134.533,-3.11279,2.56348,0.244141,0.0809937,0.442261,0.556732,0.698425,65036,57922,3854,3118,-30121
468,246744,5.07705,8.40273,-0.320605,90.7141,-31.8439,134.55,-3.2959,2.68555,0.427246,0.0809631,0.442169,0.556671,0.698517,65038,57923,3853,3118,-30121
474,246750,5.04355,8.36924,-0.282324,90.6976,-31.8439,134.561,-3.23486,2.56348,0.488281,0.0809631,0.442078,0.55661,0.698608,65037,57922,3853,3118,-30121
480,246756,5.00527,8.35967,-0.215332,90.6812,-31.8439,134.577,-2.92969,2.31934,0.366211,0.0809326,0.442017,0.556549,0.69873,65035,57922,3851,3118,-30121
486,246762,5.02441,8.30225,-0.258398,90.6702,-31.8439,134.583,-2.44141,1.77002,0.488281,0.0809326,0.441956,0.556488,0.698792,65034,57922,3852,3118,-30121
492,246768,5.01006,8.37881,-0.258398,90.6482,-31.8494,134.599,-2.0752,1.28174,0.732422,0.0809021,0.441864,0.556427,0.698914,65031,57922,3852,3118,-30121
498,246774,5.05791,8.33096,-0.215332,90.6427,-31.8494,134.604,-2.01416,1.15967,0.610352,0.0808716,0.441833,0.556396,0.698975,65028,57922,3851,3118,-30121
504,246780,5.04834,8.28789,-0.291895,90.6372,-31.8494,134.61,-1.40381,1.0376,0.671387,0.0808716,0.441803,0.556366,0.699005,65027,57921,3851,3118,-30121
510,246786,5.05312,8.38838,-0.30625,90.6372,-31.8494,134.615,-1.0376,0.976563,0.610352,0.0808411,0.441772,0.556335,0.699036,65028,57920,3851,3118,-30121
516,246792,5.0627,8.38359,-0.334961,90.6317,-31.8494,134.621,-1.0376,1.0376,0.671387,0.0808105,0.441742,0.556335,0.699066,65027,57919,3848,3118,-30121
522,246798,5.12012,8.36445,-0.344531,90.6317,-31.8549,134.626,-1.15967,0.732422,0.854492,0.0807495,0.441711,0.556335,0.699097,65026,57919,3844,3118,-30121
528,246804,5.08184,8.42666,-0.334961,90.6262,-31.8549,134.632,-0.915527,0.793457,0.488281,0.080719,0.441711,0.556335,0.699097,65028,57919,3838,3118,-30121
534,246810,5.04834,8.36445,-0.320605,90.6262,-31.8549,134.637,-0.976563,0.976563,0.549316,0.080719,0.441681,0.556335,0.699127,65028,57918,3835,3118,-30121
540,246816,5.04834,8.41709,-0.287109,90.6262,-31.8604,134.637,-0.732422,0.488281,0.854492,0.0806885,0.44165,0.556335,0.699127,65028,57916,3831,3118,-30121
546,246822,5.05791,8.35967,-0.30625,90.6207,-31.8604,134.643,-1.0376,0.610352,0.854492,0.080658,0.441681,0.556335,0.699127,65029,57916,3827,3118,-30121
552,246828,5.09619,8.32617,-0.411523,90.6262,-31.8604,134.643,-0.549316,0.12207,0.549316,0.0806274,0.44165,0.556335,0.699158,65029,57917,3824,3118,-30121
558,246834,5.09619,8.40273,-0.301465,90.6207,-31.8658,134.648,-0.976563,0.732422,0.671387,0.0805969,0.441681,0.556335,0.699127,65029,57918,3824,3118,-30121
564,246840,5.07227,8.30703,-0.320605,90.6207,-31.8658,134.648,-0.854492,0.488281,0.671387,0.0805664,0.44165,0.556335,0.699158,65031,57918,3824,3118,-30121
570,246846,5.06748,8.32139,-0.349316,90.6262,-31.8658,134.648,-0.427246,0.671387,0.549316,0.0805664,0.44165,0.556335,0.699158,65033,57917,3824,3118,-30121
576,246852,5.06748,8.40752,-0.339746,90.6262,-31.8658,134.654,-0.549316,0.427246,0.549316,0.0805359,0.44165,0.556366,0.699158,65032,57916,3823,3118,-30121
582,246858,5.12969,8.39316,-0.421094,90.6262,-31.8713,134.654,-0.549316,0.549316,0.732422,0.0805054,0.44165,0.556366,0.699158,65033,57919,3821,3118,-30121
588,246864,5.16318,8.46016,-0.392383,90.6262,-31.8713,134.654,-1.0376,0.915527,0.488281,0.0804749,0.44165,0.556366,0.699158,65034,57919,3822,3118,-30121
594,246870,5.09619,8.44102,-0.416309,90.6152,-31.8713,134.67,-1.52588,1.70898,0.549316,0.0804443,0.44162,0.556366,0.699158,65033,57921,3822,3118,-30121
600,246876,5.07705,8.35967,-0.358887,90.6097,-31.8713,134.676,-1.64795,1.34277,0.549316,0.0804443,0.441589,0.556366,0.699219,65033,57921,3823,3118,-30121
606,246882,5.06748,8.37881,-0.330176,90.6042,-31.8713,134.681,-1.40381,1.28174,0.488281,0.0804138,0.441559,0.556335,0.699249,65034,57922,3822,3118,-30121
612,246888,5.0627,8.35488,-0.301465,90.5988,-31.8713,134.687,-1.34277,1.15967,0.366211,0.0803833,0.441528,0.556335,0.69928,65036,57921,3820,3118,-30121
618,246894,5.08184,8.36924,-0.311035,90.5933,-31.8713,134.687,-1.28174,0.793457,0.427246,0.0803833,0.441467,0.556305,0.69931,65040,57918,3818,3118,-30121
624,246900,5.08662,8.35967,-0.30625,90.5933,-31.8768,134.692,-0.915527,0.488281,0.488281,0.0803528,0.441467,0.556305,0.699341,65045,57915,3818,3118,-30121
630,246906,5.10576,8.41709,-0.301465,90.5933,-31.8768,134.692,-0.854492,0.549316,0.610352,0.0803528,0.441467,0.556305,0.699341,65048,57913,3817,3118,-30121
636,246912,5.08662,8.40273,-0.397168,90.5933,-31.8768,134.692,-1.0376,0.366211,0.549316,0.0803528,0.441467,0.556305,0.699341,65047,57912,3815,3118,-30121
642,246918,5.11055,8.36924,-0.430664,90.5933,-31.8768,134.692,-1.0376,0.427246,0.488281,0.0803528,0.441467,0.556274,0.699341,65048,57912,3813,3118,-30121
648,246924,5.14404,8.39795,-0.349316,90.5878,-31.8768,134.692,-1.34277,0.427246,0.549316,0.0803223,0.441467,0.556274,0.699341,65052,57916,3815,3118,-30121
654,246930,5.05791,8.4123,-0.330176,90.5823,-31.8823,134.698,-1.58691,0.976563,0.671387,0.0803223,0.441467,0.556244,0.699371,65052,57918,3816,3118,-30121
660,246936,5.00527,8.35488,-0.244043,90.5768,-31.8823,134.703,-1.70898,0.793457,0.488281,0.0803223,0.441437,0.556213,0.699402,65053,57919,3817,3118,-30121
666,246942,5.00049,8.25918,-0.143555,90.5713,-31.8823,134.703,-1.2207,0.244141,0.610352,0.0803223,0.441437,0.556183,0.699432,65056,57920,3817,3118,-30121
672,246948,5.02441,8.25439,-0.129199,90.5768,-31.8823,134.698,-0.183105,-0.12207,0.671387,0.0803223,0.441437,0.556183,0.699463,65057,57921,3816,3118,-30121
678,246954,5.03877,8.32139,-0.239258,90.5878,-31.8823,134.692,0.305176,-0.793457,0.549316,0.0803223,0.441467,0.556183,0.699432,65055,57920,3815,3118,-30121
684,246960,5.13447,8.47451,-0.382813,90.5933,-31.8878,134.687,-0.0610352,-0.976563,0.732422,0.0802917,0.441559,0.556244,0.699341,65053,57919,3817,3118,-30121
690,246966,5.13447,8.42188,-0.425879,90.6097,-31.8878,134.676,-0.671387,-0.793457,0.610352,0.0803223,0.441589,0.556274,0.69928,65053,57918,3819,3118,-30121
696,246972,5.15361,8.40273,-0.416309,90.6097,-31.8878,134.67,-0.793457,-0.671387,0.671387,0.0803223,0.44162,0.556274,0.69928,65051,57917,3819,3118,-30121
702,246978,5.1249,8.40752,-0.354102,90.6097,-31.8933,134.665,-1.09863,-0.244141,0.671387,0.0803528,0.44165,0.556244,0.699249,65051,57917,3818,3118,-30121
708,246984,5.09619,8.39316,-0.301465,90.6097,-31.8933,134.665,-1.0376,-0.183105,0.549316,0.0803528,0.441681,0.556244,0.699249,65052,57917,3817,3118,-30121
714,246990,5.03398,8.33574,-0.277539,90.6152,-31.8933,134.659,-0.793457,-0.183105,0.610352,0.0803528,0.441711,0.556213,0.699219,65049,57915,3823,3118,-30121
720,246996,5.0627,8.38359,-0.354102,90.6262,-31.8933,134.648,-0.0610352,-0.915527,0.671387,0.0803528,0.441772,0.556244,0.699188,65051,57914,3828,3118,-30121
726,247002,5.13926,8.42666,-0.392383,90.6317,-31.8988,134.643,-0.244141,-0.915527,0.671387,0.0803833,0.441803,0.556244,0.699158,65054,57915,3833,3118,-30121
732,247008,5.15361,8.42188,-0.392383,90.6372,-31.8988,134.637,-0.549316,-0.732422,0.610352,0.0803833,0.441833,0.556244,0.699127,65056,57915,3832,3118,-30121
738,247014,5.1584,8.39795,-0.387598,90.6427,-31.8988,134.632,-0.610352,-0.183105,0.610352,0.0803833,0.441895,0.556274,0.699097,65056,57917,3831,3118,-30121
744,247020,5.13447,8.36924,-0.392383,90.6427,-31.8988,134.632,-0.549316,-0.12207,0.244141,0.0803833,0.441895,0.556274,0.699097,65058,57919,3827,3118,-30121
750,247026,5.07227,8.36445,-0.378027,90.6427,-31.8988,134.626,-0.732422,-0.183105,0.488281,0.0803833,0.441925,0.556274,0.699066,65057,57919,3827,3118,-30121
756,247032,5.08662,8.37402,-0.363672,90.6482,-31.8988,134.621,-0.671387,-0.305176,0.549316,0.0803833,0.441925,0.556274,0.699036,65055,57919,3829,3118,-30121
762,247038,5.09141,8.39316,-0.363672,90.6537,-31.8988,134.621,-0.854492,-0.427246,0.488281,0.0804138,0.441956,0.556274,0.699036,65052,57920,3831,3118,-30121
768,247044,5.13447,8.38359,-0.349316,90.6537,-31.9043,134.615,-0.671387,-0.244141,0.610352,0.0804138,0.441986,0.556274,0.699005,65053,57922,3833,3118,-30121
774,247050,5.11533,8.40273,-0.368457,90.6592,-31.9043,134.615,-0.671387,-0.12207,0.610352,0.0804138,0.442017,0.556274,0.699005,65052,57922,3838,3118,-30121
780,247056,5.13447,8.39316,-0.368457,90.6592,-31.9043,134.615,-1.0376,0,0.366211,0.0804138,0.442017,0.556274,0.698975,65052,57922,3846,3118,-30121
786,247062,5.09141,8.35967,-0.311035,90.6592,-31.9043,134.61,-1.0376,-0.0610352,0.427246,0.0804138,0.442047,0.556274,0.699005,65054,57922,3847,3118,-30121
792,247068,5.06748,8.3501,-0.31582,90.6592,-31.9043,134.61,-0.915527,-0.0610352,0.488281,0.0804443,0.442047,0.556274,0.698975,65054,57919,3844,3118,-30121
798,247074,5.07227,8.31182,-0.248828,90.6592,-31.9043,134.604,-0.793457,-0.12207,0.488281,0.0804443,0.442047,0.556274,0.698975,65052,57919,3841,3118,-30121
804,247080,5.0627,8.3166,-0.258398,90.6647,-31.9043,134.604,-0.671387,-0.366211,0.366211,0.0804443,0.442078,0.556274,0.698975,65052,57919,3837,3118,-30121
810,247086,5.04834,8.34053,-0.272754,90.6702,-31.9043,134.599,-0.305176,-0.610352,0.488281,0.0804443,0.442078,0.556274,0.698944,65054,57919,3833,3118,-30121
816,247092,5.05791,8.30225,-0.282324,90.6812,-31.9043,134.588,0.0610352,-0.976563,0.610352,0.0804749,0.442139,0.556305,0.698883,65052,57920,3832,3118,-30121
822,247098,5.0627,8.33096,-0.334961,90.6921,-31.9098,134.577,0.488281,-1.2207,0.549316,0.0804749,0.4422,0.556305,0.698853,65053,57922,3831,3118,-30121
828,247104,5.09619,8.39795,-0.368457,90.7031,-31.9098,134.572,0.671387,-1.2207,0.549316,0.0804749,0.44223,0.556335,0.698792,65054,57923,3834,3118,-30121
834,247110,5.13447,8.46016,-0.425879,90.7141,-31.9098,134.561,0.244141,-1.2207,0.732422,0.0804749,0.442291,0.556396,0.69873,65052,57924,3834,3118,-30121
840,247116,5.11533,8.45059,-0.387598,90.7251,-31.9098,134.555,-0.12207,-1.09863,0.488281,0.0804749,0.442352,0.556396,0.698669,65050,57924,3835,3118,-30121
846,247122,5.14883,8.39316,-0.411523,90.7306,-31.9098,134.55,-0.0610352,-0.732422,0.366211,0.0804749,0.442413,0.556427,0.698608,65050,57926,3841,3118,-30121
852,247128,5.13926,8.43623,-0.416309,90.7416,-31.9098,134.539,-0.549316,-0.427246,0.549316,0.0805054,0.442444,0.556458,0.698547,65049,57925,3844,3118,-30121
858,247134,5.14404,8.4458,-0.406738,90.7416,-31.9098,134.539,-0.793457,-0.305176,0.549316,0.0805054,0.442474,0.556458,0.698547,65049,57923,3846,3118,-30121
864,247140,5.11533,8.42188,-0.387598,90.7416,-31.9098,134.533,-1.15967,-0.12207,0.305176,0.0805054,0.442505,0.556458,0.698517,65052,57923,3846,3118,-30121
870,247146,5.08662,8.32617,-0.330176,90.7416,-31.9098,134.533,-1.0376,-0.12207,0.366211,0.0805054,0.442505,0.556458,0.698517,65055,57921,3843,3118,-30121
876,247152,5.10098,8.32139,-0.339746,90.7416,-31.9153,134.528,-0.854492,-0.244141,0.610352,0.0805359,0.442535,0.556458,0.698517,65055,57919,3841,3118,-30121
882,247158,5.14883,8.43145,-0.425879,90.7526,-31.9153,134.522,-0.549316,-0.305176,0.488281,0.0805359,0.442566,0.556458,0.698486,65056,57921,3843,3118,-30121
888,247164,5.16318,8.43623,-0.435449,90.7526,-31.9153,134.522,-1.15967,0,0.488281,0.0805359,0.442596,0.556458,0.698486,65059,57921,3847,3118,-30121
894,247170,5.14883,8.37881,-0.425879,90.7471,-31.9153,134.522,-1.52588,0.183105,0.366211,0.0805359,0.442596,0.556458,0.698486,65058,57921,3849,3118,-30121
900,247176,5.14404,8.37881,-0.358887,90.7471,-31.9153,134.522,-1.52588,0.244141,0.549316,0.0805664,0.442596,0.556427,0.698486,65058,57921,3849,3118,-30121
906,247182,5.09141,8.39316,-0.325391,90.7416,-31.9153,134.522,-1.34277,0.549316,0.366211,0.0805664,0.442596,0.556396,0.698517,65060,57921,3847,3118,-30121
912,247188,5.07227,8.37402,-0.330176,90.7361,-31.9153,134.522,-1.28174,0.366211,0.427246,0.0805664,0.442596,0.556366,0.698547,65060,57920,3844,3118,-30121
918,247194,5.09619,8.35488,-0.29668,90.7361,-31.9153,134.522,-1.28174,0.488281,0.427246,0.0805664,0.442596,0.556366,0.698547,65059,57920,3842,3118,-30121
924,247200,5.07227,8.37881,-0.258398,90.7306,-31.9153,134.522,-1.28174,0.366211,0.305176,0.0805664,0.442596,0.556335,0.698578,65059,57921,3839,3118,-30121
930,247206,5.05791,8.34531,-0.311035,90.7306,-31.9153,134.522,-0.854492,0.12207,0.366211,0.0805969,0.442566,0.556335,0.698578,65060,57920,3836,3118,-30121
936,247212,5.0627,8.37881,-0.401953,90.7361,-31.9153,134.522,-0.610352,-0.12207,0.366211,0.0805969,0.442596,0.556335,0.698578,65056,57919,3832,3118,-30121
942,247218,5.14883,8.4123,-0.368457,90.7361,-31.9153,134.517,-0.854492,-0.0610352,0.244141,0.0805969,0.442596,0.556335,0.698547,65051,57919,3830,3118,-30121
948,247224,5.10098,8.35488,-0.253613,90.7251,-31.9153,134.522,-1.77002,0.732422,0.366211,0.0805969,0.442596,0.556305,0.698578,65049,57918,3829,3118,-30121
954,247230,5.03877,8.27354,-0.29668,90.7251,-31.9153,134.522,-1.09863,0.488281,0.305176,0.0806274,0.442596,0.556305,0.698608,65046,57918,3829,3118,-30121
960,247236,5.04834,8.32617,-0.358887,90.7251,-31.9153,134.522,-0.549316,0.0610352,0.366211,0.0806274,0.442566,0.556274,0.698608,65043,57917,3828,3118,-30121
966,247242,5.12012,8.43623,-0.421094,90.7306,-31.9153,134.517,-0.366211,-0.427246,0.244141,0.0806274,0.442566,0.556305,0.698608,65044,57918,3824,3118,-30121
972,247248,5.16797,8.47451,-0.411523,90.7306,-31.9153,134.517,-1.46484,0.12207,0.366211,0.0806274,0.442596,0.556305,0.698578,65041,57916,3821,3118,-30121
978,247254,5.09619,8.36445,-0.277539,90.7196,-31.9153,134.522,-1.70898,0.793457,0.427246,0.080658,0.442596,0.556274,0.698608,65042,57916,3823,3118,-30121
984,247260,5.05312,8.34531,-0.368457,90.7141,-31.9153,134.522,-1.09863,0.427246,0.305176,0.080658,0.442566,0.556244,0.698639,65043,57916,3825,3118,-30121
990,247266,5.04355,8.38838,-0.354102,90.7141,-31.9153,134.522,-1.0376,0.12207,0.366211,0.080658,0.442566,0.556244,0.698639,65045,57915,3832,3118,-30121
996,247272,5.10098,8.42188,-0.387598,90.7141,-31.9153,134.522,-1.28174,-0.244141,0.366211,0.080658,0.442566,0.556244,0.698639,65045,57914,3836,3118,-30121
1002,247278,5.14404,8.39316,-0.349316,90.7141,-31.9153,134.517,-1.52588,-0.0610352,0.244141,0.0806885,0.442596,0.556213,0.698639,65048,57914,3843,3118,-30121
1008,247284,5.05791,8.32139,-0.244043,90.7086,-31.9153,134.522,-1.46484,0.549316,0.488281,0.0806885,0.442566,0.556183,0.6987,65047,57914,3843,3118,-30121
1014,247290,4.97656,8.26396,-0.287109,90.7031,-31.9153,134.522,-0.793457,0,0.488281,0.0806885,0.442566,0.556152,0.6987,65044,57914,3846,3118,-30121
1020,247296,5.01484,8.36445,-0.234473,90.7086,-31.9208,134.517,-0.244141,-0.549316,0.610352,0.0806885,0.442566,0.556152,0.6987,65043,57915,3848,3118,-30121
1026,247302,5.0627,8.35967,-0.30625,90.7141,-31.9208,134.517,-0.427246,-0.732422,0.488281,0.0806885,0.442596,0.556183,0.698669,65044,57917,3850,3118,-30121
1032,247308,5.12969,8.34531,-0.334961,90.7196,-31.9208,134.511,-0.549316,-0.793457,0.549316,0.0806885,0.442627,0.556183,0.698639,65046,57920,3850,3118,-30121
1038,247314,5.13447,8.4458,-0.401953,90.7251,-31.9208,134.506,-0.305176,-0.671387,0.488281,0.080719,0.442688,0.556213,0.698608,65048,57923,3845,3118,-30121
1044,247320,5.10098,8.42666,-0.387598,90.7306,-31.9208,134.5,-0.976563,0,0.244141,0.080719,0.442719,0.556213,0.698578,65051,57924,3843,3118,-30121
1050,247326,5.08184,8.35967,-0.373242,90.7306,-31.9208,134.5,-1.0376,-0.0610352,0.183105,0.080719,0.442719,0.556213,0.698578,65052,57925,3839,3118,-30121
1056,247332,5.08662,8.35488,-0.358887,90.7306,-31.9208,134.495,-0.488281,-0.244141,0.488281,0.080719,0.442719,0.556213,0.698578,65051,57925,3838,3118,-30121
1062,247338,5.11533,8.38359,-0.344531,90.7361,-31.9208,134.495,-0.671387,-0.12207,0.427246,0.080719,0.442719,0.556213,0.698547,65050,57925,3838,3118,-30121
1068,247344,5.12012,8.39795,-0.401953,90.7361,-31.9208,134.495,-1.0376,-0.12207,0.12207,0.080719,0.442749,0.556213,0.698547,65052,57927,3841,3118,-30121
1074,247350,5.10098,8.38838,-0.320605,90.7361,-31.9153,134.495,-1.0376,0.366211,0.183105,0.0807495,0.442749,0.556213,0.698547,65052,57927,3841,3118,-30121
1080,247356,5.03877,8.35488,-0.291895,90.7306,-31.9153,134.495,-1.0376,0.12207,0.244141,0.0807495,0.442719,0.556213,0.698547,65052,57927,3839,3118,-30121
1086,247362,5.0292,8.33574,-0.282324,90.7361,-31.9153,134.489,-0.793457,-0.366211,0.244141,0.08078,0.442719,0.556213,0.698547,65052,57928,3834,3118,-30121
1092,247368,5.01006,8.34531,-0.344531,90.7416,-31.9153,134.484,-0.549316,-1.0376,0.366211,0.08078,0.442749,0.556213,0.698547,65052,57928,3828,3118,-30121
1098,247374,5.07227,8.35488,-0.358887,90.7471,-31.9153,134.473,-0.427246,-1.28174,0.305176,0.0808105,0.44278,0.556213,0.698517,65048,57928,3825,3118,-30121
1104,247380,5.14404,8.38359,-0.363672,90.7526,-31.9153,134.467,-0.610352,-0.976563,0.549316,0.0808716,0.442871,0.556244,0.698425,65047,57930,3828,3118,-30121
1110,247386,5.12969,8.30703,-0.349316,90.7635,-31.9153,134.456,-0.610352,-0.793457,0.0610352,0.0808716,0.442902,0.556244,0.698395,65046,57930,3831,3118,-30121
1116,247392,5.12969,8.35967,-0.382813,90.769,-31.9153,134.451,-0.244141,-0.488281,0.12207,0.0809021,0.442932,0.556244,0.698364,65045,57929,3834,3118,-30121
1122,247398,5.14404,8.43145,-0.425879,90.769,-31.9098,134.445,-0.488281,-0.305176,0.0610352,0.0809326,0.442932,0.556274,0.698334,65045,57929,3836,3118,-30121
1128,247404,5.12969,8.43145,-0.430664,90.769,-31.9098,134.445,-0.976563,-0.0610352,0,0.0809326,0.442963,0.556305,0.698334,65046,57930,3839,3118,-30121
1134,247410,5.10098,8.37881,-0.397168,90.769,-31.9098,134.445,-1.0376,-0.0610352,0.305176,0.0809631,0.442963,0.556305,0.698334,65043,57931,3844,3118,-30121
1140,247416,5.04355,8.35967,-0.311035,90.78,-31.9043,134.44,-0.549316,-0.549316,-0.0610352,0.0809631,0.442963,0.556305,0.698303,65043,57931,3846,3118,-30121
1146,247422,5.08184,8.36445,-0.320605,90.78,-31.9043,134.434,-0.366211,-0.549316,0,0.0809937,0.442963,0.556335,0.698303,65045,57931,3847,3118,-30121
1152,247428,5.10098,8.39795,-0.349316,90.791,-31.9043,134.434,-0.12207,-0.671387,0.183105,0.0809937,0.442993,0.556335,0.698273,65045,57929,3848,3118,-30121
1158,247434,5.04834,8.4123,-0.29668,90.791,-31.9043,134.429,-0.549316,-0.305176,0.366211,0.0810242,0.442993,0.556366,0.698212,65044,57927,3848,3118,-30121
1164,247440,5.01484,8.34053,-0.301465,90.7965,-31.9043,134.423,-0.549316,-0.671387,0.366211,0.0810242,0.443024,0.556396,0.698212,65045,57925,3851,3118,-30121
1170,247446,5.01006,8.40273,-0.325391,90.802,-31.9043,134.418,0,-1.0376,0.488281,0.0810242,0.443054,0.556427,0.698151,65045,57923,3851,3118,-30121
1176,247452,5.10576,8.36924,-0.358887,90.8185,-31.9043,134.407,-0.366211,-1.28174,0.305176,0.0810242,0.443085,0.556427,0.69812,65043,57921,3849,3118,-30121
1182,247458,5.11533,8.33096,-0.411523,90.824,-31.9043,134.401,-0.12207,-1.15967,0.610352,0.0810547,0.443146,0.556458,0.698059,65045,57921,3847,3118,-30121
1188,247464,5.09619,8.40752,-0.325391,90.8295,-31.9043,134.396,0,-0.610352,0.305176,0.0810852,0.443176,0.556458,0.698029,65046,57921,3845,3118,-30121
1194,247470,5.10098,8.37402,-0.363672,90.8405,-31.9043,134.39,0,-0.793457,0.549316,0.0810852,0.443207,0.556488,0.697998,65046,57921,3844,3118,-30121
1200,247476,5.05791,8.39795,-0.349316,90.8459,-31.9043,134.385,0.305176,-0.427246,0.549316,0.0810547,0.443268,0.556549,0.697906,65044,57919,3844,3118,-30121
1206,247482,5.08184,8.33096,-0.392383,90.8624,-31.9043,134.374,0.427246,-1.0376,0.549316,0.0810547,0.443298,0.55658,0.697876,65045,57919,3846,3118,-30121
1212,247488,5.0627,8.40273,-0.368457,90.8734,-31.9098,134.368,0.549316,-0.915527,0.793457,0.0810547,0.443329,0.55661,0.697815,65044,57919,3847,3118,-30121
1218,247494,5.08662,8.41709,-0.358887,90.8844,-31.9098,134.363,0.12207,-0.915527,0.793457,0.0810242,0.44339,0.556641,0.697784,65042,57919,3850,3118,-30121
1224,247500,5.06748,8.32139,-0.368457,90.8899,-31.9098,134.363,0.0610352,-0.793457,0.732422,0.0810242,0.44342,0.556671,0.697723,65041,57919,3853,3118,-30121
1230,247506,5.09141,8.36924,-0.358887,90.9009,-31.9098,134.352,0.610352,-1.15967,0.610352,0.0810242,0.443451,0.556671,0.697693,65042,57920,3860,3118,-30121
1236,247512,4.96221,8.43145,-0.401953,90.9283,-31.9098,134.33,0.305176,-2.62451,0.427246,0.0809937,0.443542,0.556763,0.697571,65041,57918,3863,3118,-30121
1242,247518,5.09619,8.40752,-0.334961,90.9448,-31.9153,134.313,0.244141,-3.05176,0.671387,0.0810242,0.443634,0.556793,0.697479,65044,57917,3863,3118,-30121
1248,247524,5.29717,8.39316,-0.425879,90.9558,-31.9153,134.297,0.366211,-2.56348,0.671387,0.0810852,0.443726,0.556824,0.697418,65045,57916,3862,3118,-30121
1254,247530,5.33545,8.42666,-0.478516,90.9668,-31.9153,134.291,0.0610352,-0.976563,0.305176,0.0811157,0.443817,0.556824,0.697327,65043,57914,3859,3118,-30121
1260,247536,5.20147,8.48887,-0.440234,90.9668,-31.9153,134.291,-0.305176,0.12207,0.305176,0.0811157,0.443848,0.556854,0.697266,65041,57912,3857,3118,-30121
1266,247542,5.04355,8.34531,-0.440234,90.9668,-31.9153,134.297,-0.854492,0.305176,0.305176,0.0810852,0.443848,0.556885,0.697266,65044,57911,3857,3118,-30121
1272,247548,5.07705,8.35967,-0.488086,90.9723,-31.9153,134.291,-0.427246,-0.610352,0.12207,0.0810852,0.443848,0.556885,0.697266,65047,57910,3857,3118,-30121
1278,247554,5.14404,8.44102,-0.459375,90.9723,-31.9153,134.286,-0.671387,-0.549316,0.427246,0.0811157,0.443848,0.556885,0.697266,65046,57908,3857,3118,-30121
1284,247560,5.18232,8.48887,-0.397168,90.9723,-31.9098,134.286,-1.46484,-0.12207,0.244141,0.0811157,0.443878,0.556885,0.697235,65049,57908,3857,3118,-30121
1290,247566,5.12969,8.35488,-0.421094,90.9668,-31.9098,134.286,-1.95313,0.366211,0.244141,0.0811462,0.443878,0.556885,0.697235,65049,57906,3856,3118,-30121
1296,247572,5.07705,8.33574,-0.401953,90.9613,-31.9098,134.286,-1.34277,0.183105,0.244141,0.0811768,0.443878,0.556854,0.697266,65044,57904,3850,3118,-30121
1302,247578,4.98613,8.48887,-0.239258,90.9613,-31.9098,134.286,-1.2207,0.671387,0.549316,0.0811768,0.443878,0.556854,0.697266,65044,57905,3846,3118,-30121
1308,247584,4.96221,8.28311,-0.239258,90.9558,-31.9153,134.286,-1.40381,0.183105,0.793457,0.0811768,0.443878,0.556824,0.697296,65042,57904,3841,3118,-30121
1314,247590,5.01963,8.2209,-0.311035,90.9668,-31.9153,134.28,0.0610352,-0.793457,0.793457,0.0811768,0.443878,0.556793,0.697296,65040,57904,3837,3118,-30121
1320,247596,5.08184,8.3501,-0.45459,90.9778,-31.9153,134.269,0.793457,-1.77002,0.610352,0.0811768,0.443909,0.556824,0.697266,65041,57905,3837,3118,-30121
1326,247602,5.03398,8.44102,-0.488086,90.9943,-31.9153,134.253,0.549316,-2.44141,0.366211,0.0811768,0.44397,0.556854,0.697205,65045,57909,3845,3118,-30121
1332,247608,5.30674,8.43623,-0.387598,91.0107,-31.9208,134.236,-0.793457,-0.793457,0.915527,0.0812378,0.444153,0.556915,0.697052,65045,57909,3850,3118,-30121
1338,247614,5.2876,8.30703,-0.363672,91.0107,-31.9263,134.236,-0.854492,0.549316,0.793457,0.0812378,0.444183,0.556885,0.697021,65043,57909,3853,3118,-30121
1344,247620,5.16318,8.37881,-0.401953,91.0052,-31.9263,134.242,-0.488281,1.28174,0.366211,0.0812073,0.444183,0.556885,0.697021,65043,57910,3856,3118,-30121
1350,247626,5.05791,8.46016,-0.421094,91.0052,-31.9263,134.247,-0.549316,1.15967,0.488281,0.0811768,0.444153,0.556915,0.697052,65043,57910,3856,3118,-30121
1356,247632,5.04355,8.4123,-0.531152,91.0052,-31.9263,134.253,-0.915527,0.610352,0.549316,0.0811462,0.444122,0.556915,0.697052,65042,57908,3855,3118,-30121
1362,247638,5.1249,8.42666,-0.421094,91.0052,-31.9263,134.253,-1.0376,0.244141,0.793457,0.0811157,0.444122,0.556915,0.697083,65040,57905,3857,3118,-30121
1368,247644,4.97656,8.45537,-0.0526367,90.9943,-31.9318,134.269,-1.15967,2.62451,1.0376,0.0810852,0.444122,0.556885,0.697083,65041,57903,3859,3118,-30121
1374,247650,4.78994,8.17305,0.129199,90.9888,-31.9373,134.286,-0.854492,2.0752,1.2207,0.0810242,0.444061,0.556885,0.697144,65039,57901,3861,3118,-30121
1380,247656,4.62246,7.93379,0.119629,90.9998,-31.9427,134.286,1.83105,0.244141,1.34277,0.0809326,0.444031,0.556885,0.697174,65036,57901,3863,3118,-30121
1386,247662,4.61768,8.0917,0.124414,91.0327,-31.9482,134.275,4.76074,-2.50244,1.95313,0.0808411,0.444031,0.556946,0.697144,65037,57902,3864,3118,-30121
1392,247668,4.71816,8.24004,0,91.0822,-31.9537,134.247,6.10352,-4.69971,2.19727,0.0807495,0.444153,0.557068,0.69696,65035,57902,3863,3118,-30121
1398,247674,4.97656,8.29746,-0.29668,91.203,-31.9757,134.176,7.75146,-7.38525,2.74658,0.0805969,0.44458,0.557434,0.696442,65036,57903,3861,3118,-30121
1404,247680,5.18232,8.35967,-0.564648,91.2689,-31.9867,134.132,8.11768,-7.93457,2.62451,0.0805359,0.444885,0.557617,0.696106,65038,57903,3858,3118,-30121
1410,247686,5.44551,8.4793,-0.832617,91.3348,-31.9922,134.088,7.99561,-7.69043,2.38037,0.0804749,0.44519,0.557831,0.69574,65039,57903,3857,3118,-30121
1416,247692,5.65605,8.69463,-1.05752,91.3953,-32.0032,134.05,6.83594,-5.98145,1.95313,0.0804138,0.445496,0.558014,0.695404,65037,57901,3855,3118,-30121
1422,247698,5.7374,8.8334,-1.11973,91.4282,-32.0087,134.039,4.21143,-2.44141,1.70898,0.0803833,0.44574,0.558197,0.695099,65034,57900,3854,3118,-30121
1428,247704,5.18232,8.58457,-0.411523,91.4337,-32.0142,134.044,0.244141,4.94385,1.95313,0.0802002,0.445862,0.55835,0.694916,65037,57898,3856,3118,-30121
1434,247710,4.67031,8.30703,0.133984,91.4117,-32.0306,134.105,0.305176,5.49316,2.13623,0.0800171,0.44574,0.55838,0.694977,65036,57897,3859,3118,-30121
1440,247716,4.47412,8.00078,0.153125,91.4172,-32.0416,134.116,2.50244,2.31934,2.38037,0.079834,0.445618,0.55838,0.695068,65036,57897,3866,3118,-30121
1446,247722,4.58418,7.94336,-0.200977,91.4612,-32.0526,134.105,6.46973,-2.50244,3.05176,0.0796509,0.445618,0.558472,0.695038,65038,57898,3873,3118,-30121
1452,247728,4.94785,8.33096,-0.497656,91.5216,-32.0636,134.072,8.17871,-5.67627,3.05176,0.0794983,0.44577,0.558624,0.694824,65038,57896,3880,3118,-30121
1458,247734,5.33545,8.57979,-0.818262,91.582,-32.0746,134.033,7.32422,-6.22559,3.05176,0.0792847,0.44632,0.55899,0.694214,65040,57893,3883,3118,-30121
1464,247740,5.72783,8.65635,-1.03359,91.6534,-32.0966,134,3.35693,-0.915527,2.56348,0.0792236,0.446503,0.559113,0.694,65043,57891,3885,3118,-30121
1470,247746,5.58906,8.70898,-0.952246,91.6534,-32.1021,134.011,1.09863,2.62451,1.89209,0.0791016,0.446625,0.559204,0.693878,65046,57890,3885,3118,-30121
1476,247752,5.34023,8.59414,-0.775195,91.6425,-32.113,134.039,-0.732422,4.94385,1.95313,0.078949,0.446594,0.559235,0.693878,65047,57888,3885,3118,-30121
1482,247758,5.11055,8.35488,-0.708203,91.6205,-32.1185,134.066,-1.28174,5.61523,1.89209,0.0787964,0.446503,0.559204,0.69397,65049,57928,3889,3118,-30121
1488,247764,4.8043,8.36924,-0.267969,91.615,-32.135,134.099,0.549316,5.67627,2.80762,0.0786438,0.446381,0.559204,0.694092,65051,57958,3897,3118,-30121
1494,247770,4.31621,8.06777,0.564648,91.6315,-32.1735,134.149,5.12695,2.92969,5.06592,0.0780945,0.446198,0.559265,0.694214,65048,57949,3903,3118,-30121
1500,247776,4.25879,7.87637,0.425879,91.6864,-32.1954,134.138,9.46045,-1.95313,5.5542,0.0777893,0.446228,0.559357,0.694122,65047,57943,3908,3118,-30121
1506,247782,4.46455,7.93857,-0.0574219,91.7853,-32.2229,134.094,13.7329,-8.36182,6.16455,0.0774841,0.446442,0.55957,0.693878,65047,57937,3911,3118,-30121
1512,247788,4.84736,8.15869,-0.593359,91.9171,-32.2504,134.017,17.2119,-13.6108,6.28662,0.0772095,0.446838,0.559875,0.69339,65048,57971,3914,3118,-30121
1518,247794,5.50771,8.38838,-1.3542,92.0654,-32.2723,133.918,17.9443,-17.2119,6.28662,0.0770264,0.447418,0.560272,0.692719,65048,58002,3914,3118,-30121
1524,247800,7.05332,9.07744,-2.91895,92.2028,-32.2943,133.819,9.94873,-10.9863,3.41797,0.0768433,0.448822,0.561035,0.691223,65054,58053,3916,3118,-30121
1530,247806,7.34043,9.57031,-2.90937,92.3016,-32.3108,133.742,0.305176,0.305176,1.64795,0.0768127,0.44928,0.561279,0.690735,65054,58074,3918,3118,-30121
1536,247812,6.89063,9.41719,-2.20117,92.2083,-32.3163,133.819,-11.2305,14.8926,0.366211,0.0767822,0.449341,0.561279,0.690704,65055,58094,3920,3118,-30121
1542,247818,6.05801,9.04395,-1.09102,92.049,-32.3218,133.967,-17.0288,26.1841,0.183105,0.0766296,0.448914,0.561005,0.691223,65057,58113,3929,3118,-30121
1548,247824,4.98613,8.51758,-0.215332,91.8677,-32.3328,134.138,-18.7988,30.5176,0.671387,0.0763245,0.44812,0.560577,0.692078,65062,58129,3940,3118,-30121
1554,247830,4.04824,7.75674,-0.215332,91.7084,-32.3383,134.297,-17.0288,27.9541,0.732422,0.075592,0.44635,0.559723,0.694,65069,58156,3958,3118,-30121
1560,247836,4.42627,7.80459,-0.588574,91.5216,-32.3492,134.467,-8.72803,11.1084,0.854492,0.0753174,0.44577,0.559448,0.694641,65074,58169,3960,3118,-30121
1566,247842,5.16318,8.30703,-1.23936,91.4777,-32.3547,134.489,-7.50732,5.24902,1.0376,0.0752258,0.445465,0.559235,0.695007,65081,58140,3960,3118,-30121
1572,247848,5.80918,8.75205,-1.65566,91.4227,-32.3547,134.5,-10.498,4.08936,0.183105,0.0752258,0.445343,0.559052,0.695251,65086,58154,3957,3118,-30121
1578,247854,6.32119,9.03438,-1.55518,91.3293,-32.3492,134.539,-15.9912,8.42285,-1.09863,0.0753479,0.445221,0.558777,0.695526,65090,58127,3957,3118,-30121
1584,247860,6.20635,8.32139,-0.823047,91.181,-32.3383,134.626,-22.3999,16.6016,-2.31934,0.0756226,0.444397,0.557831,0.696777,65098,58082,3956,3118,-30121
1590,247866,5.80918,8.00078,-0.607715,90.7965,-32.3053,134.89,-25.3296,26.3672,-4.63867,0.0756836,0.443604,0.55722,0.697754,65100,58063,3953,3118,-30121
1596,247872,5.43594,7.996,-0.382813,90.6042,-32.2778,135.033,-24.231,26.4282,-6.16455,0.0756836,0.442719,0.556641,0.698792,65102,58044,3948,3118,-30121
1602,247878,5.00049,8.0917,-0.129199,90.4285,-32.2504,135.159,-23.3154,24.4141,-6.89697,0.0757446,0.441772,0.556122,0.699799,65109,58030,3940,3118,-30121
1608,247884,4.56504,8.16826,0.200977,90.2582,-32.2174,135.275,-22.3389,22.3389,-6.65283,0.0758362,0.440857,0.555664,0.700714,65115,58016,3933,3118,-30121
1614,247890,4.46455,8.0917,0.358887,90.1044,-32.1954,135.385,-20.874,20.813,-4.69971,0.0760498,0.439301,0.554749,0.702423,65119,57994,3915,3118,-30121
1620,247896,4.57461,7.90508,0.191406,89.8627,-32.168,135.56,-14.0991,15.3809,-2.2583,0.0760498,0.43869,0.554352,0.703125,65122,57987,3908,3118,-30121
1626,247902,4.8665,8.15869,0.119629,89.7638,-32.157,135.632,-12.8174,14.2822,-1.83105,0.0760498,0.438171,0.554047,0.703674,65127,57981,3898,3118,-30121
1632,247908,4.87607,8.33096,0.244043,89.6539,-32.1515,135.72,-14.1602,16.5405,-1.28174,0.0760498,0.437714,0.553741,0.704193,65131,57974,3888,3118,-30121
1638,247914,4.84258,8.46494,0.459375,89.5221,-32.146,135.829,-16.2354,20.4468,-0.915527,0.0759888,0.437195,0.553436,0.704773,65134,57969,3877,3118,-30121
1644,247920,4.59375,8.24004,0.636426,89.3683,-32.1405,135.961,-17.6392,23.5596,0.0610352,0.0758362,0.436523,0.55304,0.705505,65048,57965,3855,3118,-30121
1650,247926,4.32578,7.79023,0.76084,89.0881,-32.1515,136.225,-14.0991,21.9116,1.95313,0.0753479,0.435028,0.552185,0.707123,65009,57962,3843,3118,-30121
1656,247932,4.35928,7.83809,0.832617,88.9838,-32.1625,136.335,-10.498,19.2871,2.62451,0.0750122,0.434387,0.551849,0.707855,64974,57961,3833,3118,-30121
1662,247938,4.56982,8.10606,0.794336,88.8959,-32.1735,136.445,-7.56836,18.1274,3.66211,0.074646,0.433807,0.551575,0.708435,64945,57961,3824,3118,-30121
1668,247944,4.82344,8.1874,0.689063,88.8135,-32.1899,136.555,-5.85938,18.0054,4.45557,0.0742493,0.433319,0.551392,0.708923,64920,57962,3814,3118,-30121
1674,247950,4.90957,8.20176,0.607715,88.7421,-32.2119,136.664,-4.21143,18.7378,4.69971,0.073761,0.432831,0.551239,0.709381,64895,57961,3805,3118,-30121
1680,247956,4.87129,8.07256,0.354102,88.6761,-32.2339,136.78,-0.305176,16.3574,5.61523,0.0726318,0.431824,0.551086,0.710236,64856,57961,3791,3118,-30121
1686,247962,4.87607,8.06299,0.210547,88.5992,-32.2778,136.967,2.2583,13.6108,5.31006,0.072052,0.431427,0.551086,0.710541,64841,57960,3784,3118,-30121
1692,247968,4.94785,8.24961,0.258398,88.5828,-32.2998,137.038,3.23486,10.9863,5.24902,0.0714722,0.431091,0.551147,0.710754,64828,57959,3781,3118,-30121
1698,247974,5.07227,8.26875,0.0957031,88.5773,-32.3163,137.093,2.80762,8.48389,4.63867,0.0709534,0.430847,0.551239,0.710876,64817,57958,3778,3118,-30121
1704,247980,5.25889,8.17783,-0.090918,88.5718,-32.3328,137.137,2.13623,6.22559,3.60107,0.0705261,0.430664,0.551331,0.710938,64811,57957,3775,3118,-30121
1710,247986,5.37852,8.06299,0.119629,88.5718,-32.3438,137.175,2.92969,5.43213,2.99072,0.0699158,0.43042,0.551514,0.711029,64800,57954,3769,3118,-30121
1716,247992,4.74209,8.23525,0.31582,88.5883,-32.3657,137.247,4.76074,4.76074,2.92969,0.0695801,0.430298,0.551666,0.711029,64796,57953,3763,3118,-30121
1722,247998,4.46934,8.18262,0.574219,88.6047,-32.3767,137.258,3.66211,1.34277,2.80762,0.0692444,0.430206,0.551819,0.710999,64796,57954,3759,3118,-30121
1728,248004,4.44541,7.98164,0.851758,88.6432,-32.3877,137.252,4.76074,-2.50244,3.17383,0.0690308,0.430206,0.551941,0.710938,64796,57953,3758,3118,-30121
1734,248010,4.321,7.83809,1.11973,88.6981,-32.4042,137.225,6.89697,-6.34766,3.2959,0.0688782,0.430298,0.552063,0.710754,64793,57953,3756,3118,-30121
1740,248016,4.50762,7.62275,1.10059,88.775,-32.4261,137.175,10.1318,-9.8877,5.00488,0.0687561,0.430542,0.552246,0.71048,64790,57954,3754,3118,-30121
1746,248022,4.80908,7.82373,0.741699,89.0112,-32.4536,137.043,16.2354,-14.4653,3.60107,0.0684814,0.431366,0.552887,0.709534,64789,57954,3752,3118,-30121
1752,248028,4.78037,7.76152,0.497656,89.1431,-32.4701,136.961,17.2119,-16.4185,3.479,0.0683899,0.431854,0.553314,0.708893,64786,57954,3749,3118,-30121
1758,248034,4.87607,7.7041,0.497656,89.2859,-32.4811,136.868,18.4326,-17.6392,2.92969,0.0682983,0.432404,0.553772,0.708221,64784,57953,3745,3118,-30121
1764,248040,4.76602,7.68018,0.708203,89.4397,-32.4921,136.774,19.7754,-18.7378,2.92969,0.0682373,0.433014,0.554291,0.707458,64784,57951,3744,3118,-30121
1770,248046,4.71816,7.77588,0.789551,89.61,-32.5031,136.67,22.3999,-19.8975,3.17383,0.0682068,0.433624,0.55481,0.706665,64785,57949,3743,3118,-30121
1776,248052,4.69902,8.09648,0.124414,89.7968,-32.5195,136.566,25.2686,-20.3247,3.66211,0.0679626,0.434967,0.556091,0.704865,64779,57942,3748,3118,-30121
1782,248058,4.70381,8.27354,-0.14834,90.1923,-32.558,136.34,27.0996,-22.583,4.82178,0.0677795,0.435699,0.556824,0.703857,64778,57940,3755,3118,-30121
1788,248064,4.83301,8.14912,-0.588574,90.3955,-32.58,136.208,26.4893,-25.0854,5.31006,0.0675964,0.436493,0.557526,0.70282,64775,57936,3761,3118,-30121
1794,248070,5.09141,8.15869,-0.799121,90.6097,-32.6019,136.06,26.9775,-26.6724,5.67627,0.0675049,0.437378,0.558197,0.701752,64769,57931,3767,3118,-30121
1800,248076,5.19668,8.38838,-0.741699,90.824,-32.6294,135.917,26.7334,-26.5503,6.22559,0.0674438,0.438293,0.558868,0.700623,64765,57926,3777,3118,-30121
1806,248082,5.31152,8.46973,-0.799121,91.0272,-32.6569,135.78,25.2686,-25.3906,7.01904,0.0672302,0.440186,0.56012,0.698486,64759,57958,3796,3118,-30121
1812,248088,5.77568,8.35488,-1.07187,91.3788,-32.7173,135.544,21.3013,-20.2026,7.32422,0.0670776,0.44104,0.560669,0.69751,64754,57988,3807,3118,-30121
1818,248094,5.78525,8.32617,-1.09102,91.5216,-32.7557,135.472,19.4092,-14.2212,8.23975,0.066925,0.441833,0.561157,0.696655,64751,58017,3819,3118,-30121
1824,248100,5.62256,8.39316,-0.827832,91.637,-32.7997,135.439,18.9209,-6.65283,9.8877,0.0665894,0.442444,0.561554,0.695953,64751,58041,3833,3118,-30121
1830,248106,5.54121,8.56065,-0.947461,91.7194,-32.8491,135.445,17.4561,0,10.5591,0.0660706,0.442871,0.561951,0.695404,64750,58062,3848,3118,-30121
1836,248112,5.2876,8.63242,-1.0001,91.7853,-32.9041,135.478,15.4419,4.15039,11.2305,0.0653687,0.443115,0.562317,0.695007,64742,58095,3875,3118,-30121
1842,248118,5.0627,8.72813,-1.31113,91.8951,-33.0194,135.527,12.3901,2.50244,12.8784,0.0639038,0.44342,0.562836,0.69455,64741,58109,3886,3118,-30121
1848,248124,5.31631,8.92432,-1.89014,91.9501,-33.0798,135.522,9.39941,-1.34277,12.8174,0.0632019,0.443634,0.563019,0.694336,64740,58120,3897,3118,-30121
1854,248130,5.6082,9.11572,-1.73223,91.994,-33.1403,135.5,6.53076,-3.41797,13.0005,0.0626526,0.444,0.56308,0.694092,64739,58129,3906,3118,-30121
1860,248136,6.05322,9.08701,-2.23945,92.0325,-33.1952,135.467,2.50244,-5.5542,11.8408,0.0621948,0.444397,0.56308,0.693878,64739,58138,3914,3118,-30121
1866,248142,6.61309,9.24492,-2.11025,92.049,-33.2391,135.439,-1.15967,-3.60107,10.6201,0.0619202,0.444824,0.562958,0.693726,64741,58147,3924,3118,-30121
1872,248148,7.16338,9.0918,-1.75137,92.0215,-33.2776,135.439,-6.71387,0.427246,8.17871,0.061615,0.445374,0.562439,0.693817,64741,58159,3943,3118,-30121
1878,248154,6.89063,8.98174,-1.52168,91.8457,-33.3215,135.549,-14.4043,14.2822,3.54004,0.0614929,0.445282,0.562073,0.694183,64741,58166,3951,3118,-30121
1884,248160,6.46953,8.93389,-1.26807,91.7029,-33.3325,135.665,-18.0054,20.2637,1.2207,0.0613098,0.444916,0.561646,0.694763,64745,58172,3959,3118,-30121
1890,248166,5.94316,8.86211,-0.980957,91.5381,-33.3325,135.786,-20.2637,22.3389,-0.0610352,0.0611572,0.444336,0.561188,0.695557,64749,58177,3966,3118,-30121
1896,248172,5.47422,8.68984,-0.92832,91.3788,-33.327,135.895,-20.9351,20.1416,-1.52588,0.0610046,0.443665,0.560669,0.696411,64751,58181,3970,3118,-30121
1902,248178,5.28281,8.61807,-0.832617,91.236,-33.316,135.983,-21.3013,15.7471,-2.74658,0.0611267,0.442444,0.559662,0.697998,64757,58191,3980,3118,-30121
1908,248184,5.75176,8.30703,-0.756055,90.9723,-33.2721,136.088,-21.8506,9.21631,-4.76074,0.0614014,0.441986,0.559113,0.698669,64760,58194,3982,3118,-30121
1914,248190,6.00537,8.4123,-0.727344,90.8459,-33.2446,136.137,-22.0337,9.64355,-5.98145,0.0617371,0.441589,0.558624,0.69931,64762,58198,3979,3118,-30121
1920,248196,6.04844,8.48887,-0.746484,90.7031,-33.2062,136.198,-22.8882,12.207,-6.95801,0.0621338,0.441132,0.558136,0.699921,64766,58202,3977,3118,-30121
1926,248202,6.0915,8.53672,-0.890039,90.5438,-33.1677,136.28,-24.5972,15.3809,-7.99561,0.0625,0.440582,0.557648,0.700623,64773,58207,3970,3118,-30121
1932,248208,5.79961,8.6085,-0.679492,90.3571,-33.1293,136.384,-27.3438,19.3481,-8.54492,0.0628662,0.439941,0.557129,0.701416,64782,58215,3957,3118,-30121
1938,248214,5.36895,8.10606,-0.244043,89.9561,-33.0414,136.615,-29.1138,21.4844,-9.33838,0.0635071,0.438263,0.555939,0.703369,64786,58220,3952,3118,-30121
1944,248220,5.21104,8.10606,-0.129199,89.7693,-32.9919,136.725,-27.771,20.6299,-9.64355,0.0638428,0.437347,0.555328,0.704376,64791,58225,3947,3118,-30121
1950,248226,4.99092,8.23525,0.062207,89.588,-32.948,136.829,-26.7334,19.5923,-9.46045,0.0641785,0.436493,0.554749,0.705353,64797,58231,3941,3118,-30121
1956,248232,4.81387,8.23047,0.248828,89.4122,-32.9041,136.928,-26.1841,18.0054,-9.09424,0.0645142,0.435638,0.554199,0.706268,64800,58195,3933,3118,-30121
1962,248238,4.69424,7.97207,0.411523,89.2474,-32.8601,137.01,-25.2075,15.8691,-8.72803,0.0648499,0.434845,0.55368,0.707123,64803,58165,3924,3118,-30121
1968,248244,4.62246,7.63711,0.550293,89.1046,-32.8162,137.082,-22.644,13.1836,-8.23975,0.0655823,0.433533,0.552673,0.708649,64811,58117,3907,3118,-30121
1974,248250,4.69424,7.87158,0.358887,88.9178,-32.7283,137.148,-15.3198,5.12695,-8.48389,0.065979,0.433044,0.552338,0.709167,64810,58099,3897,3118,-30121
1980,248256,4.82344,8.18262,0.267969,88.8519,-32.6898,137.153,-13.7329,2.19727,-8.11768,0.0664063,0.432678,0.552094,0.709564,64810,58083,3888,3118,-30121
1986,248262,4.95742,8.22568,0.339746,88.786,-32.6514,137.159,-14.2212,1.70898,-7.87354,0.066864,0.432404,0.55188,0.709839,64811,58070,3876,3118,-30121
1992,248268,4.98613,7.98643,0.45459,88.7201,-32.6074,137.159,-14.2212,1.52588,-7.99561,0.0673218,0.432159,0.551636,0.710144,64810,58056,3863,3118,-30121
1998,248274,5.0627,7.79023,0.382813,88.6707,-32.569,137.159,-12.6953,0.366211,-8.30078,0.0682678,0.431671,0.551208,0.710663,64809,58033,3843,3118,-30121
2004,248280,5.21582,8.27354,-0.0239258,88.6102,-32.4756,137.115,-8.91113,-3.479,-9.39941,0.0687866,0.431519,0.551086,0.710785,64811,58024,3835,3118,-30121
2010,248286,5.23496,8.59893,-0.0957031,88.5828,-32.4316,137.093,-9.52148,-2.74658,-9.64355,0.0693054,0.431396,0.551025,0.710876,64811,58015,3827,3118,-30121
2016,248292,5.24932,8.50322,-0.114844,88.5388,-32.3822,137.076,-12.0239,-1.58691,-9.94873,0.0698547,0.431274,0.550934,0.710968,64809,58007,3815,3118,-30121
2022,248298,5.36895,8.14434,-0.210547,88.4894,-32.3328,137.06,-12.9395,-2.19727,-10.2539,0.0704041,0.431061,0.550781,0.711151,64809,58000,3803,3118,-30121
2028,248304,5.43115,8.24482,-0.210547,88.4509,-32.2778,137.038,-11.6577,-2.19727,-10.9253,0.0715942,0.430664,0.550476,0.711517,64805,57992,3780,3118,-30121
2034,248310,5.31631,8.62285,-0.354102,88.3521,-32.1625,137.01,-13.7939,-0.427246,-12.0239,0.0722351,0.43045,0.550385,0.71167,64800,57988,3772,3118,-30121
2040,248316,5.14883,8.55586,-0.129199,88.2806,-32.1021,137.01,-15.8081,1.09863,-11.4746,0.0728455,0.430145,0.550232,0.711914,64798,57986,3766,3118,-30121
2046,248322,4.84736,8.50322,0.507227,88.1982,-32.0526,137.027,-16.2964,3.11279,-10.6812,0.0734558,0.42984,0.549988,0.712219,64796,57986,3762,3118,-30121
2052,248328,4.53154,8.15391,0.875684,88.1213,-31.9977,137.032,-16.1133,2.2583,-10.7422,0.0740051,0.429443,0.549744,0.712585,64794,57984,3760,3118,-30121
2058,248334,4.56504,7.7041,0.363672,88.0719,-31.9482,137.021,-7.87354,-8.30078,-10.0708,0.0751343,0.428864,0.549347,0.713135,64784,57983,3754,3118,-30121
2064,248340,4.77559,8.20176,0.0669922,88.0939,-31.8494,136.895,-4.3335,-12.5122,-9.94873,0.0757751,0.428864,0.549286,0.713074,64780,57984,3752,3118,-30121
2070,248346,5.09619,8.62764,-0.16748,88.1213,-31.8054,136.818,-4.76074,-13.5498,-9.82666,0.076416,0.428986,0.549347,0.712891,64775,57984,3749,3118,-30121
2076,248352,5.37852,8.79512,-0.244043,88.1268,-31.7505,136.747,-7.75146,-11.8408,-10.9253,0.0770874,0.429169,0.549408,0.712677,64767,57984,3746,3118,-30121
2082,248358,5.49336,8.58936,-0.196191,88.1104,-31.6956,136.686,-10.8643,-10.0708,-11.2915,0.0778198,0.42923,0.549377,0.712585,64757,57985,3742,3118,-30121
2088,248364,5.27324,8.45537,-0.0574219,88.0554,-31.5857,136.609,-11.6577,-5.7373,-11.5967,0.0792847,0.429138,0.549164,0.712616,64749,57985,3738,3118,-30121
2094,248370,5.13447,8.46016,0.110059,88.017,-31.5253,136.582,-12.8784,-4.69971,-12.3901,0.0799255,0.429016,0.549072,0.712738,64742,57986,3732,3118,-30121
2100,248376,4.96699,8.29746,0.253613,87.973,-31.4648,136.555,-13.6108,-5.06592,-12.3901,0.0806274,0.428802,0.54895,0.71286,64737,57989,3726,3118,-30121
2106,248382,4.96699,8.20176,0.210547,87.9456,-31.3989,136.511,-12.085,-7.50732,-13.1836,0.0813293,0.428619,0.548798,0.713013,64732,57990,3718,3118,-30121
2112,248388,4.93828,8.55107,-0.114844,87.9236,-31.3385,136.461,-10.6812,-8.78906,-12.6343,0.0820923,0.428467,0.548676,0.713104,64810,57992,3702,3118,-30121
2118,248394,5.61299,8.62285,-0.47373,87.8851,-31.2067,136.351,-11.4746,-8.42285,-14.3433,0.0836792,0.428345,0.548523,0.713104,64842,57994,3695,3118,-30121
2124,248400,5.45029,9.23057,-0.746484,87.8302,-31.1462,136.324,-15.4419,-3.90625,-12.7563,0.0845032,0.428253,0.548462,0.713135,64871,57995,3689,3118,-30121
2130,248406,5.23496,9.41719,-0.732129,87.7423,-31.0803,136.302,-21.8506,-3.35693,-12.8174,0.0852356,0.428009,0.548248,0.713348,64893,57995,3679,3118,-30121
2136,248412,5.33545,9.07266,-0.985742,87.6434,-31.0199,136.274,-24.7192,-3.17383,-13.3667,0.0860901,0.427765,0.547821,0.713715,64912,57996,3668,3118,-30121
2142,248418,5.75654,8.86211,-0.674707,87.5226,-30.954,136.263,-27.3438,-0.976563,-13.2446,0.0870056,0.42746,0.547363,0.714142,64949,58001,3648,3118,-30121
2148,248424,6.06758,8.78555,-0.0574219,87.226,-30.8112,136.302,-30.7007,6.71387,-15.2588,0.0887756,0.426605,0.546234,0.715271,64961,58005,3637,3118,-30121
2154,248430,5.82832,8.61807,-0.0669922,87.0557,-30.7288,136.357,-30.2734,11.2305,-16.2964,0.0896301,0.425964,0.545624,0.716003,64971,58010,3630,3118,-30121
2160,248436,5.7374,8.63242,0.0526367,86.9019,-30.6409,136.406,-27.4048,11.3525,-18.1274,0.0904236,0.425171,0.545074,0.716827,64980,57975,3624,3118,-30121
2166,248442,5.49336,8.58457,-0.660352,86.759,-30.5365,136.45,-25.8789,10.0098,-21.4844,0.0911865,0.424347,0.544647,0.717529,64986,57944,3616,3118,-30121
2172,248448,4.84736,8.90518,-0.0717773,86.6327,-30.4321,136.489,-23.4375,9.70459,-21.7285,0.0920715,0.423523,0.544281,0.71817,64993,57927,3601,3118,-30121
2178,248454,4.12002,8.60371,0.468945,86.4075,-30.2124,136.483,-24.5972,-0.244141,-22.0337,0.0939941,0.421967,0.543732,0.719269,64996,57901,3592,3118,-30121
2184,248460,4.3832,8.29746,0.358887,86.3361,-30.1135,136.428,-21.4844,-7.01904,-20.9961,0.0950928,0.421417,0.543396,0.719696,65000,57877,3579,3118,-30121
2190,248466,4.54111,8.21611,0.387598,86.3031,-30.0146,136.335,-17.8223,-13.9771,-21.7896,0.096283,0.421082,0.543152,0.71991,64999,57857,3567,3118,-30121
2196,248472,5.30674,8.68027,1.18193,86.3251,-29.9048,136.198,-11.3525,-22.2168,-23.6206,0.0975952,0.42099,0.542969,0.71994,64996,57840,3557,3118,-30121
2202,248478,5.39287,8.88125,0.617285,86.4075,-29.7675,136.005,-4.63867,-31.1279,-30.7617,0.0990295,0.421112,0.542999,0.719635,64991,57814,3537,3118,-30121
2208,248484,7.16338,10.9293,1.90928,86.6437,-29.4543,135.527,0.183105,-52.3682,-38.9404,0.102356,0.421509,0.543671,0.718445,65034,57802,3526,3118,-30121
2214,248490,11.1159,11.8193,5.6752,86.9458,-29.1797,135.022,10.9253,-85.022,-61.2183,0.104767,0.422272,0.544189,0.717255,65071,57793,3514,3118,-30121
2220,248496,12.7237,8.92432,4.01475,87.193,-28.8116,134.676,15.2588,-57.1899,-79.4067,0.108429,0.423553,0.545258,0.715118,65104,57785,3503,3118,-30121
2226,248502,11.8193,7.23037,0.870898,87.3083,-28.4216,134.621,18.2495,-5.67627,-83.1909,0.111877,0.423584,0.546875,0.713348,65128,57779,3494,3118,-30121
2232,248508,8.60371,8.94346,0.0717773,87.3853,-27.9877,134.731,26.4282,23.9258,-90.21,0.114166,0.421967,0.548859,0.712433,65156,57765,3477,3118,-30121
2238,248514,4.43105,10.5513,0.794336,87.6379,-27.0209,134.703,20.9961,-7.62939,-103.21,0.11792,0.41684,0.553986,0.710876,65161,57759,3473,3118,-30121
2244,248520,4.71338,8.94824,-0.0239258,87.7917,-26.5265,134.566,19.3481,-20.3857,-104.492,0.120789,0.414795,0.556366,0.709717,65211,57753,3471,3118,-30121
2250,248526,5.3498,8.03906,0.373242,88.0005,-26.0211,134.368,24.7192,-31.5552,-107.788,0.124054,0.413086,0.558624,0.708374,65248,57747,3470,3118,-30121
2256,248532,6.10107,8.44102,1.20586,88.2916,-25.4883,134.11,37.1094,-42.2363,-113.525,0.127594,0.411713,0.561035,0.706635,65279,57741,3471,3118,-30121
2262,248538,6.59873,9.05352,1.4499,88.6157,-24.9225,133.852,44.8608,-43.6401,-119.995,0.131317,0.410553,0.563843,0.704376,65316,57731,3475,3118,-30121
2268,248544,6.96719,9.98184,0.114844,89.2914,-23.6975,133.385,52.002,-39.978,-133.118,0.138977,0.407898,0.570282,0.699249,65368,57724,3479,3118,-30121
2274,248550,6.71357,10.4364,0.124414,89.6265,-23.0383,133.16,51.0864,-39.3677,-139.038,0.142944,0.406281,0.573822,0.696533,65403,57759,3484,3118,-30121
2280,248556,6.41211,10.5991,-0.435449,89.9341,-22.3517,132.94,46.5088,-40.5884,-144.897,0.147064,0.404449,0.577393,0.693756,65482,57790,3490,3118,-30121
2286,248562,6.6418,10.5943,-1.13408,90.2417,-21.6321,132.698,45.3491,-44.0674,-150.269,0.151489,0.402496,0.580902,0.69101,6,57816,3496,3118,-30121
2292,248568,6.36904,10.3694,-0.823047,90.5273,-20.885,132.451,41.1377,-46.6309,-156.982,0.156158,0.400482,0.584412,0.688171,130,57853,3513,3118,-30121
2298,248574,6.51738,10.6087,-1.11016,91.0876,-19.292,131.874,39.6729,-59.6924,-170.776,0.166534,0.396179,0.591217,0.682404,197,57867,3527,3118,-30121
2304,248580,6.55088,10.4795,-1.45469,91.3568,-18.4351,131.545,34.3628,-64.3921,-178.589,0.172272,0.394073,0.594666,0.679169,246,57877,3543,3118,-30121
2310,248586,6.87627,10.5943,-2.43086,91.626,-17.5342,131.199,33.8745,-69.3359,-188.354,0.178436,0.391846,0.598053,0.675903,334,57885,3559,3118,-30121
2316,248592,7.07725,10.8623,-1.69395,91.8677,-16.5839,130.831,29.2358,-73.8525,-197.632,0.184998,0.389496,0.601471,0.672455,401,57889,3579,3118,-30121
2322,248598,7.13945,10.781,-1.09102,92.0819,-15.5841,130.441,22.3999,-80.6274,-209.045,0.191986,0.386993,0.604828,0.668915,499,57891,3598,3118,-30121
2328,248604,8.0582,10.647,-0.980957,92.3016,-14.5239,130.018,23.9868,-87.7686,-219.604,0.207642,0.381592,0.611389,0.661346,673,57928,3634,3118,-30121
