TimeSinceCollection,Timestamp,AccX,AccY,AccZ,AngleRoll,AnglePitch,AngleYaw,AngularVelX,AngularVelY,             AngularVelZ,Q1,Q2,Q3,Q4,MagX,MagY,MagZ,Height,Airpressure
0,29754,4.6416,8.83818,-0.799121,91.8402,-27.6801,129.018,-6.34766,5.43213,1.83105,-0.135529,-0.450378,-0.557953,-0.683624,792,57999,3755,2976,-30208
6,29760,4.62725,8.78076,-0.727344,91.7468,-27.702,129.073,-7.93457,6.7749,1.70898,-0.135437,-0.450073,-0.557556,-0.684174,795,57998,3752,2976,-30208
12,29766,4.59854,8.72334,-0.650781,91.6919,-27.7075,129.106,-8.30078,7.50732,1.52588,-0.135406,-0.44989,-0.557343,-0.684479,797,57998,3750,2976,-30208
18,29772,4.53633,8.70898,-0.545508,91.637,-27.7185,129.144,-8.60596,7.69043,1.52588,-0.135345,-0.449677,-0.557098,-0.684814,800,57998,3752,2976,-30208
24,29778,4.49326,8.7042,-0.507227,91.582,-27.724,129.177,-8.8501,7.69043,1.70898,-0.135315,-0.449493,-0.556885,-0.68515,803,57998,3751,2976,-30208
30,29784,4.5124,8.65635,-0.492871,91.5271,-27.735,129.21,-8.8501,7.26318,1.58691,-0.135284,-0.44931,-0.556641,-0.685455,805,57998,3750,2976,-30208
36,29790,4.58896,8.6707,-0.535937,91.4172,-27.7515,129.276,-8.48389,7.20215,1.52588,-0.135223,-0.448944,-0.556183,-0.686066,814,58001,3752,2976,-30208
42,29796,4.58896,8.73291,-0.593359,91.3623,-27.757,129.309,-8.66699,7.26318,1.46484,-0.135193,-0.448761,-0.555969,-0.686371,815,58004,3749,2976,-30208
48,29802,4.61289,8.79033,-0.641211,91.3074,-27.7625,129.342,-9.21631,7.56836,1.40381,-0.135162,-0.448578,-0.555725,-0.686707,818,58008,3747,2976,-30208
54,29808,4.58896,8.81426,-0.636426,91.2469,-27.7734,129.375,-9.82666,7.99561,1.52588,-0.135132,-0.448364,-0.555481,-0.687073,822,58012,3746,2976,-30208
60,29814,4.53633,8.7042,-0.416309,91.1755,-27.7789,129.419,-10.6201,8.54492,1.40381,-0.135132,-0.44812,-0.555206,-0.687439,827,58016,3745,2976,-30208
66,29820,4.47891,8.57022,-0.287109,91.0382,-27.7954,129.496,-11.1694,8.36182,1.46484,-0.135101,-0.447662,-0.554626,-0.688232,828,58022,3739,2976,-30208
72,29826,4.45977,8.50322,-0.129199,90.9723,-27.8009,129.534,-10.498,8.17871,1.28174,-0.135101,-0.447418,-0.554352,-0.688599,833,58024,3734,2976,-30208
78,29832,4.4167,8.4458,-0.0717773,90.9119,-27.8064,129.567,-9.76563,7.20215,1.34277,-0.135071,-0.447205,-0.554077,-0.688934,837,58025,3728,2976,-30208
84,29838,4.39756,8.43623,-0.0526367,90.8624,-27.8119,129.595,-8.8501,6.04248,1.2207,-0.135101,-0.447052,-0.553864,-0.689209,840,58026,3720,2976,-30208
90,29844,4.47412,8.52236,-0.15791,90.8185,-27.8174,129.617,-7.69043,5.12695,1.09863,-0.135101,-0.44693,-0.55365,-0.689453,845,58027,3713,2976,-30208
96,29850,4.54111,8.60371,-0.258398,90.7471,-27.8229,129.644,-6.04248,3.479,0.610352,-0.135162,-0.446716,-0.553314,-0.68985,853,58033,3708,2976,-30208
102,29856,4.5459,8.63721,-0.30625,90.7196,-27.8284,129.655,-5.98145,2.99072,0.732422,-0.135193,-0.446655,-0.553162,-0.690002,854,58035,3704,2976,-30208
108,29862,4.57939,8.6707,-0.29668,90.6866,-27.8284,129.666,-5.79834,3.05176,0.488281,-0.135254,-0.446594,-0.553009,-0.690155,856,58036,3702,2976,-30208
114,29868,4.60332,8.61807,-0.334961,90.6592,-27.8284,129.672,-5.98145,2.56348,0.305176,-0.135315,-0.446503,-0.552856,-0.690308,858,58036,3699,2976,-30208
120,29874,4.60811,8.68027,-0.334961,90.6317,-27.8284,129.677,-5.67627,2.31934,0.12207,-0.135376,-0.446442,-0.552734,-0.69046,861,58037,3693,2976,-30208
126,29880,4.57461,8.70898,-0.430664,90.5768,-27.8284,129.688,-5.79834,2.19727,-0.0610352,-0.135529,-0.44632,-0.552429,-0.690735,860,58039,3681,2976,-30208
132,29886,4.59375,8.72813,-0.378027,90.5438,-27.8284,129.694,-5.98145,2.19727,-0.244141,-0.13562,-0.446259,-0.552307,-0.690887,863,58042,3678,2976,-30208
138,29892,4.55547,8.72334,-0.31582,90.5164,-27.8284,129.699,-6.28662,2.38037,-0.244141,-0.135712,-0.446198,-0.552124,-0.69104,864,58043,3674,2976,-30208
144,29898,4.52197,8.69941,-0.253613,90.4834,-27.8229,129.71,-6.40869,2.44141,-0.183105,-0.135803,-0.446106,-0.551971,-0.691193,864,58044,3671,2976,-30208
150,29904,4.5459,8.59414,-0.248828,90.4559,-27.8229,129.716,-6.16455,2.62451,-0.305176,-0.135895,-0.446014,-0.551819,-0.691345,865,58046,3668,2976,-30208
156,29910,4.54111,8.62285,-0.29668,90.401,-27.8229,129.732,-4.88281,2.19727,-0.12207,-0.136017,-0.445892,-0.551575,-0.69162,870,58051,3668,2976,-30208
162,29916,4.54111,8.69463,-0.287109,90.379,-27.8229,129.738,-4.82178,2.44141,-0.12207,-0.136078,-0.445831,-0.551483,-0.691742,869,58012,3665,2976,-30208
168,29922,4.55547,8.72334,-0.368457,90.3571,-27.8229,129.743,-4.88281,2.38037,0.0610352,-0.136139,-0.44577,-0.551361,-0.691864,868,57977,3662,2976,-30208
174,29928,4.54111,8.69463,-0.301465,90.3296,-27.8229,129.754,-5.31006,2.86865,0.0610352,-0.136169,-0.445679,-0.551208,-0.691986,868,57948,3660,2976,-30208
180,29934,4.5459,8.60371,-0.13877,90.3021,-27.8229,129.76,-5.18799,3.17383,0.0610352,-0.13623,-0.445618,-0.551086,-0.692139,869,57922,3655,2976,-30208
186,29940,4.47891,8.62285,-0.16748,90.2472,-27.8229,129.787,-4.39453,3.35693,0.244141,-0.136292,-0.445435,-0.550873,-0.692413,868,57875,3645,2976,-30208
192,29946,4.47412,8.6085,-0.186621,90.2252,-27.8229,129.792,-4.08936,2.99072,0.305176,-0.136322,-0.445374,-0.550751,-0.692535,870,57854,3643,2976,-30208
198,29952,4.48369,8.66592,-0.186621,90.2032,-27.8229,129.798,-3.72314,2.56348,0.305176,-0.136353,-0.445343,-0.550659,-0.692627,872,57877,3644,2976,-30208
204,29958,4.47891,8.74248,-0.181836,90.1868,-27.8229,129.803,-3.60107,2.2583,0.366211,-0.136353,-0.445282,-0.550568,-0.692719,875,57896,3643,2976,-30208
210,29964,4.54111,8.63721,-0.143555,90.1703,-27.8284,129.809,-3.96729,2.2583,0.610352,-0.136383,-0.445251,-0.550476,-0.692841,876,57911,3641,2976,-30208
216,29970,4.50762,8.66113,-0.172266,90.1318,-27.8284,129.825,-3.2959,2.44141,0.305176,-0.136444,-0.44516,-0.550293,-0.693024,881,57940,3642,2976,-30208
222,29976,4.48369,8.59893,-0.153125,90.1154,-27.8339,129.831,-3.17383,2.38037,0.610352,-0.136444,-0.445099,-0.550201,-0.693115,881,57952,3640,2976,-30208
228,29982,4.48369,8.62285,-0.119629,90.0989,-27.8339,129.842,-2.86865,2.13623,0.671387,-0.136444,-0.445068,-0.55014,-0.693207,882,57964,3641,2976,-30208
234,29988,4.5124,8.62285,-0.129199,90.0879,-27.8394,129.847,-2.74658,2.0752,0.732422,-0.136444,-0.445038,-0.550049,-0.693298,884,57975,3642,2976,-30208
240,29994,4.54111,8.62764,-0.258398,90.0769,-27.8394,129.853,-2.31934,1.77002,0.427246,-0.136444,-0.445007,-0.550018,-0.693359,836,57984,3640,2976,-30208
246,30000,4.59375,8.6707,-0.220117,90.0549,-27.8448,129.858,-2.31934,1.46484,0.549316,-0.136444,-0.444977,-0.549896,-0.693451,849,57999,3636,2976,-30208
252,30006,4.59375,8.70898,-0.267969,90.0439,-27.8448,129.864,-2.38037,1.58691,0.549316,-0.136444,-0.444946,-0.549835,-0.693512,805,57965,3634,2976,-30208
258,30012,4.58418,8.7042,-0.301465,90.033,-27.8503,129.869,-2.50244,1.83105,0.549316,-0.136444,-0.444916,-0.549774,-0.693573,765,57976,3634,2976,-30208
264,30018,4.55068,8.71377,-0.272754,90.022,-27.8503,129.875,-2.56348,1.89209,0.549316,-0.136444,-0.444885,-0.549744,-0.693665,777,57986,3632,2976,-30208
270,30024,4.51719,8.69941,-0.177051,90.0055,-27.8503,129.88,-2.68555,1.83105,0.671387,-0.136444,-0.444855,-0.549652,-0.693726,788,57994,3626,2976,-30208
276,30030,4.5124,8.63242,-0.191406,89.9835,-27.8558,129.886,-2.92969,1.2207,0.610352,-0.136475,-0.444794,-0.54953,-0.693848,811,57932,3618,2976,-30208
282,30036,4.55068,8.58457,-0.133984,89.9725,-27.8613,129.886,-2.31934,0.915527,0.549316,-0.136505,-0.444794,-0.549469,-0.693909,819,57904,3613,2976,-30208
288,30042,4.5124,8.61328,-0.172266,89.967,-27.8613,129.886,-1.83105,0.915527,0.488281,-0.136505,-0.444794,-0.549408,-0.693939,827,57881,3610,2976,-30208
294,30048,4.53633,8.69463,-0.239258,89.9615,-27.8613,129.886,-1.83105,0.671387,0.305176,-0.136536,-0.444794,-0.549377,-0.69397,786,57860,3609,2976,-30208
300,30054,4.59854,8.74248,-0.311035,89.9561,-27.8613,129.886,-2.0752,0.549316,0.305176,-0.136566,-0.444824,-0.549316,-0.694,749,57841,3609,2976,-30208
306,30060,4.57461,8.79512,-0.311035,89.9396,-27.8613,129.88,-2.19727,0.427246,0.0610352,-0.136658,-0.444824,-0.549225,-0.694061,734,57808,3607,2976,-30208
312,30066,4.60332,8.7377,-0.291895,89.9286,-27.8613,129.875,-2.86865,0.488281,0.183105,-0.136719,-0.444824,-0.549133,-0.694092,702,57793,3610,2976,-30208
318,30072,4.59375,8.7042,-0.15791,89.9176,-27.8613,129.875,-2.80762,0.732422,0.244141,-0.136749,-0.444824,-0.549072,-0.694153,673,57820,3613,2976,-30208
324,30078,4.55547,8.68984,-0.13877,89.9066,-27.8613,129.88,-2.80762,1.09863,0.12207,-0.13678,-0.444794,-0.549011,-0.694214,646,57844,3615,2976,-30208
330,30084,4.52197,8.61807,-0.143555,89.8956,-27.8613,129.886,-2.56348,1.0376,0,-0.13678,-0.444763,-0.548981,-0.694275,672,57867,3614,2976,-30208
336,30090,4.52676,8.58457,-0.153125,89.8792,-27.8613,129.886,-2.13623,0.183105,0.183105,-0.136841,-0.444733,-0.548859,-0.694336,623,57830,3611,2976,-30208
342,30096,4.54111,8.63721,-0.172266,89.8792,-27.8613,129.88,-1.64795,-0.0610352,0.244141,-0.136871,-0.444733,-0.548828,-0.694366,651,57814,3609,2976,-30208
348,30102,4.5459,8.70898,-0.239258,89.8737,-27.8613,129.875,-1.64795,-0.488281,-0.12207,-0.136932,-0.444763,-0.548798,-0.694366,676,57800,3606,2976,-30208
354,30108,4.56504,8.75684,-0.325391,89.8737,-27.8613,129.869,-2.01416,-0.610352,0.0610352,-0.136993,-0.444794,-0.548767,-0.694366,649,57787,3605,2976,-30208
360,30114,4.49326,8.74727,-0.349316,89.8682,-27.8613,129.864,-2.31934,-0.366211,-0.12207,-0.137054,-0.444794,-0.548706,-0.694366,625,57775,3603,2976,-30208
366,30120,4.58418,8.68984,-0.224902,89.8517,-27.8558,129.853,-3.17383,0.305176,0,-0.137177,-0.444824,-0.548584,-0.694458,676,57754,3598,2976,-30208
372,30126,4.53633,8.66592,-0.14834,89.8407,-27.8558,129.853,-2.92969,0.305176,0.0610352,-0.137238,-0.444824,-0.548523,-0.694489,698,57746,3598,2976,-30208
378,30132,4.52676,8.63721,-0.119629,89.8297,-27.8558,129.847,-2.38037,0.366211,0,-0.137299,-0.444794,-0.548462,-0.694519,669,57739,3596,2976,-30208
384,30138,4.49326,8.66592,-0.224902,89.8242,-27.8558,129.847,-2.19727,0.12207,0.0610352,-0.137329,-0.444824,-0.548401,-0.69455,692,57731,3593,2976,-30208
390,30144,4.51719,8.73291,-0.210547,89.8187,-27.8558,129.842,-2.38037,0.549316,0.12207,-0.13739,-0.444824,-0.54834,-0.69458,711,57724,3592,2976,-30208
396,30150,4.47412,8.74248,-0.196191,89.8022,-27.8558,129.836,-2.19727,0.183105,0.183105,-0.137482,-0.444824,-0.548248,-0.694641,699,57715,3594,2976,-30208
402,30156,4.45498,8.76162,-0.205762,89.8022,-27.8558,129.831,-2.13623,-0.305176,-0.12207,-0.137543,-0.444855,-0.548187,-0.694672,719,57710,3595,2976,-30208
408,30162,4.52197,8.66113,-0.129199,89.7913,-27.8558,129.825,-2.44141,-0.427246,0.671387,-0.137604,-0.444885,-0.548126,-0.694672,687,57708,3595,2976,-30208
414,30168,4.56982,8.64678,-0.0574219,89.7913,-27.8613,129.814,-1.77002,-0.610352,0.427246,-0.137634,-0.444916,-0.548096,-0.694672,661,57707,3595,2976,-30208
420,30174,4.55547,8.68984,-0.215332,89.7913,-27.8613,129.809,-1.46484,-0.610352,0.610352,-0.137665,-0.444977,-0.548035,-0.694672,637,57705,3600,2976,-30208
426,30180,4.56982,8.73291,-0.253613,89.7913,-27.8668,129.798,-1.0376,-0.549316,0.549316,-0.137726,-0.445038,-0.548004,-0.694672,689,57701,3607,2976,-30208
432,30186,4.58896,8.81904,-0.277539,89.7913,-27.8668,129.792,-1.34277,-0.427246,0.427246,-0.137756,-0.445068,-0.547974,-0.694672,662,57700,3610,2976,-30208
438,30192,4.56982,8.75205,-0.311035,89.7913,-27.8668,129.787,-1.83105,-0.244141,0.732422,-0.137756,-0.445099,-0.547913,-0.694672,638,57698,3610,2976,-30208
444,30198,4.60332,8.71855,-0.239258,89.7858,-27.8723,129.781,-2.0752,-0.0610352,0.427246,-0.137787,-0.445129,-0.547852,-0.694702,615,57696,3608,2976,-30208
450,30204,4.58896,8.68506,-0.181836,89.7803,-27.8723,129.781,-1.95313,0,0.244141,-0.137817,-0.445129,-0.547821,-0.694702,644,57693,3606,2976,-30208
456,30210,4.62725,8.73291,-0.191406,89.7693,-27.8723,129.776,-1.77002,0.488281,0.366211,-0.137878,-0.44516,-0.547729,-0.694763,694,57688,3604,2976,-30208
462,30216,4.56025,8.71855,-0.258398,89.7638,-27.8778,129.776,-2.01416,0.549316,0.793457,-0.137909,-0.44516,-0.547668,-0.694794,712,57727,3603,2976,-30208
468,30222,4.56504,8.71855,-0.239258,89.7583,-27.8778,129.776,-1.83105,0.488281,0.488281,-0.137909,-0.44519,-0.547638,-0.694824,730,57721,3600,2976,-30208
474,30228,4.47891,8.72334,-0.220117,89.7528,-27.8778,129.771,-2.01416,0.427246,0.427246,-0.137939,-0.44519,-0.547577,-0.694855,747,57715,3600,2976,-30208
480,30234,4.52197,8.7377,-0.291895,89.7418,-27.8833,129.765,-2.31934,0.12207,0.671387,-0.13797,-0.445221,-0.547516,-0.694885,713,57712,3600,2976,-30208
486,30240,4.6416,8.66113,-0.229688,89.7363,-27.8888,129.754,-2.2583,-0.183105,0.976563,-0.138062,-0.445282,-0.547363,-0.694916,749,57704,3602,2976,-30208
492,30246,4.63203,8.70898,-0.205762,89.7253,-27.8888,129.754,-2.01416,0.488281,0.549316,-0.138062,-0.445313,-0.547333,-0.694946,714,57702,3603,2976,-30208
498,30252,4.61768,8.70898,-0.13877,89.7198,-27.8943,129.76,-2.19727,1.58691,0.671387,-0.138062,-0.445282,-0.547272,-0.695007,684,57701,3602,2976,-30208
504,30258,4.58418,8.75205,-0.15791,89.7034,-27.8943,129.765,-2.44141,2.2583,0.366211,-0.138062,-0.445221,-0.547241,-0.695068,705,57699,3600,2976,-30208
510,30264,4.43105,8.64199,-0.13877,89.6924,-27.8998,129.776,-2.74658,2.0752,0.854492,-0.138062,-0.44519,-0.54715,-0.69516,724,57697,3597,2976,-30208
516,30270,4.43584,8.66592,-0.177051,89.6759,-27.9053,129.771,-2.0752,0.12207,0.915527,-0.138062,-0.445221,-0.547028,-0.695221,665,57696,3593,2976,-30208
522,30276,4.53633,8.64678,-0.153125,89.6704,-27.9053,129.765,-1.95313,-0.244141,0.915527,-0.138092,-0.445251,-0.546997,-0.695251,688,57695,3592,2976,-30208
528,30282,4.57461,8.73291,-0.239258,89.6704,-27.9108,129.765,-2.01416,-0.12207,0.549316,-0.138123,-0.445282,-0.546936,-0.695282,709,57694,3589,2976,-30208
534,30288,4.66074,8.7042,-0.29668,89.6594,-27.9108,129.76,-2.50244,0.305176,0.732422,-0.138184,-0.445282,-0.546844,-0.695313,729,57694,3586,2976,-30208
540,30294,4.58418,8.77598,-0.387598,89.6484,-27.9163,129.754,-2.74658,0.244141,0.549316,-0.138214,-0.445313,-0.546783,-0.695343,747,57693,3585,2976,-30208
546,30300,4.61768,8.75684,-0.349316,89.6265,-27.9163,129.749,-3.54004,0.732422,0.427246,-0.138336,-0.445313,-0.5466,-0.695465,771,57690,3582,2976,-30208
552,30306,4.63682,8.76162,-0.234473,89.61,-27.9163,129.749,-4.15039,1.09863,0.305176,-0.138397,-0.445313,-0.546478,-0.695557,784,57689,3582,2976,-30208
558,30312,4.76123,8.66592,-0.143555,89.5825,-27.9163,129.754,-4.82178,2.2583,0.305176,-0.138458,-0.445251,-0.546356,-0.695679,746,57687,3581,2976,-30208
564,30318,4.6416,8.59893,-0.143555,89.5605,-27.9163,129.765,-3.90625,2.99072,-0.12207,-0.138489,-0.44516,-0.546265,-0.695801,760,57686,3581,2976,-30208
570,30324,4.44063,8.68027,-0.0574219,89.5386,-27.9163,129.781,-3.54004,3.41797,-0.12207,-0.138489,-0.445068,-0.546204,-0.695892,772,57685,3583,2976,-30208
576,30330,4.44541,8.64678,-0.129199,89.5056,-27.9108,129.792,-3.23486,2.13623,-0.183105,-0.13855,-0.444946,-0.546051,-0.696075,797,57688,3584,2976,-30208
582,30336,4.46455,8.6707,-0.129199,89.4891,-27.9108,129.798,-3.17383,1.46484,-0.0610352,-0.138611,-0.444916,-0.54599,-0.696167,806,57689,3584,2976,-30208
588,30342,4.45498,8.75684,-0.119629,89.4781,-27.9108,129.798,-3.23486,0.976563,-0.0610352,-0.138672,-0.444885,-0.545898,-0.696228,813,57690,3581,2976,-30208
594,30348,4.57461,8.68506,-0.162695,89.4672,-27.9108,129.792,-3.479,0.793457,0.305176,-0.138733,-0.444885,-0.545807,-0.696289,820,57690,3578,2976,-30208
600,30354,4.56025,8.74727,-0.177051,89.4507,-27.9108,129.798,-3.23486,1.64795,0.183105,-0.138763,-0.444855,-0.545715,-0.69635,829,57690,3578,2976,-30208
606,30360,4.50762,8.75205,-0.205762,89.4122,-27.9108,129.803,-3.72314,2.13623,0.366211,-0.138855,-0.444763,-0.545532,-0.696533,842,57688,3576,2976,-30208
612,30366,4.56025,8.77119,-0.177051,89.3958,-27.9163,129.814,-3.84521,2.38037,0.427246,-0.138855,-0.444733,-0.545441,-0.696655,802,57690,3580,2976,-30208
618,30372,4.52197,8.72813,-0.181836,89.3738,-27.9163,129.82,-4.39453,2.19727,0.610352,-0.138885,-0.444672,-0.545319,-0.696747,765,57691,3583,2976,-30208
624,30378,4.50762,8.64199,-0.114844,89.3518,-27.9163,129.825,-4.27246,2.01416,0.427246,-0.138916,-0.444611,-0.545227,-0.696869,730,57693,3586,2976,-30208
630,30384,4.58896,8.65635,-0.0574219,89.3353,-27.9163,129.831,-3.66211,1.70898,0.427246,-0.138947,-0.44458,-0.545135,-0.69696,698,57694,3588,2976,-30208
636,30390,4.52197,8.66113,-0.0478516,89.3024,-27.9218,129.853,-3.17383,2.0752,0.488281,-0.138947,-0.444458,-0.544983,-0.697144,644,57694,3582,2976,-30208
642,30396,4.50283,8.68984,-0.0813477,89.2859,-27.9218,129.858,-2.99072,1.64795,0.488281,-0.138947,-0.444427,-0.544922,-0.697205,669,57692,3576,2976,-30208
648,30402,4.49326,8.72813,-0.13877,89.2749,-27.9272,129.864,-2.86865,1.40381,0.427246,-0.138977,-0.444397,-0.544861,-0.697296,691,57692,3569,2976,-30208
654,30408,4.52676,8.72334,-0.172266,89.2584,-27.9272,129.864,-3.23486,1.0376,0.488281,-0.139008,-0.444366,-0.544769,-0.697357,662,57691,3566,2976,-30208
660,30414,4.63682,8.71377,-0.133984,89.2474,-27.9272,129.869,-3.2959,1.58691,0.427246,-0.139008,-0.444336,-0.544708,-0.697449,638,57691,3564,2976,-30208
666,30420,4.51719,8.74248,-0.13877,89.209,-27.9272,129.886,-3.35693,2.0752,0.183105,-0.139038,-0.444214,-0.544556,-0.697632,645,57690,3561,2976,-30208
672,30426,4.58418,8.72334,-0.172266,89.1925,-27.9272,129.897,-3.66211,1.83105,0.366211,-0.139069,-0.444153,-0.544495,-0.697723,622,57691,3560,2976,-30208
678,30432,4.56504,8.70898,-0.062207,89.176,-27.9272,129.902,-3.60107,2.01416,0.183105,-0.139069,-0.444092,-0.544403,-0.697815,602,57692,3559,2976,-30208
684,30438,4.46455,8.7042,-0.0526367,89.1595,-27.9272,129.908,-3.2959,1.58691,0.12207,-0.139099,-0.444061,-0.544342,-0.697876,633,57692,3558,2976,-30208
690,30444,4.56504,8.65635,-0.00957031,89.1486,-27.9272,129.913,-3.23486,0.793457,0.488281,-0.13913,-0.444031,-0.544281,-0.697968,610,57691,3555,2976,-30208
696,30450,4.64639,8.73291,-0.00478516,89.1266,-27.9327,129.919,-2.86865,0.915527,0.427246,-0.13916,-0.444,-0.544128,-0.698059,579,57690,3556,2976,-30208
702,30456,4.57939,8.64678,-0.00957031,89.1101,-27.9327,129.924,-2.86865,1.52588,0.244141,-0.13916,-0.443939,-0.544098,-0.698151,563,57690,3554,2976,-30208
708,30462,4.5124,8.65635,-0.0382813,89.0991,-27.9327,129.93,-2.56348,1.40381,0.488281,-0.13916,-0.443909,-0.544037,-0.698212,547,57690,3552,2976,-30208
714,30468,4.44541,8.66113,-0.00478516,89.0936,-27.9327,129.935,-2.19727,0.671387,0.427246,-0.13916,-0.443878,-0.544006,-0.698242,536,57692,3551,2976,-30208
720,30474,4.53154,8.64678,-0.0765625,89.0881,-27.9382,129.935,-1.89209,0,0.488281,-0.139191,-0.443878,-0.543976,-0.698273,525,57694,3551,2976,-30208
726,30480,4.56504,8.64678,-0.0574219,89.0826,-27.9382,129.935,-1.52588,0.183105,0.549316,-0.139191,-0.443909,-0.543915,-0.698303,596,57694,3547,2976,-30208
732,30486,4.56025,8.69463,-0.0813477,89.0771,-27.9437,129.935,-1.34277,0.305176,0.610352,-0.139191,-0.443909,-0.543884,-0.698303,627,57696,3545,2976,-30208
738,30492,4.56504,8.72813,-0.153125,89.0771,-27.9437,129.935,-1.52588,0.671387,0.610352,-0.139191,-0.443909,-0.543854,-0.698334,605,57696,3543,2976,-30208
744,30498,4.55547,8.74727,-0.186621,89.0717,-27.9437,129.935,-1.89209,0.610352,0.549316,-0.139191,-0.443909,-0.543823,-0.698364,635,57697,3540,2976,-30208
750,30504,4.59375,8.69941,-0.124414,89.0607,-27.9492,129.935,-2.19727,0.549316,0.671387,-0.139191,-0.443909,-0.543762,-0.698425,662,57696,3539,2976,-30208
756,30510,4.59375,8.70898,-0.133984,89.0442,-27.9492,129.941,-2.19727,0.854492,0.549316,-0.139221,-0.443878,-0.543671,-0.698486,617,57698,3537,2976,-30208
762,30516,4.57461,8.77598,-0.129199,89.0387,-27.9547,129.946,-2.19727,1.09863,0.610352,-0.139221,-0.443848,-0.54364,-0.698547,596,57698,3537,2976,-30208
768,30522,4.53154,8.81904,-0.186621,89.0222,-27.9547,129.952,-3.11279,1.83105,0.854492,-0.139191,-0.443817,-0.543549,-0.698639,578,57699,3538,2976,-30208
774,30528,4.83779,9.09658,-0.253613,88.9893,-27.9602,129.974,-5.43213,4.21143,0.671387,-0.13916,-0.443665,-0.543427,-0.698822,565,57701,3540,2976,-30208
780,30534,4.59375,8.76641,-0.823047,88.9398,-27.9602,130.007,-8.36182,5.98145,1.2207,-0.13916,-0.443481,-0.543243,-0.699097,555,57703,3541,2976,-30208
786,30540,4.56982,8.81426,-0.162695,88.8025,-27.9712,130.095,-10.9253,8.42285,1.34277,-0.139099,-0.442963,-0.542725,-0.699829,529,57704,3536,2976,-30208
792,30546,4.30664,8.72813,0.789551,88.7201,-27.9767,130.15,-12.8174,10.0098,1.83105,-0.139069,-0.442627,-0.542389,-0.700317,521,57704,3533,2976,-30208
798,30552,4.05303,8.23525,1.26807,88.6432,-27.9877,130.204,-11.3525,9.39941,2.56348,-0.138947,-0.442322,-0.542084,-0.700745,513,57706,3528,2976,-30208
804,30558,3.99561,7.62754,0.894824,88.6102,-27.9987,130.237,-4.39453,6.04248,2.86865,-0.138794,-0.442169,-0.541992,-0.700989,504,57704,3523,2976,-30208
810,30564,3.9334,8.50801,1.17715,88.6212,-28.0096,130.265,3.23486,3.479,3.05176,-0.138519,-0.442139,-0.542084,-0.700958,496,57703,3521,2976,-30208
816,30570,4.14873,8.58936,0.92832,88.7146,-28.0481,130.276,9.8877,-0.549316,4.88281,-0.137848,-0.442352,-0.542542,-0.700592,487,57702,3519,2976,-30208
822,30576,4.37842,8.42188,0.559863,88.775,-28.0756,130.276,11.7188,-1.2207,5.49316,-0.137451,-0.442566,-0.542816,-0.700317,481,57702,3521,2976,-30208
828,30582,4.44541,8.45059,0.30625,88.8519,-28.103,130.276,14.9536,-2.01416,5.7373,-0.137024,-0.44281,-0.543213,-0.699982,476,57703,3526,2976,-30208
834,30588,4.56982,8.56065,-0.181836,88.9508,-28.1305,130.259,17.4561,-3.72314,5.61523,-0.136566,-0.443115,-0.54364,-0.699524,473,57704,3531,2976,-30208
840,30594,4.97178,9.19707,-1.1915,89.0607,-28.1525,130.237,19.4092,-5.06592,5.24902,-0.136139,-0.443481,-0.544128,-0.699005,472,57705,3535,2976,-30208
846,30600,5.21582,9.51768,-1.61738,89.2694,-28.1964,130.188,15.9302,-4.45557,4.82178,-0.135345,-0.444153,-0.545044,-0.697998,467,57704,3542,2976,-30208
852,30606,5.43115,9.61338,-1.9667,89.3353,-28.2184,130.172,10.2539,-2.44141,4.39453,-0.135071,-0.444397,-0.545288,-0.697723,468,57703,3549,2976,-30208
858,30612,5.56035,9.48897,-1.91406,89.3518,-28.2404,130.182,3.84521,1.64795,4.21143,-0.134827,-0.444489,-0.545349,-0.697632,469,57701,3555,2976,-30208
864,30618,5.46943,9.38369,-1.27285,89.3353,-28.2568,130.221,-1.2207,8.17871,4.27246,-0.134552,-0.444366,-0.545319,-0.697815,469,57698,3562,2976,-30208
870,30624,4.7708,8.6707,-0.311035,89.2804,-28.2788,130.298,-4.76074,13.916,4.39453,-0.134186,-0.444061,-0.545197,-0.698181,469,57695,3568,2976,-30208
876,30630,4.65117,8.45537,-0.47373,89.1705,-28.3173,130.463,-3.35693,14.9536,4.5166,-0.133362,-0.443329,-0.545013,-0.698944,471,57693,3574,2976,-30208
882,30636,4.39756,8.45059,-0.382813,89.1431,-28.3337,130.518,-0.549316,11.6577,3.54004,-0.132996,-0.443085,-0.545013,-0.699158,468,57691,3572,2976,-30208
888,30642,4.49326,8.66113,-0.253613,89.1321,-28.3502,130.567,0.732422,9.64355,4.02832,-0.132629,-0.442932,-0.545044,-0.69928,465,57690,3572,2976,-30208
894,30648,4.70859,8.86211,-0.114844,89.1156,-28.3777,130.622,1.2207,10.6812,5.24902,-0.132202,-0.44278,-0.545074,-0.699463,466,57690,3571,2976,-30208
900,30654,4.52676,8.48887,0.349316,89.0936,-28.4052,130.688,0.549316,12.207,6.04248,-0.131744,-0.442596,-0.545074,-0.699677,468,57690,3574,2976,-30208
906,30660,4.36885,8.27354,0.703418,89.0607,-28.4656,130.825,3.72314,12.3291,7.32422,-0.130676,-0.4422,-0.545166,-0.700043,473,57688,3578,2976,-30208
912,30666,3.88076,8.37402,1.13408,89.0717,-28.504,130.891,8.54492,12.2681,7.93457,-0.129974,-0.442078,-0.545349,-0.700104,480,57689,3581,2976,-30208
918,30672,3.98125,8.47451,0.75127,89.1101,-28.5425,130.93,10.1929,7.01904,8.36182,-0.129364,-0.442108,-0.545593,-0.700012,487,57689,3583,2976,-30208
924,30678,3.96211,8.20654,0.607715,89.165,-28.5809,130.941,11.6577,1.64795,8.17871,-0.128845,-0.442322,-0.545837,-0.699799,492,57689,3585,2976,-30208
930,30684,4.44541,8.46016,0.416309,89.2474,-28.6194,130.935,14.9536,-1.70898,8.36182,-0.128357,-0.442627,-0.546143,-0.699432,496,57688,3588,2976,-30208
936,30690,4.7708,8.4793,0.0957031,89.4507,-28.7018,130.897,18.2495,-3.90625,8.97217,-0.127289,-0.44342,-0.546936,-0.698517,509,57687,3591,2976,-30208
942,30696,5.04355,8.43623,-0.593359,89.5496,-28.7347,130.875,16.7236,-4.08936,7.26318,-0.126831,-0.443817,-0.547302,-0.698059,515,57686,3590,2976,-30208
948,30702,5.26367,8.46494,-0.535937,89.6265,-28.7677,130.858,14.5874,-2.38037,7.08008,-0.126404,-0.444122,-0.547607,-0.697693,520,57684,3589,2976,-30208
954,30708,5.39766,8.56065,-0.789551,89.7034,-28.8007,130.858,14.2212,0.366211,6.28662,-0.125946,-0.444366,-0.547913,-0.697388,525,57683,3588,2976,-30208
960,30714,5.04355,9.05352,-0.913965,89.7583,-28.8226,130.869,11.8408,2.92969,4.88281,-0.125519,-0.444458,-0.548218,-0.697174,533,57681,3588,2976,-30208
966,30720,4.71816,9.10137,-0.617285,89.7858,-28.8556,130.935,3.54004,7.62939,3.72314,-0.124817,-0.444366,-0.548492,-0.697144,539,57754,3593,2976,-30208
972,30726,4.48369,8.86689,-0.0765625,89.7693,-28.8831,130.984,1.28174,9.33838,5.67627,-0.12442,-0.444244,-0.548492,-0.697296,543,57785,3596,2976,-30208
978,30732,4.37363,8.46973,0.31582,89.7528,-28.916,131.034,1.0376,9.39941,6.53076,-0.123993,-0.444122,-0.548462,-0.697449,545,57813,3601,2976,-30208
984,30738,4.37842,8.20654,0.406738,89.7473,-28.9435,131.078,2.86865,8.36182,6.22559,-0.123566,-0.444031,-0.548492,-0.697571,546,57837,3608,2976,-30208
990,30744,4.56025,8.40752,-0.0526367,89.7528,-28.96,131.111,3.35693,5.85938,3.90625,-0.12326,-0.44397,-0.548584,-0.697601,548,57858,3616,2976,-30208
996,30750,4.66553,8.66113,-0.263184,89.7968,-28.9819,131.138,5.18799,1.95313,2.56348,-0.122803,-0.444,-0.548859,-0.697418,558,57895,3628,2976,-30208
1002,30756,4.69902,8.84297,-0.13877,89.8132,-28.9984,131.155,4.63867,3.23486,3.54004,-0.122559,-0.444031,-0.548981,-0.697388,562,57908,3632,2976,-30208
1008,30762,4.84736,8.70898,-0.30625,89.8242,-29.0204,131.171,3.54004,3.84521,4.88281,-0.122253,-0.444061,-0.549011,-0.697388,564,57921,3636,2976,-30208
1014,30768,4.88564,8.38838,-0.47373,89.8242,-29.0369,131.193,2.44141,3.96729,3.78418,-0.122009,-0.444031,-0.549072,-0.697388,568,57933,3641,2976,-30208
1020,30774,4.87129,8.58936,-0.272754,89.8352,-29.0479,131.21,2.31934,3.17383,2.74658,-0.121826,-0.444031,-0.549103,-0.697388,572,57945,3646,2976,-30208
1026,30780,4.7708,8.72813,-0.090918,89.8242,-29.0533,131.243,-0.427246,4.08936,0.732422,-0.121582,-0.443878,-0.549164,-0.697479,573,57964,3658,2976,-30208
1032,30786,4.52197,8.6707,0.0334961,89.8077,-29.0533,131.259,-2.44141,3.66211,0.305176,-0.121552,-0.443756,-0.549133,-0.697601,577,57973,3662,2976,-30208
1038,30792,4.56504,8.5415,0.0287109,89.7858,-29.0588,131.27,-3.66211,2.31934,0.854492,-0.121552,-0.443695,-0.549042,-0.697693,583,57980,3664,2976,-30208
1044,30798,4.39756,8.21611,0.253613,89.7803,-29.0588,131.27,-1.52588,0.183105,0.976563,-0.121552,-0.443726,-0.548981,-0.697723,588,57987,3670,2976,-30208
1050,30804,4.44063,8.58457,0.378027,89.7968,-29.0698,131.27,2.50244,-0.305176,2.19727,-0.12146,-0.443787,-0.549042,-0.697662,594,57993,3674,2976,-30208
1056,30810,4.49805,8.62764,-0.00957031,89.8462,-29.0918,131.259,3.84521,-1.28174,2.50244,-0.121185,-0.44397,-0.549225,-0.697418,604,58005,3584,2976,-30208
1062,30816,4.6751,8.52236,-0.263184,89.8682,-29.0973,131.243,2.86865,-2.74658,2.19727,-0.121155,-0.444122,-0.549286,-0.697327,605,58009,3693,2976,-30208
1068,30822,4.88564,8.46494,-0.382813,89.8901,-29.1028,131.226,2.31934,-3.23486,1.89209,-0.121124,-0.444275,-0.549316,-0.697205,604,58013,3697,2976,-30208
1074,30828,5.03398,8.56065,-0.401953,89.9121,-29.1083,131.21,2.2583,-2.56348,1.15967,-0.121124,-0.444397,-0.549377,-0.697083,604,58017,3699,2976,-30208
1080,30834,4.91914,8.77119,-0.636426,89.9286,-29.1083,131.204,1.77002,-1.28174,0.610352,-0.121094,-0.444458,-0.549438,-0.696991,606,58020,3700,2976,-30208
1086,30840,4.85215,8.77598,-0.674707,89.9341,-29.1083,131.193,-1.34277,-0.671387,-0.549316,-0.121185,-0.444489,-0.549438,-0.69696,603,58024,3704,2976,-30208
1092,30846,4.85693,8.73291,-0.588574,89.9231,-29.1028,131.182,-3.66211,-0.976563,-0.915527,-0.121307,-0.444489,-0.549347,-0.696991,603,58026,3705,2976,-30208
1098,30852,4.9,8.62764,-0.579004,89.9066,-29.0918,131.171,-5.18799,-1.46484,-1.70898,-0.12149,-0.444489,-0.549255,-0.697052,604,58027,3707,2976,-30208
1104,30858,4.98613,8.59414,-0.483301,89.8846,-29.0753,131.16,-6.34766,-1.58691,-2.56348,-0.121735,-0.444458,-0.549103,-0.697144,605,58029,3705,2976,-30208
1110,30864,4.89522,8.69941,-0.502441,89.8572,-29.0588,131.149,-7.26318,-1.09863,-3.41797,-0.12204,-0.444397,-0.548981,-0.697235,605,58030,3700,2976,-30208
1116,30870,4.78037,8.76641,-0.354102,89.7858,-29.0204,131.133,-8.54492,-0.183105,-3.60107,-0.12262,-0.444183,-0.548645,-0.69751,611,58035,3696,2976,-30208
1122,30876,4.53154,8.81426,-0.133984,89.7528,-29.0039,131.133,-7.20215,0.854492,-2.68555,-0.122833,-0.444092,-0.548492,-0.697662,612,58037,3695,2976,-30208
1128,30882,4.34014,8.78076,0.0239258,89.7253,-28.9929,131.133,-6.83594,0.0610352,-1.83105,-0.123047,-0.444031,-0.54834,-0.697784,609,58037,3695,2976,-30208
1134,30888,4.35449,8.48887,0.186621,89.6979,-28.9874,131.116,-6.53076,-1.64795,-1.34277,-0.12323,-0.444031,-0.548187,-0.697876,607,58039,3697,2976,-30208
1140,30894,4.66553,8.42666,0.0574219,89.6924,-28.9819,131.094,-4.15039,-3.35693,-1.2207,-0.123444,-0.444092,-0.548096,-0.697876,605,58041,3696,2976,-30208
1146,30900,4.77559,8.58457,-0.172266,89.7089,-28.9655,131.045,-1.34277,-3.96729,-1.40381,-0.123779,-0.444275,-0.548065,-0.697723,598,58040,3689,2976,-30208
1152,30906,4.76602,8.6707,-0.311035,89.7144,-28.9545,131.023,-1.83105,-3.479,-1.64795,-0.123962,-0.444336,-0.548035,-0.697662,597,58041,3690,2976,-30208
1158,30912,4.65117,8.73291,-0.15791,89.7144,-28.949,131.006,-2.19727,-2.44141,-1.28174,-0.124084,-0.444397,-0.548004,-0.697632,598,58040,3692,2976,-30208
1164,30918,4.5124,8.62764,0.0813477,89.7144,-28.9435,130.99,-2.86865,-2.62451,-0.915527,-0.124237,-0.444427,-0.547943,-0.697632,598,58038,3693,2976,-30208
1170,30924,4.55068,8.26875,0.210547,89.7144,-28.938,130.968,-2.68555,-3.78418,-1.0376,-0.12442,-0.444519,-0.547882,-0.697601,597,58037,3695,2976,-30208
1176,30930,4.60332,8.38838,0.124414,89.7473,-28.9215,130.902,0.427246,-6.40869,-1.28174,-0.124756,-0.444794,-0.547913,-0.697327,599,58040,3692,2976,-30208
1182,30936,4.70859,8.56065,-0.0861328,89.7748,-28.9105,130.864,0.366211,-6.89697,-1.77002,-0.124969,-0.444977,-0.547943,-0.697174,598,58041,3687,2976,-30208
1188,30942,4.76123,8.65156,-0.229688,89.7913,-28.8995,130.825,-0.549316,-6.7749,-2.01416,-0.125183,-0.445129,-0.547943,-0.697021,595,58043,3683,2976,-30208
1194,30948,4.72295,8.66592,-0.133984,89.8022,-28.894,130.787,-2.2583,-6.40869,-1.70898,-0.125427,-0.445251,-0.547882,-0.69693,593,58044,3680,2976,-30208
1200,30954,4.57461,8.41709,0.0574219,89.8077,-28.8831,130.754,-2.74658,-5.98145,-2.19727,-0.125702,-0.445374,-0.547852,-0.696838,592,58045,3678,2976,-30208
1206,30960,4.46455,8.46016,0.177051,89.8297,-28.8611,130.693,-0.549316,-5.43213,-1.89209,-0.126099,-0.445587,-0.547821,-0.696655,587,58045,3672,2976,-30208
1212,30966,4.39756,8.46973,0.0813477,89.8517,-28.8556,130.66,0.0610352,-5.92041,-1.40381,-0.126282,-0.44574,-0.547852,-0.696503,586,58047,3670,2976,-30208
1218,30972,4.49805,8.48887,-0.0478516,89.8737,-28.8446,130.622,0.183105,-6.5918,-1.64795,-0.126465,-0.445892,-0.547882,-0.69635,586,58048,3668,2976,-30208
1224,30978,4.67031,8.49844,-0.0382813,89.8901,-28.8391,130.589,-0.366211,-6.22559,-0.915527,-0.126648,-0.446045,-0.547852,-0.696228,583,58050,3669,2976,-30208
1230,30984,4.64639,8.32139,0.0287109,89.9011,-28.8336,130.562,-0.854492,-5.31006,-0.671387,-0.126801,-0.446167,-0.547852,-0.696136,579,58051,3669,2976,-30208
1236,30990,4.76602,8.1252,-0.0334961,89.9066,-28.8226,130.529,-0.732422,-2.19727,-0.854492,-0.127014,-0.446289,-0.547791,-0.696045,571,58051,3675,2976,-30208
1242,30996,4.75645,8.27354,0.0669922,89.9176,-28.8226,130.534,1.58691,0.854492,-0.305176,-0.126953,-0.446259,-0.547882,-0.696014,565,58050,3676,2976,-30208
1248,31002,4.62246,8.56543,0.0526367,89.9176,-28.8226,130.562,2.38037,3.78418,0.488281,-0.12677,-0.446136,-0.548004,-0.696045,558,58049,3676,2976,-30208
1254,31008,4.49326,8.61807,-0.114844,89.9066,-28.8336,130.6,0.793457,5.98145,1.77002,-0.126556,-0.445984,-0.548035,-0.696136,554,58051,3679,2976,-30208
1260,31014,4.23486,8.27354,-0.124414,89.8846,-28.8446,130.644,-0.854492,7.38525,2.56348,-0.126282,-0.445801,-0.548035,-0.69632,552,58053,3682,2976,-30208
1266,31020,4.48369,8.24482,-0.090918,89.8297,-28.894,130.737,-1.15967,8.30078,5.5542,-0.12561,-0.445526,-0.547882,-0.696716,546,58055,3685,2976,-30208
1272,31026,4.45977,8.26875,0.114844,89.8022,-28.927,130.798,-1.0376,9.82666,6.7749,-0.125183,-0.445374,-0.547821,-0.69696,546,58056,3687,2976,-30208
1278,31032,4.38799,8.3166,0.0717773,89.7638,-28.9655,130.869,-1.2207,11.7188,7.99561,-0.124664,-0.44516,-0.547699,-0.697266,548,58058,3685,2976,-30208
1284,31038,4.29229,8.42666,0.196191,89.7253,-29.0039,130.946,-1.64795,12.9395,8.8501,-0.124115,-0.444946,-0.547577,-0.697601,549,58058,3683,2976,-30208
1290,31044,4.00996,8.43145,0.186621,89.6759,-29.0533,131.023,-2.56348,13.3667,10.498,-0.123505,-0.444763,-0.547424,-0.697968,550,58057,3680,2976,-30208
1296,31050,4.14395,8.36924,0.133984,89.6045,-29.1742,131.133,-2.01416,6.65283,13.2446,-0.122406,-0.444733,-0.546936,-0.698547,560,58059,3673,2976,-30208
1302,31056,4.32578,8.40752,-0.0717773,89.599,-29.2401,131.155,0.732422,2.56348,13.3667,-0.121918,-0.444946,-0.546753,-0.698639,564,58060,3670,2976,-30208
1308,31062,4.60332,8.55107,-0.430664,89.621,-29.3005,131.149,3.72314,-0.671387,13.3057,-0.12146,-0.445282,-0.546631,-0.698608,570,58061,3666,2976,-30208
1314,31068,4.84736,8.92432,-0.803906,89.6649,-29.3665,131.138,6.40869,-2.31934,13.855,-0.120972,-0.445709,-0.5466,-0.698456,576,58062,3663,2976,-30208
1320,31074,4.97656,9.27363,-1.24893,89.7089,-29.4324,131.116,5.5542,-3.96729,13.7939,-0.120544,-0.446167,-0.546509,-0.698303,583,58061,3664,2976,-30208
1326,31080,5.51729,9.55117,-1.33027,89.7418,-29.5477,131.067,-1.83105,-3.2959,12.2681,-0.119995,-0.446991,-0.546051,-0.698212,593,58057,3666,2976,-30208
1332,31086,5.59385,9.43154,-1.2585,89.7253,-29.5972,131.05,-5.12695,-2.2583,10.8032,-0.119843,-0.447296,-0.545715,-0.698303,548,58056,3667,2976,-30208
1338,31092,5.57471,9.36455,-1.28721,89.6979,-29.6411,131.045,-7.38525,-0.305176,8.8501,-0.119751,-0.44751,-0.545349,-0.698486,510,58056,3671,2976,-30208
1344,31098,5.45029,9.23057,-1.15322,89.6539,-29.6741,131.045,-9.64355,1.0376,7.87354,-0.11969,-0.447632,-0.544952,-0.69873,473,58055,3675,2976,-30208
1350,31104,5.25889,9.08223,-0.890039,89.6045,-29.707,131.05,-12.0239,1.34277,7.08008,-0.11969,-0.447723,-0.544525,-0.699005,441,58055,3685,2976,-30208
1356,31110,5.09619,9.12529,-0.564648,89.4617,-29.7455,131.067,-16.1133,2.92969,4.21143,-0.119751,-0.447693,-0.544067,-0.699341,394,57980,3699,2976,-30208
1362,31116,5.08184,8.90996,-0.421094,89.3793,-29.762,131.067,-18.1274,1.0376,2.99072,-0.120117,-0.447632,-0.54303,-0.700165,374,57988,3699,2976,-30208
1368,31122,5.24453,8.51279,-0.416309,89.3079,-29.762,131.05,-17.5781,-1.89209,1.0376,-0.120483,-0.447632,-0.542511,-0.70047,354,57996,3694,2976,-30208
1374,31128,5.546,8.37402,-0.62207,89.2529,-29.7565,131.023,-14.9536,-4.5166,-1.0376,-0.120911,-0.447723,-0.542084,-0.700684,337,58004,3584,2976,-30208
1380,31134,5.83789,8.58457,-1.08145,89.2255,-29.7345,130.974,-11.6577,-6.5918,-3.90625,-0.121429,-0.447815,-0.54184,-0.700745,324,58010,3681,2976,-30208
1386,31140,6.11543,9.78086,-1.54082,89.1431,-29.6631,130.919,-15.625,-1.15967,-8.60596,-0.121948,-0.447815,-0.541626,-0.700775,293,57981,3673,2976,-30208
1392,31146,5.95752,9.84307,-1.64609,89.0332,-29.6136,130.924,-22.8271,3.84521,-9.94873,-0.12323,-0.447235,-0.540924,-0.701477,280,57990,3667,2976,-30208
1398,31152,5.67998,9.35977,-1.54082,88.8794,-29.5532,130.957,-29.9072,7.44629,-12.4512,-0.124023,-0.446625,-0.540344,-0.702179,268,57957,3664,2976,-30208
1404,31158,5.546,8.89082,-1.21064,88.7091,-29.4818,130.974,-33.8135,6.28662,-14.9536,-0.125,-0.446014,-0.539673,-0.702911,306,57927,3659,2976,-30208
1410,31164,5.57949,8.69463,-1.13887,88.5498,-29.3884,130.968,-33.9966,2.68555,-18.4937,-0.12619,-0.445435,-0.539032,-0.703583,341,57900,3652,2976,-30208
1416,31170,4.99092,9.38369,-0.224902,88.2202,-29.1797,130.968,-36.499,3.35693,-21.9116,-0.127411,-0.444763,-0.538452,-0.704224,305,57860,3640,2976,-30208
1422,31176,5.14883,8.62285,-0.832617,88.0444,-29.0698,130.946,-39.6729,-0.366211,-23.1934,-0.130219,-0.44339,-0.537079,-0.705597,337,57844,3630,2976,-30208
1428,31182,5.31631,8.40752,-0.703418,87.8741,-28.949,130.913,-38.9404,-1.28174,-25.0854,-0.131775,-0.442749,-0.536377,-0.706238,363,57830,3619,2976,-30208
1434,31188,4.78994,9.04395,-0.0143555,87.7094,-28.8226,130.897,-37.9028,0.671387,-25.9399,-0.133301,-0.442047,-0.535767,-0.706879,387,57820,3609,2976,-30208
1440,31194,4.60811,9.154,0.655566,87.5226,-28.7073,130.891,-39.0625,3.54004,-24.1089,-0.134735,-0.441254,-0.535065,-0.707611,408,57812,3601,2976,-30208
1446,31200,3.69414,8.28311,0.846973,87.1326,-28.4985,130.93,-40.1001,6.34766,-20.3857,-0.135986,-0.440399,-0.534363,-0.708435,439,57800,3575,2976,-30208
1452,31206,4.02432,7.85244,0.545508,86.9623,-28.4052,130.919,-37.4146,1.09863,-18.8599,-0.138489,-0.438995,-0.532867,-0.709961,452,57797,3561,2976,-30208
1458,31212,3.89512,7.67539,0.593359,86.8304,-28.3228,130.891,-31.0059,-1.34277,-17.8223,-0.139679,-0.438538,-0.532288,-0.710449,462,57796,3547,2976,-30208
1464,31218,4.1583,8.02949,0.401953,86.7261,-28.2404,130.853,-27.4658,-4.39453,-17.334,-0.140808,-0.438202,-0.531769,-0.710815,468,57795,3533,2976,-30208
1470,31224,4.6416,8.95303,0.234473,86.6217,-28.158,130.803,-26.7944,-5.31006,-16.9067,-0.141968,-0.437866,-0.531281,-0.711151,471,57793,3521,2976,-30208
1476,31230,4.62725,8.91475,0.397168,86.3525,-28.0042,130.754,-33.9355,-0.732422,-16.6626,-0.144226,-0.436981,-0.530029,-0.712158,482,57794,3498,2976,-30208
1482,31236,4.77559,8.74727,0.756055,86.1768,-27.9272,130.765,-37.1704,3.90625,-15.686,-0.145294,-0.43634,-0.529236,-0.712921,484,57795,3486,2976,-30208
1488,31242,4.56504,8.45059,1.18672,85.9955,-27.8448,130.776,-37.5366,4.5166,-16.6016,-0.146393,-0.435638,-0.528473,-0.713715,483,57797,3472,2976,-30208
1494,31248,4.38799,8.27354,1.37813,85.8307,-27.7734,130.792,-33.8745,4.69971,-15.0757,-0.147369,-0.434998,-0.527802,-0.714417,482,57801,3457,2976,-30208
1500,31254,4.27314,7.97686,0.952246,85.7043,-27.6965,130.781,-28.1982,-0.183105,-16.3574,-0.148346,-0.434479,-0.527283,-0.714905,481,57804,3442,2976,-30208
1506,31260,4.39277,8.51758,0.669922,85.5615,-27.5592,130.704,-18.0054,-7.26318,-14.7705,-0.149261,-0.434143,-0.526917,-0.715179,475,57810,3404,2976,-30208
1512,31266,4.73252,8.86211,0.397168,85.5176,-27.4878,130.638,-16.9067,-10.2539,-15.3198,-0.151154,-0.433868,-0.526398,-0.715363,473,57815,3384,2976,-30208
1518,31272,5.10576,9.10615,0.736914,85.4846,-27.4219,130.562,-15.5029,-11.8408,-15.1367,-0.152161,-0.433807,-0.526154,-0.715332,472,57778,3363,2976,-30208
1524,31278,5.59863,9.07266,1.16758,85.4791,-27.334,130.474,-12.146,-14.9536,-19.7144,-0.153259,-0.433777,-0.526093,-0.715149,468,57787,3343,2976,-30208
1530,31284,7.90508,12.4701,2.69883,85.5835,-27.2076,130.276,1.58691,-32.2876,-28.7476,-0.154816,-0.434174,-0.526489,-0.714294,510,57753,3327,2976,-30208
1536,31290,15.9394,22.3467,-3.67021,86.0669,-26.7407,129.65,15.564,-51.6968,-59.4482,-0.156921,-0.434937,-0.527679,-0.712463,581,57695,3300,2976,-30208
1542,31296,14.322,22.1409,-8.80469,86.2262,-26.4551,129.397,7.32422,-38.8794,-62.6221,-0.162262,-0.435333,-0.53006,-0.709259,605,57712,3287,2976,-30208
1548,31302,6.58916,12.006,-2.75625,86.2592,-26.1749,129.21,-11.4136,-26.6724,-60.8521,-0.164948,-0.434845,-0.53067,-0.708496,621,57725,3273,2976,-30208
1554,31308,8.16348,11.8146,2.24902,86.2427,-25.8508,129.029,-21.3623,-25.6348,-69.458,-0.16803,-0.434021,-0.531128,-0.707947,633,57738,3262,2976,-30208
1560,31314,8.98652,7.07246,1.1915,86.1658,-25.4718,128.919,-25.5127,-12.4512,-80.1392,-0.171204,-0.432526,-0.531708,-0.707672,639,57748,3254,2976,-30208
1566,31320,6.56523,7.93857,-0.205762,86.0779,-24.5764,129.029,0.793457,26.4282,-96.7407,-0.173859,-0.430206,-0.533081,-0.707397,730,57762,3235,2976,-30208
1572,31326,4.82822,10.2307,-0.406738,86.0834,-24.0765,129.067,3.66211,17.7002,-103.699,-0.178741,-0.424622,-0.53714,-0.706512,763,57769,3224,2976,-30208
1578,31332,3.94775,11.2499,0.0669922,86.1273,-23.5712,129.029,3.90625,2.38037,-106.628,-0.181793,-0.422272,-0.539154,-0.705566,788,57777,3212,2976,-30208
1584,31338,4.09609,10.0967,-0.234473,86.1438,-23.0658,128.903,-7.87354,-14.0381,-106.384,-0.185425,-0.420349,-0.54068,-0.70462,801,57782,3203,2976,-30208
1590,31344,5.35938,9.65645,-0.114844,86.1823,-22.5604,128.743,-4.88281,-19.4702,-108.032,-0.189209,-0.418549,-0.542267,-0.703461,856,57787,3196,2976,-30208
1596,31350,6.7375,10.4221,1.55039,86.3361,-21.4508,128.37,0.244141,-27.8931,-122.559,-0.193085,-0.416718,-0.544098,-0.702057,939,57796,3188,2976,-30208
1602,31356,7.03418,10.4173,0.894824,86.4294,-20.8521,128.183,5.06592,-24.8413,-128.174,-0.20163,-0.412842,-0.548126,-0.698822,962,57797,3186,2976,-30208
1608,31362,6.87148,10.001,0.0430664,86.5118,-20.2258,128.029,4.3335,-18.8599,-133.972,-0.205933,-0.410492,-0.550354,-0.697174,1026,57798,3185,2976,-30208
1614,31368,6.76143,10.1685,-1.08145,86.5668,-19.5776,127.881,0.0610352,-17.8833,-138.428,-0.210419,-0.407959,-0.552551,-0.695618,1075,57797,3182,2976,-30208
1620,31374,6.12021,10.8384,-1.00488,86.6107,-18.902,127.749,0.732422,-12.9395,-143.127,-0.214874,-0.405182,-0.55484,-0.694031,1161,57794,3178,2976,-30208
1626,31380,5.43115,10.824,-1.18672,86.6162,-17.4957,127.463,-10.376,-15.4419,-150.94,-0.219757,-0.402252,-0.556915,-0.692566,1280,57783,3162,2976,-30208
1632,31386,5.28281,10.2163,-0.626855,86.5997,-16.7651,127.288,-14.1602,-20.9961,-156.616,-0.230011,-0.39624,-0.560852,-0.689514,1370,57776,3156,2976,-30208
1638,31392,5.63691,10.6039,-0.971387,86.6107,-16.0126,127.095,-9.09424,-23.8037,-160.95,-0.235413,-0.39325,-0.562927,-0.687683,1442,57770,3151,2976,-30208
1644,31398,5.20625,10.9532,-0.15791,86.6217,-15.2271,126.898,-9.8877,-25.2075,-167.664,-0.241028,-0.390137,-0.565063,-0.68576,1494,57762,3143,2976,-30208
1650,31404,5.43115,11.0633,-1.41162,86.5942,-14.425,126.672,-17.0288,-29.9072,-171.997,-0.247009,-0.386963,-0.566986,-0.683838,1583,57754,3133,2976,-30208
1656,31410,4.8665,10.8814,-1.31113,86.4954,-12.7551,126.211,-26.7944,-32.5928,-183.289,-0.253021,-0.383636,-0.568939,-0.681915,1712,57740,3112,2976,-30208
1662,31416,5.00527,10.9532,-2.13418,86.4404,-11.8872,125.936,-23.7427,-38.3911,-187.378,-0.266205,-0.37677,-0.572418,-0.677795,1803,57771,3100,2976,-30208
1668,31422,5.09619,11.2786,-1.48818,86.3745,-10.9698,125.607,-28.0762,-47.4243,-197.449,-0.273468,-0.373322,-0.574066,-0.675415,1871,57796,3088,2976,-30208
1674,31428,5.29717,12.0777,-2.67969,86.3086,-10.0195,125.233,-28.8086,-55.9692,-205.505,-0.281158,-0.369934,-0.575684,-0.672729,1970,57818,3077,2976,-30208
1680,31434,5.43115,12.0203,-2.15332,86.1987,-9.03625,124.832,-38.0859,-60.6689,-212.769,-0.289276,-0.366394,-0.577026,-0.670074,2048,57834,3064,2976,-30208
1686,31440,6.19199,12.6376,-2.75625,85.8582,-6.96533,123.931,-53.9551,-70.6177,-229.004,-0.297882,-0.362671,-0.578247,-0.667267,2241,57850,3034,2976,-30208
1692,31446,6.6418,13.1975,-3.62715,85.6274,-5.8667,123.431,-60.6689,-76.2329,-239.807,-0.316437,-0.354675,-0.579895,-0.66156,2356,57852,3021,2976,-30208
1698,31452,7.40264,13.9679,-2.37344,85.3693,-4.72412,122.904,-65.3076,-79.5288,-249.939,-0.326385,-0.350311,-0.580536,-0.658508,2444,57892,3005,2976,-30208
1704,31458,8.65156,15.2838,-2.67012,85.0671,-3.5376,122.294,-73.7305,-95.2148,-261.047,-0.337067,-0.345978,-0.580811,-0.655151,2555,57922,2984,2976,-30208
1710,31464,10.9102,15.6618,-3.08643,84.7101,-2.30164,121.663,-82.5806,-96.5576,-273.56,-0.348236,-0.341248,-0.580902,-0.651703,2688,57944,2959,2976,-30208
1716,31470,11.6997,17.4323,-4.61768,83.8586,0.395508,120.652,-96.6797,-54.7485,-305.603,-0.359253,-0.335541,-0.581238,-0.648376,2972,58009,2899,2976,-30208
1722,31476,9.19707,16.4562,-5.85703,83.2983,1.85669,120.289,-116.638,-31.311,-317.444,-0.381256,-0.320251,-0.582306,-0.642548,3120,58047,2863,2976,-30208
1728,31482,6.49346,15.3986,-6.50303,82.6611,3.38928,119.883,-131.226,-33.8135,-332.947,-0.392822,-0.311371,-0.582458,-0.639832,3235,58073,2824,2976,-30208
1734,31488,5.23496,17.1404,-4.08174,82.0184,4.93835,119.355,-128.357,-53.9551,-341.248,-0.404999,-0.302856,-0.582306,-0.636444,3372,58134,2780,2976,-30208
1740,31494,5.91924,19.5952,-0.564648,81.3208,6.48743,118.68,-134.338,-78.9185,-345.215,-0.417877,-0.294769,-0.581451,-0.63266,3527,58180,2733,2976,-30208
1746,31500,10.9724,16.9682,-1.07666,79.7168,9.61304,117.246,-147.461,-66.2842,-357.544,-0.431305,-0.286652,-0.579834,-0.628876,3803,58278,2631,2976,-30208
1752,31506,10.9293,19.7005,-3.97646,78.9917,11.2939,116.653,-133.057,-43.396,-374.146,-0.456451,-0.2677,-0.578522,-0.620636,3968,58325,2570,2976,-30208
1758,31512,8.41709,19.8393,-6.56523,78.1677,13.0463,116.087,-150.696,-29.2969,-389.038,-0.468903,-0.256683,-0.578125,-0.616333,4149,58398,2507,2984,-30105
1764,31518,6.23506,16.0638,-5.16797,77.2778,14.7711,115.609,-166.626,-6.83594,-380.554,-0.480591,-0.244934,-0.577515,-0.612701,4292,58491,2435,2984,-30105
1770,31524,5.32109,17.7529,-5.27803,76.5637,16.4905,115.269,-136.658,24.4751,-375.305,-0.490875,-0.233093,-0.578125,-0.608551,4454,58562,2362,2984,-30105
1776,31530,6.88105,17.4323,-4.56504,75.0696,20.0171,113.994,-125,-41.9312,-404.846,-0.501801,-0.221832,-0.578735,-0.603241,4749,58700,2227,2984,-30105
1782,31536,8.76162,17.2792,-5.3833,74.2236,21.7749,113.082,-118.286,-60.0586,-410.706,-0.526794,-0.200989,-0.577362,-0.590454,4925,58797,2161,2984,-30105
1788,31542,9.92441,17.1691,-7.6084,73.3337,23.5052,112.077,-115.601,-69.7632,-411.987,-0.539551,-0.191071,-0.576172,-0.583374,5067,58907,2095,2984,-30105
1794,31548,9.01045,15.6666,-10.7857,72.334,25.1477,111.072,-133.118,-66.5283,-397.095,-0.551758,-0.18103,-0.57431,-0.576904,5229,59031,2029,2984,-30105
1800,31554,5.80918,15.9011,-14.6091,71.2738,26.7297,110.248,-156.921,-29.7241,-376.587,-0.562561,-0.170013,-0.572479,-0.571625,5409,59165,1960,2984,-30105
1806,31560,-0.545508,13.3889,-12.2069,68.4338,29.2456,108.633,-256.287,-33.8135,-290.1,-0.572815,-0.158966,-0.56897,-0.568115,5687,59393,1829,2984,-30105
1812,31566,1.79443,6.93848,-9.90049,66.5387,30.0201,107.682,-307.8,-81.2988,-235.901,-0.591156,-0.137787,-0.555542,-0.568146,5837,59524,1761,2984,-30105
1818,31572,5.62734,-3.17256,2.39736,64.3304,30.3717,106.54,-350.769,-136.536,-177.002,-0.600281,-0.129486,-0.544373,-0.57132,5961,59670,1691,2984,-30105
1824,31578,5.04834,-7.25908,16.2265,62.7045,30.3882,106.232,-316.528,-33.5083,-58.2886,-0.603668,-0.122284,-0.53595,-0.577271,6114,59788,1613,2984,-30105
1830,31584,8.30703,-7.90986,4.13438,62.1057,30.119,106.743,-193.298,66.6504,56.7627,-0.601074,-0.1185,-0.532562,-0.583893,6247,59931,1530,2984,-30105
1836,31590,7.54619,-5.40244,3.35918,63.0835,29.0149,107.924,72.5708,43.1519,120.789,-0.596466,-0.120026,-0.532806,-0.588074,6469,60137,1372,2984,-30105
1842,31596,9.16357,-1.42598,-0.545508,64.1107,28.1854,108.463,134.155,26.2451,156.372,-0.585297,-0.133392,-0.5383,-0.5914,6564,60205,1304,2984,-30105
1848,31602,11.3121,1.41162,-3.80898,65.2368,27.2351,109.017,153.992,22.8882,178.772,-0.578552,-0.142639,-0.541687,-0.592804,6653,60270,1244,2984,-30105
1854,31608,13.1783,3.81855,-4.70381,66.3794,26.2408,109.633,154.907,33.4473,190.735,-0.571167,-0.151886,-0.545166,-0.594482,6736,60336,1194,2984,-30105
1860,31614,13.4367,4.3832,-3.97168,67.4506,25.2686,110.38,131.958,63.2935,195.801,-0.562958,-0.159882,-0.548676,-0.596954,6814,60403,1154,2984,-30105
1866,31620,11.1494,4.76123,-3.03379,69.4611,23.4393,112.077,110.046,99.6094,189.026,-0.554352,-0.16687,-0.552277,-0.599762,6909,60453,1090,2984,-30105
1872,31626,9.37412,4.20615,-3.88555,70.4169,22.5385,112.945,106.384,104.919,187.012,-0.536469,-0.179169,-0.55954,-0.605713,6933,60449,1073,2984,-30105
1878,31632,7.996,3.68936,-4.50283,71.3452,21.6321,113.785,106.567,104.126,185.303,-0.527466,-0.18512,-0.563049,-0.608582,6961,60455,1065,3009,-30108
1884,31638,7.24473,3.58887,-4.45498,72.2626,20.7147,114.576,111.145,99.4263,184.753,-0.518494,-0.191254,-0.566498,-0.611176,6993,60469,1067,3009,-30108
1890,31644,6.85713,3.84248,-3.88555,73.1799,19.7589,115.334,116.394,95.6421,187.317,-0.50946,-0.197632,-0.569885,-0.613617,6975,60450,1075,3009,-30108
1896,31650,6.93369,5.2541,-3.04814,75.0092,17.7484,116.801,122.07,96.4966,199.097,-0.500214,-0.204224,-0.573212,-0.615936,6957,60396,1106,3009,-30108
1902,31656,7.02461,5.9623,-2.55049,75.91,16.6772,117.548,122.253,101.44,208.252,-0.480652,-0.217651,-0.579651,-0.62085,6962,60364,1129,3009,-30108
1908,31662,6.74229,6.50303,-2.33037,76.8054,15.5402,118.328,123.352,108.521,220.337,-0.470093,-0.224487,-0.582794,-0.623596,6921,60344,1159,3009,-30108
1914,31668,6.41211,6.68486,-2.69404,77.7118,14.3372,119.141,125.977,118.164,235.107,-0.458801,-0.231384,-0.585938,-0.626526,6894,60293,1195,3009,-30108
1920,31674,5.34023,6.88105,-2.91895,78.5962,13.0463,119.998,125.366,126.221,253.418,-0.446716,-0.238464,-0.588898,-0.629791,6881,60257,1239,3009,-30108
1926,31680,3.12949,8.10127,-2.78018,80.2167,10.1459,121.674,111.694,123.779,293.823,-0.434052,-0.24585,-0.591492,-0.633392,6782,60167,1331,3009,-30108
1932,31686,2.51699,7.65625,-3.14863,80.8704,8.53638,122.443,96.1914,114.136,312.5,-0.407684,-0.261719,-0.594177,-0.641998,6758,60084,1385,3009,-30108
1938,31692,2.45,6.27334,-2.78496,81.4526,6.8335,123.146,88.0737,103.516,327.942,-0.394287,-0.270264,-0.594269,-0.646698,6700,60022,1442,3009,-30108
1944,31698,2.12461,5.10098,-1.63174,82.0294,5.0592,123.777,92.4072,91.6138,341.431,-0.380707,-0.27951,-0.593964,-0.651184,6610,59936,1502,3009,-30108
1950,31704,2.17246,5.43115,-1.07666,82.5952,3.25195,124.305,97.29,75.2563,345.886,-0.36731,-0.289246,-0.593292,-0.655212,6545,59870,1565,3009,-30108
1956,31710,2.2251,4.74688,-0.177051,83.7433,-0.357056,125.013,108.215,35.4614,340.942,-0.35437,-0.299469,-0.592255,-0.658691,6372,59703,1690,3009,-30108
1962,31716,2.90937,4.50283,0.186621,84.364,-2.12585,125.189,118.347,15.8691,332.886,-0.329895,-0.321228,-0.589661,-0.663452,6273,59607,1751,3009,-30108
1968,31722,3.31133,4.69424,0.344531,85.0397,-3.8562,125.255,130.859,-0.427246,323.059,-0.31842,-0.33255,-0.58844,-0.664581,6149,59532,1811,3009,-30108
1974,31728,3.86641,5.8666,0.062207,85.7758,-5.5481,125.25,142.151,-10.8643,316.895,-0.30719,-0.344055,-0.587311,-0.665009,6055,59434,1872,3009,-30108
1980,31734,4.23965,7.33086,-0.626855,86.5338,-7.21802,125.189,146.606,-18.0664,312.317,-0.296143,-0.35556,-0.586151,-0.664978,5937,59357,1936,3009,-30108
1986,31740,5.57471,9.5751,-1.80879,88.0609,-10.5029,124.909,144.226,-28.6865,307.068,-0.285309,-0.367004,-0.584778,-0.664673,5716,59193,2059,3009,-30108
1992,31746,6.46475,10.4029,-1.8375,88.808,-12.1124,124.722,140.442,-30.0293,304.565,-0.26413,-0.389557,-0.581421,-0.663574,5570,59115,2124,3009,-30108
1998,31752,7.20645,11.0106,-1.69873,89.5386,-13.7109,124.525,136.353,-27.0996,303.406,-0.253601,-0.400421,-0.579437,-0.662964,5456,59052,2189,3034,-30111
2004,31758,7.85244,11.5896,-1.80879,90.2472,-15.2875,124.338,131.104,-22.3999,301.086,-0.243073,-0.410889,-0.57724,-0.662384,5318,58960,2256,3034,-30111
2010,31764,8.46973,12.2117,-2.07676,90.9283,-16.8365,124.162,127.319,-15.8691,296.631,-0.232574,-0.420868,-0.574982,-0.661865,5209,58884,2320,3034,-30111
2016,31770,8.90996,14.1114,-2.50264,92.2247,-19.8962,123.926,120.422,6.22559,293.335,-0.221863,-0.43042,-0.572632,-0.661407,4911,58726,2443,3034,-30111
2022,31776,8.51758,14.8388,-2.7084,92.796,-21.4014,123.893,113.464,20.5688,290.894,-0.199982,-0.447632,-0.567688,-0.661224,4785,58645,2504,3034,-30111
2028,31782,7.7376,15.1881,-2.85674,93.3069,-22.89,123.915,106.445,33.9355,288.208,-0.188843,-0.455261,-0.565033,-0.66156,4637,58576,2565,3034,-30111
2034,31788,6.59395,15.4226,-2.69404,93.7793,-24.3567,123.986,101.807,43.5181,284.668,-0.177643,-0.462372,-0.562317,-0.662079,4472,58519,2628,3034,-30111
2040,31794,5.42158,15.6618,-2.62705,94.2297,-25.8014,124.074,99.9756,49.6216,280.823,-0.166473,-0.469055,-0.55957,-0.662567,4345,58473,2691,3034,-30111
2046,31800,3.52188,16.5279,-2.49785,95.0922,-28.5974,124.299,99.5483,57.6172,270.386,-0.155396,-0.475403,-0.556885,-0.663025,4064,58358,2812,3034,-30111
2052,31806,2.62705,16.9634,-2.14375,95.5151,-29.9377,124.442,100.647,61.4624,263.245,-0.133484,-0.486908,-0.551819,-0.663696,3920,58296,2873,3034,-30111
2058,31812,1.52646,17.4371,-1.73223,95.9381,-31.2231,124.601,104.37,64.8193,254.517,-0.122681,-0.492065,-0.549622,-0.663818,3760,58243,2934,3034,-30111
2064,31818,0.090918,18.2745,-1.33506,96.3776,-32.4481,124.788,111.755,70.1904,242.92,-0.112,-0.496674,-0.547882,-0.663696,3582,58195,2998,3034,-30111
2070,31824,-1.56953,19.2363,-1.16758,96.828,-33.6182,125.019,118.042,76.2329,232.056,-0.101379,-0.500732,-0.546539,-0.663452,3440,58154,3063,3034,-30111
2076,31830,-3.40703,17.7386,-2.2251,97.7454,-35.7825,125.48,123.291,77.6978,213.562,-0.091095,-0.504547,-0.545441,-0.662933,3272,58118,3127,3034,-30111
2082,31836,-7.13467,23.5525,-1.30635,98.1628,-36.7163,125.876,133.118,97.5952,187.439,-0.0708313,-0.509949,-0.5448,-0.661804,2943,58052,3266,3034,-30111
2088,31842,-9.58945,22.9018,-2.38779,98.5583,-37.6117,126.222,123.352,88.501,183.533,-0.0613403,-0.511993,-0.544769,-0.661224,2775,58020,3336,3034,-30111
2094,31848,-11.3552,23.6052,-2.34473,98.9374,-38.4247,126.568,119.446,84.3506,169.678,-0.0524292,-0.513641,-0.544952,-0.660553,2593,57989,3410,3034,-30111
2100,31854,-13.0348,24.1124,-1.56475,99.2889,-39.1608,126.909,114.38,78.8574,156.921,-0.0441284,-0.514984,-0.545288,-0.659851,2446,57956,3484,3034,-30111
2106,31860,-14.0588,24.2847,0.215332,99.7723,-40.3857,127.809,103.027,93.5669,124.268,-0.0364075,-0.515717,-0.545868,-0.659271,2269,57967,3555,3034,-30111
2112,31866,-16.6284,24.1603,1.37334,99.8602,-40.8966,128.441,97.229,102.112,110.596,-0.0215149,-0.514313,-0.547852,-0.659363,1955,57976,3700,3009,-30108
2118,31872,-18.9827,24.1698,1.58389,99.9152,-41.3416,129.117,96.3745,100.037,99.1821,-0.0144958,-0.512756,-0.549255,-0.659607,1817,57975,3774,3009,-30108
2124,31878,-20.9016,23.6052,1.64131,99.9701,-41.7371,129.792,95.5811,92.3462,91.6748,-0.00778198,-0.511017,-0.550812,-0.65976,1652,57970,3844,3009,-30108
2130,31884,-21.4614,23.2941,1.46426,100.025,-42.0996,130.441,93.2617,81.665,86.0596,-0.00143433,-0.509247,-0.55246,-0.659821,1512,57962,3910,3009,-30108
2136,31890,-20.9207,23.7392,1.90449,100.118,-42.6929,131.6,78.2471,55.542,71.0449,0.00442505,-0.507477,-0.554016,-0.659851,1392,57953,3972,3009,-30108
2142,31896,-8.0917,37.4917,7.93379,101.667,-42.215,130.963,219.482,-143.677,-44.2505,0.00952148,-0.50705,-0.56369,-0.651886,1119,58008,4087,3009,-30108
2148,31902,-16.5614,29.7302,-8.23525,101.805,-41.9403,131.325,71.0449,7.01904,-31.0059,0.0104065,-0.504272,-0.5672,-0.65097,1008,58027,4145,3009,-30108
2154,31908,-8.31182,32.2376,1.10059,101.7,-41.2372,131.726,29.2358,-3.96729,-118.53,0.00759888,-0.499664,-0.571442,-0.650879,909,58041,4203,3009,-30108
2160,31914,-16.8198,26.4523,-2.49785,100.739,-40.6824,132.946,-36.5601,123.779,-111.938,0.0067749,-0.491516,-0.573578,-0.655151,818,58051,4261,3009,-30108
2166,31920,-23.0549,29.1129,-3.28262,98.2068,-39.0015,135.835,-74.1577,146.057,-186.401,0.00500488,-0.481171,-0.575592,-0.661102,734,58060,4313,3009,-30108
2172,31926,-24.7871,22.2988,5.53643,96.7786,-37.8918,137.461,-86.3647,184.814,-222.778,-0.00158691,-0.457397,-0.58078,-0.673309,581,58074,4396,3009,-30108
2178,31932,-23.9114,38.1138,11.0059,94.9658,-36.5131,139.999,-57.6782,335.999,-284.363,-0.00244141,-0.438324,-0.585327,-0.682007,514,58082,4423,3009,-30108
2184,31938,-35.19,47.5501,3.74199,92.3456,-35.0354,141.427,-360.046,173.34,-280.212,-0.013092,-0.42395,-0.580505,-0.694977,498,58093,4440,3009,-30108
2190,31944,-38.4535,41.6931,3.55537,90.2802,-34.4531,142.509,-291.687,135.864,-91.7358,-0.0176697,-0.415344,-0.573975,-0.705414,476,58109,4448,3009,-30108
2196,31950,-11.5705,9.71387,21.2557,88.7091,-34.4476,143.091,-251.099,-23.1323,70.4346,-0.0197754,-0.41217,-0.566376,-0.713318,457,58086,4448,3009,-30108
2202,31956,-2.25859,-0.521582,14.7,87.0117,-34.9475,142.262,-185.303,-198.425,79.4678,-0.0280762,-0.418427,-0.550903,-0.721466,421,58074,4410,3009,-30108
2208,31962,7.13945,-15.7288,-4.5124,87.4512,-35.2112,140.51,-113.892,-331.543,66.2842,-0.0358582,-0.428284,-0.546234,-0.718872,404,58039,4376,3009,-30108
2214,31968,5.37852,-15.1163,-12.4318,88.5992,-35.2057,138.071,-53.0396,-442.139,12.146,-0.0467834,-0.440277,-0.544189,-0.712524,391,58014,4337,3009,-30108
2220,31974,15.1211,-6.39775,-16.6906,90.4889,-35.1398,135.961,132.69,-389.343,11.4746,-0.0528564,-0.450806,-0.547943,-0.702576,373,57993,4298,3009,-30108
2226,31980,28.5578,23.342,-0.674707,93.8123,-34.5905,134.313,153.381,-72.998,-35.4614,-0.0536194,-0.457977,-0.55777,-0.690063,352,57973,4261,3009,-30108
2232,31986,25.457,41.7888,3.42139,92.8455,-34.5575,135.445,-70.3125,150.635,7.87354,-0.050354,-0.45166,-0.5625,-0.690613,378,57936,4209,2976,-30208
2238,31992,13.786,20.0402,-17.8486,90.9064,-34.2499,137.455,-167.969,297.607,-47.6685,-0.0476074,-0.439545,-0.559753,-0.700806,429,57919,4193,2976,-30208
2244,31998,4.35928,11.3025,-10.9102,88.5114,-33.9423,139.823,-223.389,362.427,-34.6069,-0.0439148,-0.425568,-0.555054,-0.713287,472,57903,4180,2976,-30208
2250,32004,-2.03369,9.82871,-4.45498,86.1438,-33.5742,141.949,-248.84,326.599,-33.7524,-0.0414734,-0.412567,-0.549286,-0.725403,465,57892,4163,2976,-30208
2256,32010,-7.65146,4.3832,3.66543,82.3535,-32.97,144.965,-209.045,186.035,0,-0.0400085,-0.401581,-0.543335,-0.736084,477,57846,4116,2976,-30208
2262,32016,-4.70381,3.25869,7.36914,81.0626,-32.8052,145.838,-174.438,118.347,11.9019,-0.0386658,-0.388245,-0.532867,-0.750793,444,57815,4077,2976,-30208
2268,32022,-4.39756,2.23945,7.54619,80.2661,-32.6074,146.223,-128.723,37.5977,-6.89697,-0.039978,-0.385071,-0.529602,-0.754669,421,57794,4028,2976,-30208
2274,32028,-0.674707,1.47861,5.82354,79.9146,-32.4921,146.31,-71.6553,-14.1602,1.0376,-0.0412598,-0.383911,-0.527985,-0.756348,406,57779,3975,2976,-30208
2280,32034,3.25869,4.81865,3.9334,79.931,-32.3877,146.201,-18.6768,-46.3867,-2.2583,-0.0424805,-0.38382,-0.528046,-0.756256,396,57726,3918,2976,-30208
2286,32040,5.75654,12.4988,-0.119629,80.1013,-32.1899,145.986,-14.2212,-37.5977,-0.915527,-0.0435181,-0.383972,-0.5289,-0.755524,373,57638,3813,2976,-30208
2292,32046,7.48877,12.2069,-0.823047,79.8816,-32.0691,146.036,-49.4385,-14.0381,-3.60107,-0.0455627,-0.382721,-0.528229,-0.7565,362,57603,3766,2976,-30208
2298,32052,8.62285,10.1254,-0.880469,79.4696,-31.9208,146.266,-68.9087,19.4702,-3.66211,-0.0462646,-0.380646,-0.526794,-0.758514,353,57572,3722,2976,-30208
2304,32058,7.4457,8.48887,0.626855,78.9532,-31.745,146.651,-74.2188,47.7295,-4.45557,-0.0464478,-0.377686,-0.525208,-0.761078,340,57545,3681,2976,-30208
2310,32064,6.01494,8.34531,1.33027,78.4149,-31.5143,147.079,-72.6318,60.791,-12.8784,-0.0466003,-0.374146,-0.523804,-0.763763,328,57521,3640,2976,-30208
2316,32070,2.52178,6.89063,2.62705,77.4976,-31.0913,147.821,-60.9741,45.3491,-9.76563,-0.0467834,-0.370758,-0.522583,-0.766266,312,57488,3560,2976,-30208
2322,32076,2.12939,6.44082,3.6415,77.1844,-30.8936,148.046,-49.0112,28.7476,-14.2822,-0.0475769,-0.365601,-0.520721,-0.769928,307,57475,3519,2976,-30208
2328,32082,2.43086,6.42647,4.23965,76.9977,-30.7178,148.189,-33.5083,14.1602,-12.9395,-0.0481873,-0.363831,-0.520447,-0.770935,302,57466,3476,2976,-30208
2334,32088,2.55527,6.90498,4.56504,76.9043,-30.564,148.277,-18.5547,4.5166,-12.3291,-0.0487671,-0.362488,-0.520599,-0.771423,299,57460,3328,2976,-30208
2340,32094,3.32568,7.59883,3.10557,76.8933,-30.4321,148.31,-7.62939,-4.39453,-10.6201,-0.0493164,-0.361511,-0.521057,-0.771545,297,57457,3393,2976,-30208
