TimeSinceCollection,Timestamp,AccX,AccY,AccZ,AngleRoll,AnglePitch,AngleYaw,AngularVelX,AngularVelY,             AngularVelZ,Q1,Q2,Q3,Q4,MagX,MagY,MagZ,Height,Airpressure
0,143496,5.36895,8.22568,-0.105273,88.8574,-33.6401,129.452,-1.28174,0.427246,0.793457,-0.108643,-0.472931,-0.51767,-0.704559,65314,57754,3481,3135,-30123
6,143502,5.34023,8.21133,-0.114844,88.8519,-33.6401,129.452,-1.15967,0.366211,0.854492,-0.108643,-0.472931,-0.51767,-0.70459,65348,57753,3478,3135,-30123
12,143508,5.34023,8.22568,-0.0861328,88.8519,-33.6456,129.452,-1.0376,0.488281,0.671387,-0.108612,-0.472931,-0.51767,-0.70459,65379,57754,3477,3135,-30123
18,143514,5.30674,8.23047,-0.0382813,88.8519,-33.6456,129.457,-1.0376,0.366211,0.671387,-0.108582,-0.472931,-0.517639,-0.70462,65389,57756,3472,3135,-30123
24,143520,5.35459,8.22568,-0.124414,88.8519,-33.6456,129.457,-0.732422,0.0610352,0.671387,-0.108582,-0.4729,-0.517639,-0.70462,65371,57755,3474,3135,-30123
30,143526,5.36895,8.26396,-0.119629,88.8519,-33.6456,129.463,-0.732422,0.183105,0.610352,-0.108551,-0.472931,-0.51767,-0.70462,65354,57754,3477,3135,-30123
36,143532,5.35938,8.27832,-0.119629,88.8519,-33.6511,129.463,-1.09863,0.183105,0.854492,-0.108521,-0.472931,-0.51767,-0.70462,65339,57754,3480,3135,-30123
42,143538,5.39287,8.2209,-0.110059,88.8519,-33.6511,129.463,-1.28174,0.427246,0.610352,-0.108521,-0.472931,-0.51767,-0.70462,65325,57754,3483,3135,-30123
48,143544,5.36895,8.25439,-0.0957031,88.8464,-33.6511,129.468,-1.28174,0.610352,0.488281,-0.10849,-0.4729,-0.51767,-0.70462,65392,57753,3485,3135,-30123
54,143550,5.37852,8.20176,-0.14834,88.8464,-33.6511,129.474,-1.46484,0.427246,0.488281,-0.108459,-0.47287,-0.517639,-0.704651,65371,57752,3489,3135,-30123
60,143556,5.35938,8.22568,-0.13877,88.8409,-33.6511,129.474,-1.0376,0.366211,0.427246,-0.108459,-0.47287,-0.517639,-0.704681,65353,57751,3491,3135,-30123
66,143562,5.37373,8.27354,-0.0334961,88.8354,-33.6511,129.479,-1.46484,0.549316,0.488281,-0.108459,-0.47287,-0.517639,-0.704681,65385,57748,3492,3135,-30123
72,143568,5.29717,8.2209,0.0382813,88.83,-33.6511,129.479,-1.83105,0.549316,0.427246,-0.108459,-0.472839,-0.517609,-0.704712,65415,57745,3490,3135,-30123
78,143574,5.30195,8.1252,-0.0334961,88.83,-33.6511,129.485,-1.09863,0.366211,0.427246,-0.108459,-0.472809,-0.517609,-0.704742,65391,57743,3486,3135,-30123
84,143580,5.31152,8.16348,-0.0717773,88.83,-33.6566,129.485,-0.549316,-0.12207,0.549316,-0.108429,-0.472809,-0.517609,-0.704742,65353,57743,3478,3135,-30123
90,143586,5.3833,8.28311,-0.0957031,88.8409,-33.6566,129.479,-0.793457,-0.244141,0.427246,-0.108429,-0.472839,-0.517639,-0.704712,65336,57743,3474,3135,-30123
96,143592,5.39287,8.22568,-0.100488,88.8354,-33.6566,129.485,-1.15967,0,0.488281,-0.108429,-0.472839,-0.517639,-0.704712,65321,57744,3474,3135,-30123
102,143598,5.37852,8.21611,-0.0813477,88.8354,-33.6566,129.485,-1.0376,0.183105,0.366211,-0.108429,-0.472839,-0.517639,-0.704712,65310,57745,3474,3135,-30123
108,143604,5.33066,8.24482,-0.090918,88.8354,-33.6566,129.485,-1.15967,0.183105,0.305176,-0.108398,-0.472839,-0.517639,-0.704712,65296,57743,3470,3135,-30123
114,143610,5.33545,8.24961,-0.100488,88.8354,-33.6566,129.485,-1.0376,-0.12207,0.305176,-0.108398,-0.472809,-0.517639,-0.704712,65274,57743,3468,3135,-30123
120,143616,5.32588,8.21611,-0.0574219,88.8354,-33.6566,129.49,-1.0376,-0.183105,0.366211,-0.108398,-0.472809,-0.517639,-0.704712,65265,57743,3468,3135,-30123
126,143622,5.3498,8.21611,-0.0526367,88.8409,-33.6566,129.485,-1.0376,-0.305176,0.366211,-0.108398,-0.472809,-0.51767,-0.704712,65256,57742,3471,3135,-30123
132,143628,5.33066,8.2209,-0.062207,88.8409,-33.6566,129.485,-0.976563,-0.427246,0.366211,-0.108398,-0.472809,-0.51767,-0.704712,65298,57743,3474,3135,-30123
138,143634,5.35459,8.21133,-0.062207,88.8409,-33.6511,129.485,-0.854492,-0.488281,0.183105,-0.108398,-0.472809,-0.51767,-0.704712,65288,57745,3475,3135,-30123
144,143640,5.3498,8.23047,-0.062207,88.8464,-33.6511,129.479,-0.854492,-0.854492,0.12207,-0.108398,-0.472809,-0.5177,-0.704681,65281,57746,3476,3135,-30123
150,143646,5.34023,8.20654,-0.0478516,88.8464,-33.6511,129.479,-0.976563,-0.610352,0.183105,-0.108398,-0.472839,-0.5177,-0.704651,65264,57747,3473,3135,-30123
156,143652,5.34502,8.22568,-0.0717773,88.8574,-33.6511,129.474,-0.549316,-0.671387,0.366211,-0.108398,-0.472839,-0.517731,-0.70462,65257,57748,3474,3135,-30123
162,143658,5.34502,8.24004,-0.119629,88.8629,-33.6511,129.474,-0.549316,-0.732422,0.244141,-0.108398,-0.47287,-0.517761,-0.70462,65252,57749,3475,3135,-30123
168,143664,5.39287,8.28789,-0.186621,88.8684,-33.6456,129.474,-0.732422,-0.793457,0.183105,-0.108398,-0.47287,-0.517761,-0.70459,65246,57749,3476,3135,-30123
174,143670,5.40723,8.30703,-0.14834,88.8684,-33.6456,129.474,-1.0376,-0.427246,0.183105,-0.108398,-0.47287,-0.517792,-0.704559,65239,57750,3479,3135,-30123
180,143676,5.40244,8.25439,-0.105273,88.8684,-33.6456,129.474,-1.2207,-0.0610352,0.244141,-0.108398,-0.47287,-0.517792,-0.704559,65233,57750,3485,3135,-30123
186,143682,5.34502,8.21133,-0.0478516,88.8629,-33.6456,129.485,-1.34277,0.244141,0.12207,-0.108398,-0.472839,-0.517822,-0.70459,65228,57750,3486,3135,-30123
192,143688,5.30195,8.20176,-0.0574219,88.8629,-33.6456,129.485,-1.0376,-0.183105,0.244141,-0.108368,-0.472809,-0.517822,-0.70459,65223,57750,3487,3135,-30123
198,143694,5.30674,8.21133,-0.110059,88.8629,-33.6456,129.485,-0.854492,-0.671387,0.12207,-0.108368,-0.472809,-0.517822,-0.70459,65221,57750,3487,3135,-30123
204,143700,5.3833,8.25918,-0.114844,88.8684,-33.6401,129.485,-0.793457,-0.610352,0.183105,-0.108368,-0.472809,-0.517853,-0.70459,65219,57749,3489,3135,-30123
210,143706,5.42158,8.27354,-0.105273,88.8684,-33.6401,129.485,-1.28174,-0.12207,0.0610352,-0.108368,-0.472809,-0.517883,-0.704559,65215,57748,3490,3135,-30123
216,143712,5.33066,8.19697,-0.0430664,88.8629,-33.6401,129.49,-1.52588,0.244141,0.244141,-0.108368,-0.472748,-0.517883,-0.70459,65208,57745,3489,3135,-30123
222,143718,5.30674,8.22568,-0.062207,88.8574,-33.6346,129.496,-1.2207,-0.12207,0.0610352,-0.108337,-0.472717,-0.517883,-0.70459,65255,57744,3487,3135,-30123
228,143724,5.33066,8.19697,-0.0430664,88.8629,-33.6401,129.49,-1.52588,0.244141,0.244141,-0.108368,-0.472748,-0.517883,-0.70459,65208,57745,3489,3135,-30123
2334,145830,5.30674,8.22568,-0.062207,88.8574,-33.6346,129.496,-1.2207,-0.12207,0.0610352,-0.108337,-0.472717,-0.517883,-0.70459,65255,57744,3487,3135,-30123
2340,145836,5.37373,8.23047,-0.0861328,88.6981,-33.5742,129.424,-0.976563,0.183105,0.549316,-0.109894,-0.472595,-0.516846,-0.7052,65260,57762,3473,3126,-30122
2352,145848,5.37373,8.23047,-0.0861328,88.6981,-33.5742,129.435,-1.09863,0.366211,0.427246,-0.109802,-0.472534,-0.516907,-0.705231,65241,57767,3466,3126,-30122
2358,145854,5.34023,8.23525,-0.0526367,88.6926,-33.5742,129.441,-1.15967,0,0.610352,-0.109772,-0.472534,-0.516907,-0.705231,65237,57768,3464,3126,-30122
2364,145860,5.33066,8.21133,-0.062207,88.6926,-33.5742,129.441,-0.915527,-0.0610352,0.366211,-0.109741,-0.472504,-0.516907,-0.705261,65230,57768,3459,3126,-30122
2370,145866,5.34502,8.24004,-0.0526367,88.6926,-33.5742,129.446,-1.0376,-0.12207,0.488281,-0.109741,-0.472504,-0.516937,-0.705261,65224,57767,3456,3126,-30122
2376,145872,5.35459,8.24004,-0.0717773,88.6981,-33.5742,129.446,-0.976563,-0.0610352,0.427246,-0.109711,-0.472504,-0.516937,-0.705261,65220,57767,3455,3126,-30122
2382,145878,5.34502,8.24004,-0.062207,88.6981,-33.5742,129.452,-1.09863,-0.0610352,0.488281,-0.10968,-0.472473,-0.516937,-0.705261,65216,57766,3456,3126,-30122
2388,145884,5.33066,8.22568,-0.0765625,88.6926,-33.5742,129.457,-1.09863,0,0.366211,-0.10965,-0.472473,-0.516968,-0.705261,65212,57766,3456,3126,-30122
2394,145890,5.33066,8.24004,-0.0574219,88.6926,-33.5797,129.463,-1.0376,0,0.427246,-0.109619,-0.472443,-0.516998,-0.705261,65211,57766,3455,3126,-30122
2400,145896,5.35459,8.25439,-0.062207,88.6981,-33.5797,129.468,-0.915527,0.0610352,0.610352,-0.109589,-0.472443,-0.516998,-0.705261,65209,57766,3454,3126,-30122
2406,145902,5.34023,8.25439,-0.0574219,88.6981,-33.5797,129.468,-0.976563,-0.12207,0.671387,-0.109558,-0.472412,-0.516998,-0.705261,65205,57766,3453,3126,-30122
2412,145908,5.3833,8.24004,-0.100488,88.6981,-33.5797,129.474,-0.915527,-0.0610352,0.488281,-0.109528,-0.472412,-0.517029,-0.705261,65202,57766,3452,3126,-30122
2418,145914,5.36895,8.25439,-0.0574219,88.6981,-33.5797,129.474,-1.09863,0.0610352,0.488281,-0.109497,-0.472382,-0.517059,-0.705261,65201,57766,3454,3126,-30122
2424,145920,5.30674,8.23047,-0.0430664,88.6926,-33.5797,129.485,-1.2207,0.366211,0.427246,-0.109467,-0.472382,-0.517059,-0.705292,65200,57764,3455,3126,-30122
2430,145926,5.32588,8.22568,-0.0239258,88.6926,-33.5852,129.49,-1.09863,0.12207,0.671387,-0.109436,-0.472351,-0.517059,-0.705292,65199,57762,3457,3126,-30122
2436,145932,5.34023,8.24961,-0.0526367,88.6926,-33.5852,129.49,-0.976563,-0.0610352,0.549316,-0.109406,-0.472321,-0.51709,-0.705292,65200,57761,3459,3126,-30122
2442,145938,5.33066,8.24004,-0.0574219,88.6981,-33.5852,129.496,-0.854492,-0.183105,0.488281,-0.109375,-0.472321,-0.51709,-0.705292,65201,57761,3462,3126,-30122
2448,145944,5.33545,8.24482,-0.090918,88.6981,-33.5852,129.496,-1.0376,0.0610352,0.427246,-0.109344,-0.472321,-0.51712,-0.705292,65288,57762,3462,3126,-30122
2454,145950,5.35459,8.23525,-0.0430664,88.6926,-33.5852,129.501,-1.15967,0.244141,0.610352,-0.109314,-0.47229,-0.51712,-0.705322,65277,57765,3461,3126,-30122
2460,145956,5.32588,8.2209,-0.0430664,88.6926,-33.5852,129.501,-1.15967,0.0610352,0.244141,-0.109314,-0.47229,-0.51712,-0.705322,65317,57766,3463,3126,-30122
2466,145962,5.31631,8.23525,-0.0430664,88.6926,-33.5852,129.507,-0.976563,0.0610352,0.488281,-0.109314,-0.47229,-0.51712,-0.705322,65353,57765,3464,3126,-30122
2472,145968,5.33066,8.23047,-0.0669922,88.6926,-33.5852,129.507,-0.793457,-0.12207,0.549316,-0.109283,-0.47226,-0.51712,-0.705322,65337,57766,3466,3126,-30122
2478,145974,5.36416,8.25918,-0.114844,88.6926,-33.5852,129.507,-0.976563,-0.305176,0.488281,-0.109283,-0.47226,-0.51712,-0.705322,65311,57763,3469,3126,-30122
2484,145980,5.35938,8.28311,-0.0717773,88.6981,-33.5907,129.507,-1.0376,0.0610352,0.366211,-0.109253,-0.47229,-0.517151,-0.705322,65297,57760,3470,3126,-30122
2490,145986,5.34502,8.26396,-0.0574219,88.6926,-33.5907,129.512,-1.0376,0.244141,0.427246,-0.109253,-0.47226,-0.517151,-0.705322,65335,57758,3473,3126,-30122
2496,145992,5.33066,8.24482,-0.0287109,88.6926,-33.5907,129.512,-1.0376,0.183105,0.488281,0,0,0,0,65321,57758,3328,0,0
2508,146004,5.33066,8.24482,-0.0287109,88.6981,-33.5907,129.518,-0.854492,-0.12207,0.549316,-0.109192,-0.472229,-0.517181,-0.705322,65297,57757,3473,3126,-30122
2514,146010,5.33066,8.27832,-0.0526367,88.6981,-33.5907,129.518,-0.854492,0,0.366211,-0.109161,-0.472229,-0.517181,-0.705322,65278,57759,3471,3126,-30122
2520,146016,5.35459,8.21611,-0.0765625,88.6926,-33.5907,129.529,-1.40381,0.305176,0.366211,-0.109161,-0.472198,-0.517181,-0.705322,65271,57759,3469,3126,-30122
2526,146022,5.33066,8.22568,-0.0239258,88.6926,-33.5907,129.529,-1.0376,0.183105,0.366211,-0.109131,-0.472198,-0.517212,-0.705353,65262,57758,3468,3126,-30122
2532,146028,5.32588,8.24482,-0.0239258,88.6926,-33.5907,129.534,-1.0376,0.0610352,0.488281,-0.109131,-0.472168,-0.517212,-0.705353,65256,57760,3471,3126,-30122
2538,146034,5.34502,8.24004,-0.0574219,88.6926,-33.5907,129.534,-0.915527,-0.244141,0.305176,-0.1091,-0.472168,-0.517212,-0.705353,65252,57762,3470,3126,-30122
2544,146040,5.35938,8.25439,-0.090918,88.6926,-33.5907,129.54,-0.854492,-0.12207,0.610352,-0.1091,-0.472137,-0.517242,-0.705353,65240,57764,3472,3126,-30122
2550,146046,5.37852,8.26875,-0.0478516,88.6926,-33.5907,129.54,-1.2207,0.366211,0.427246,-0.109039,-0.472137,-0.517242,-0.705353,65233,57764,3473,3126,-30122
2556,146052,5.3498,8.21133,-0.0526367,88.6926,-33.5907,129.551,-1.2207,0.305176,0.427246,-0.109009,-0.472107,-0.517273,-0.705383,65229,57764,3475,3126,-30122
2562,146058,5.34023,8.20654,-0.0430664,88.6871,-33.5907,129.556,-1.0376,0.244141,0.488281,-0.108978,-0.472076,-0.517273,-0.705383,65224,57764,3477,3126,-30122
2568,146064,5.32588,8.22568,-0.0478516,88.6871,-33.5907,129.562,-1.0376,0.0610352,0.427246,-0.108948,-0.472076,-0.517273,-0.705383,65221,57763,3478,3126,-30122
2574,146070,5.32588,8.24961,-0.0526367,88.6871,-33.5907,129.562,-0.854492,0.0610352,0.610352,-0.108948,-0.472046,-0.517303,-0.705383,65220,57762,3479,3126,-30122
2580,146076,5.3498,8.24961,-0.0717773,88.6871,-33.5962,129.567,-1.0376,0.12207,0.732422,-0.108856,-0.472015,-0.517334,-0.705414,65218,57762,3480,3126,-30122
2586,146082,5.36416,8.24482,-0.0669922,88.6871,-33.5962,129.578,-1.09863,0.183105,0.549316,-0.108826,-0.472015,-0.517334,-0.705414,65214,57762,3482,3126,-30122
2592,146088,5.36416,8.24482,-0.0669922,88.6871,-33.5962,129.584,-1.0376,0.366211,0.488281,-0.108795,-0.471985,-0.517334,-0.705414,65211,57763,3483,3126,-30122
2598,146094,5.32109,8.24004,-0.0239258,88.6871,-33.5962,129.589,-1.0376,0.305176,0.488281,-0.108765,-0.471954,-0.517365,-0.705444,65211,57765,3486,3126,-30122
2604,146100,5.34502,8.24004,-0.0861328,88.6871,-33.5962,129.595,-0.915527,0.183105,0.427246,-0.108734,-0.471954,-0.517365,-0.705444,65210,57765,3489,3126,-30122
2610,146106,5.32588,8.25439,-0.0478516,88.6871,-33.5962,129.6,-1.09863,0.12207,0.366211,-0.108704,-0.471924,-0.517395,-0.705444,65204,57763,3491,3126,-30122
2616,146112,5.35459,8.2209,-0.0717773,88.6816,-33.5962,129.606,-1.0376,0.305176,0.549316,-0.108673,-0.471893,-0.517426,-0.705475,65202,57761,3491,3126,-30122
2622,146118,5.35938,8.25439,-0.0717773,88.6816,-33.5962,129.611,-1.09863,0.366211,0.244141,-0.108612,-0.471863,-0.517426,-0.705475,65199,57758,3491,3126,-30122
2628,146124,5.34023,8.23525,-0.0382813,88.6816,-33.5962,129.617,-1.28174,0.305176,0.366211,-0.108612,-0.471832,-0.517456,-0.705475,65247,57756,3491,3126,-30122
2634,146130,5.31152,8.25439,-0.0526367,88.6761,-33.5962,129.622,-1.15967,0.244141,0.671387,-0.108582,-0.471802,-0.517456,-0.705505,65241,57755,3490,3126,-30122
2640,146136,5.2876,8.22568,-0.0143555,88.6761,-33.6017,129.628,-1.0376,0.12207,0.488281,-0.108551,-0.471802,-0.517456,-0.705505,65239,57753,3491,3126,-30122
2646,146142,5.33545,8.21133,-0.0430664,88.6761,-33.6017,129.628,-1.09863,0,0.610352,-0.108521,-0.471771,-0.517487,-0.705536,65278,57752,3483,3126,-30122
2652,146148,5.33066,8.23525,-0.0717773,88.6816,-33.6017,129.628,-0.732422,-0.305176,0.488281,-0.10849,-0.471771,-0.517487,-0.705505,65318,57752,3479,3126,-30122
2658,146154,5.35938,8.27832,-0.0717773,88.6816,-33.6017,129.628,-0.793457,-0.244141,0.488281,-0.10849,-0.471771,-0.517487,-0.705505,65304,57753,3477,3126,-30122
2664,146160,5.35938,8.24961,-0.0813477,88.6816,-33.6017,129.628,-1.0376,-0.0610352,0.488281,-0.108459,-0.471771,-0.517517,-0.705505,65341,57754,3474,3126,-30122
2670,146166,5.34502,8.25918,-0.0526367,88.6816,-33.6017,129.628,-1.09863,0.12207,0.488281,-0.108459,-0.471771,-0.517517,-0.705505,65374,57756,3469,3126,-30122
2676,146172,5.34502,8.23047,-0.0574219,88.6816,-33.6017,129.633,-1.15967,0.183105,0.488281,-0.108459,-0.471771,-0.517517,-0.705505,65342,57758,3461,3126,-30122
2682,146178,5.29717,8.21611,-0.0574219,88.6816,-33.6072,129.633,-0.793457,-0.12207,0.488281,-0.108459,-0.471771,-0.517517,-0.705505,65327,57758,3455,3126,-30122
2688,146184,5.35938,8.26396,-0.062207,88.6871,-33.6072,129.633,-0.854492,-0.244141,0.610352,-0.108429,-0.471771,-0.517517,-0.705505,65312,57759,3450,3126,-30122
2694,146190,5.37373,8.25439,-0.0957031,88.6871,-33.6072,129.633,-0.976563,0.12207,0.366211,-0.108429,-0.471802,-0.517517,-0.705505,65300,57760,3450,3126,-30122
2700,146196,5.34023,8.26396,-0.0382813,88.6871,-33.6072,129.633,-1.0376,0.0610352,0.366211,-0.108398,-0.471771,-0.517517,-0.705505,65290,57760,3453,3126,-30122
2706,146202,5.35938,8.24961,-0.0382813,88.6816,-33.6072,129.639,-1.15967,0.183105,0.549316,-0.108398,-0.471771,-0.517548,-0.705505,65279,57757,3456,3126,-30122
2712,146208,5.33545,8.22568,-0.0430664,88.6816,-33.6072,129.639,-0.976563,0.244141,0.488281,-0.108368,-0.471741,-0.517548,-0.705505,65263,57754,3464,3126,-30122
2718,146214,5.33066,8.24004,-0.0669922,88.6816,-33.6072,129.65,-0.976563,0,0.366211,-0.108337,-0.471741,-0.517548,-0.705505,65258,57755,3464,3126,-30122
2724,146220,5.33545,8.22568,-0.0717773,88.6816,-33.6072,129.65,-0.976563,-0.244141,0.427246,-0.108337,-0.47171,-0.517578,-0.705505,65252,57755,3462,3126,-30122
2730,146226,5.36416,8.24961,-0.100488,88.6871,-33.6072,129.65,-0.976563,-0.0610352,0.427246,-0.108337,-0.47171,-0.517578,-0.705505,65245,57757,3462,3126,-30122
2736,146232,5.36416,8.24482,-0.062207,88.6871,-33.6072,129.655,-1.0376,0,0.488281,-0.108307,-0.47171,-0.517578,-0.705505,65239,57758,3462,3126,-30122
2742,146238,5.35459,8.24004,-0.0813477,88.6816,-33.6072,129.655,-1.0376,0.12207,0.366211,-0.108276,-0.47168,-0.517609,-0.705536,65231,57760,3462,3126,-30122
2748,146244,5.3498,8.23047,-0.0478516,88.6816,-33.6072,129.661,-1.2207,0.12207,0.366211,-0.108246,-0.47168,-0.517609,-0.705536,65230,57760,3464,3126,-30122
2754,146250,5.3498,8.24482,-0.062207,88.6816,-33.6072,129.666,-1.09863,0.0610352,0.244141,-0.108246,-0.471649,-0.517609,-0.705536,65233,57762,3465,3126,-30122
2760,146256,5.34023,8.24961,-0.0574219,88.6816,-33.6072,129.666,-1.2207,-0.0610352,0.366211,-0.108215,-0.471619,-0.517639,-0.705536,65234,57763,3467,3126,-30122
2766,146262,5.33545,8.2209,-0.100488,88.6816,-33.6072,129.672,-1.0376,-0.0610352,0.183105,-0.108215,-0.471619,-0.517639,-0.705536,65232,57763,3467,3126,-30122
2772,146268,5.37852,8.25439,-0.062207,88.6816,-33.6072,129.672,-1.09863,0,0.366211,-0.108215,-0.471619,-0.517639,-0.705536,65226,57763,3464,3126,-30122
2778,146274,5.34023,8.25439,-0.0813477,88.6816,-33.6017,129.677,-1.28174,0.12207,0.427246,-0.108185,-0.471588,-0.51767,-0.705566,65225,57762,3463,3126,-30122
2784,146280,5.33066,8.21133,-0.0574219,88.6761,-33.6072,129.683,-1.40381,0.0610352,0.427246,-0.108185,-0.471558,-0.51767,-0.705566,65222,57759,3462,3126,-30122
2790,146286,5.32588,8.23047,-0.0574219,88.6761,-33.6072,129.683,-1.0376,0,0.366211,-0.108154,-0.471558,-0.51767,-0.705566,65220,57759,3465,3126,-30122
2796,146292,5.37852,8.2209,-0.0861328,88.6761,-33.6017,129.688,-1.0376,-0.12207,0.366211,-0.108154,-0.471527,-0.5177,-0.705597,65219,57760,3466,3126,-30122
2802,146298,5.3498,8.24961,-0.0765625,88.6761,-33.6017,129.688,-1.09863,0.12207,0.183105,-0.108124,-0.471527,-0.5177,-0.705597,65219,57761,3465,3126,-30122
2808,146304,5.37852,8.27832,-0.090918,88.6761,-33.6017,129.694,-1.2207,0,0.366211,-0.108093,-0.471497,-0.517731,-0.705597,65215,57764,3464,3126,-30122
2814,146310,5.36416,8.24004,-0.0526367,88.6707,-33.6017,129.699,-1.28174,0.183105,0.366211,-0.108093,-0.471466,-0.517731,-0.705597,65217,57766,3464,3126,-30122
2820,146316,5.3498,8.24961,-0.062207,88.6707,-33.6017,129.705,-1.15967,0.12207,0.366211,-0.108063,-0.471466,-0.517731,-0.705627,65217,57766,3465,3126,-30122
2826,146322,5.33066,8.25439,-0.0574219,88.6707,-33.6017,129.705,-1.28174,0.12207,0.12207,-0.108063,-0.471436,-0.517731,-0.705627,65216,57766,3463,3126,-30122
2832,146328,5.36416,8.24004,-0.0765625,88.6707,-33.6017,129.71,-1.28174,-0.12207,0.427246,-0.108063,-0.471405,-0.517731,-0.705627,65214,57766,3460,3126,-30122
2838,146334,5.35938,8.21611,-0.0765625,88.6652,-33.6017,129.71,-1.40381,0.0610352,0.12207,-0.108032,-0.471405,-0.517731,-0.705627,65211,57765,3457,3126,-30122
2844,146340,5.34502,8.3166,-0.062207,88.6652,-33.5962,129.716,-1.15967,0.427246,0.244141,-0.108063,-0.471375,-0.517761,-0.705658,65256,57764,3457,3126,-30122
2850,146346,5.29238,8.30703,0.0382813,88.6597,-33.5962,129.721,-1.95313,0.610352,0.12207,0,0,0,0,65249,57763,3462,0,0
2862,146358,5.29238,8.30703,0.0382813,88.6542,-33.5962,129.727,0,0,0,-0.108032,-0.471283,-0.517731,-0.705719,65243,57761,3467,3126,-30122
2868,146364,5.32588,8.2209,-0.0239258,88.6597,-33.5962,129.727,-0.305176,-0.793457,0.244141,-0.108002,-0.471283,-0.517761,-0.705719,65238,57760,3467,3126,-30122
2874,146370,5.40723,8.33574,-0.162695,88.6652,-33.5962,129.727,-0.427246,-0.488281,0.488281,-0.108002,-0.471313,-0.517792,-0.705658,65232,57761,3465,3126,-30122
2880,146376,5.38809,8.29746,-0.110059,88.6597,-33.5962,129.732,-1.52588,0.366211,0.488281,-0.107971,-0.471313,-0.517822,-0.705658,65228,57761,3462,3126,-30122
2886,146382,5.34023,8.20176,-0.0382813,88.6542,-33.5962,129.732,-1.70898,0.488281,0.366211,-0.107971,-0.471283,-0.517792,-0.705688,65272,57760,3459,3126,-30122
2892,146388,5.29717,8.19697,-0.0287109,88.6542,-33.6017,129.738,-1.2207,0.366211,0.671387,-0.107971,-0.471252,-0.517792,-0.705719,65312,57761,3456,3126,-30122
2898,146394,5.28281,8.2209,-0.0526367,88.6542,-33.5962,129.738,-0.854492,0,0.305176,-0.107941,-0.471252,-0.517792,-0.705719,65300,57762,3457,3126,-30122
2904,146400,5.31631,8.26396,-0.0861328,88.6597,-33.6017,129.738,-0.671387,-0.305176,0.549316,-0.107941,-0.471252,-0.517792,-0.705719,65278,57761,3459,3126,-30122
2910,146406,5.39287,8.24004,-0.0574219,88.6597,-33.6017,129.738,-1.40381,0.183105,0.549316,-0.10791,-0.471252,-0.517822,-0.705719,65271,57762,3459,3126,-30122
2916,146412,5.35459,8.21133,-0.0669922,88.6542,-33.6017,129.743,-1.34277,0.427246,0.488281,-0.10791,-0.471252,-0.517822,-0.705719,65267,57763,3459,3126,-30122
2922,146418,5.32588,8.19697,-0.0430664,88.6542,-33.6017,129.749,-1.2207,0.427246,0.366211,-0.10788,-0.471222,-0.517792,-0.70575,65262,57763,3458,3126,-30122
2928,146424,5.30195,8.20176,-0.0574219,88.6542,-33.6017,129.749,-0.915527,0.12207,0.366211,-0.10788,-0.471222,-0.517822,-0.70575,65254,57763,3459,3126,-30122
2934,146430,5.30195,8.23047,-0.0478516,88.6542,-33.6017,129.754,-1.0376,-0.12207,0.427246,-0.107849,-0.471191,-0.517822,-0.70575,65249,57764,3459,3126,-30122
2940,146436,5.36895,8.24004,-0.0574219,88.6542,-33.6017,129.754,-1.0376,-0.12207,0.366211,-0.107819,-0.471191,-0.517822,-0.70575,65238,57765,3457,3126,-30122
2946,146442,5.34502,8.24482,-0.0334961,88.6542,-33.6017,129.754,-1.0376,0.244141,0.427246,-0.107819,-0.471191,-0.517853,-0.70575,65281,57765,3455,3126,-30122
2952,146448,5.33066,8.22568,-0.0478516,88.6542,-33.6017,129.76,-1.15967,0,0.366211,-0.107819,-0.471191,-0.517853,-0.70575,65271,57767,3456,3126,-30122
2958,146454,5.33066,8.21611,-0.0526367,88.6542,-33.6017,129.76,-0.793457,0.0610352,0.427246,-0.107819,-0.471161,-0.517853,-0.70575,65265,57768,3455,3126,-30122
2964,146460,5.3498,8.26396,-0.0717773,88.6542,-33.6017,129.76,-0.793457,-0.12207,0.427246,-0.107788,-0.471161,-0.517853,-0.70575,65259,57768,3454,3126,-30122
2970,146466,5.3498,8.24961,-0.0717773,88.6597,-33.6017,129.76,-0.854492,-0.244141,0.549316,-0.107758,-0.471161,-0.517883,-0.705719,65250,57770,3450,3126,-30122
2976,146472,5.37373,8.24004,-0.0669922,88.6597,-33.6017,129.76,-1.0376,0,0.488281,-0.107758,-0.471161,-0.517883,-0.705719,65248,57770,3449,3126,-30122
2982,146478,5.3498,8.25439,-0.0430664,88.6597,-33.6017,129.765,-1.0376,0.12207,0.244141,-0.107727,-0.471161,-0.517914,-0.705719,65245,57770,3447,3126,-30122
2988,146484,5.33066,8.23047,-0.0478516,88.6597,-33.6017,129.765,-1.0376,0.0610352,0.366211,-0.107727,-0.471161,-0.517914,-0.705719,65238,57770,3447,3126,-30122
2994,146490,5.34023,8.23047,-0.0526367,88.6597,-33.6017,129.771,-1.0376,0.12207,0.610352,-0.107727,-0.47113,-0.517914,-0.70575,65235,57770,3447,3126,-30122
3000,146496,5.34023,8.24482,-0.062207,88.6597,-33.6072,129.771,-0.915527,-0.183105,0.488281,-0.107697,-0.47113,-0.517914,-0.70575,65228,57770,3447,3126,-30122
3006,146502,5.40723,8.23525,-0.0430664,88.6597,-33.6072,129.771,-0.976563,-0.12207,0.671387,-0.107666,-0.47113,-0.517944,-0.705719,65223,57769,3447,3126,-30122
3012,146508,5.3833,8.24004,-0.0717773,88.6652,-33.6072,129.776,-1.0376,0.0610352,0.488281,-0.107635,-0.47113,-0.517944,-0.705719,65220,57769,3447,3126,-30122
3018,146514,5.35938,8.21611,-0.0717773,88.6597,-33.6072,129.776,-1.09863,0.12207,0.366211,-0.107635,-0.47113,-0.517975,-0.705719,65217,57769,3449,3126,-30122
3024,146520,5.32588,8.24004,-0.0382813,88.6597,-33.6072,129.781,-1.0376,0.183105,0.427246,-0.107605,-0.4711,-0.517975,-0.70575,65213,57768,3450,3126,-30122
3030,146526,5.33066,8.24961,-0.0430664,88.6597,-33.6072,129.781,-0.976563,0,0.488281,-0.107605,-0.4711,-0.517975,-0.70575,65209,57767,3447,3126,-30122
3036,146532,5.31152,8.21611,-0.0430664,88.6597,-33.6072,129.787,-1.0376,-0.0610352,0.488281,-0.107544,-0.4711,-0.518005,-0.70575,65207,57767,3443,3126,-30122
3042,146538,5.36416,8.21611,-0.0478516,88.6597,-33.6127,129.787,-1.0376,-0.0610352,0.671387,-0.107544,-0.471069,-0.518005,-0.70575,65204,57766,3441,3126,-30122
3048,146544,5.33545,8.21611,-0.0430664,88.6652,-33.6127,129.792,-0.976563,-0.0610352,0.549316,-0.107513,-0.471069,-0.518005,-0.70575,65201,57766,3440,3126,-30122
3054,146550,5.33066,8.21133,-0.0717773,88.6652,-33.6127,129.792,-0.854492,-0.12207,0.488281,-0.107483,-0.471069,-0.518005,-0.70575,65199,57766,3441,3126,-30122
3060,146556,5.34023,8.23047,-0.062207,88.6652,-33.6127,129.792,-0.793457,-0.12207,0.549316,-0.107483,-0.471069,-0.518005,-0.70575,65199,57765,3442,3126,-30122
3066,146562,5.34023,8.23047,-0.0717773,88.6652,-33.6127,129.798,-0.976563,-0.0610352,0.610352,-0.107452,-0.471069,-0.518036,-0.70575,65196,57762,3444,3126,-30122
3072,146568,5.33545,8.26396,-0.0669922,88.6652,-33.6182,129.798,-1.0376,0,0.610352,-0.107422,-0.471069,-0.518036,-0.70575,65197,57762,3447,3126,-30122
3078,146574,5.33066,8.24961,-0.0478516,88.6652,-33.6182,129.803,-1.0376,-0.0610352,0.427246,-0.107391,-0.471069,-0.518066,-0.70575,65200,57762,3450,3126,-30122
3084,146580,5.32109,8.2209,-0.0382813,88.6652,-33.6182,129.803,-1.0376,0.12207,0.366211,-0.107391,-0.471039,-0.518066,-0.70575,65201,57761,3450,3126,-30122
3090,146586,5.33066,8.19697,-0.0287109,88.6707,-33.6182,129.809,-0.854492,-0.0610352,0.549316,-0.107361,-0.471039,-0.518066,-0.70575,65202,57760,3452,3126,-30122
3096,146592,5.32588,8.23525,-0.0334961,88.6707,-33.6182,129.809,-0.976563,-0.183105,0.549316,-0.107361,-0.471039,-0.518097,-0.70575,65205,57760,3454,3126,-30122
3102,146598,5.35459,8.24004,-0.0430664,88.6707,-33.6182,129.809,-0.732422,-0.305176,0.610352,-0.1073,-0.471039,-0.518097,-0.70575,65204,57760,3457,3126,-30122
3108,146604,5.36416,8.24482,-0.0813477,88.6707,-33.6182,129.814,-1.0376,-0.0610352,0.427246,-0.1073,-0.471039,-0.518127,-0.705719,65202,57760,3458,3126,-30122
3114,146610,5.36416,8.24961,-0.0765625,88.6707,-33.6182,129.814,-0.976563,0,0.549316,-0.107269,-0.471008,-0.518127,-0.705719,65203,57761,3459,3126,-30122
3120,146616,5.34502,8.2209,-0.0574219,88.6761,-33.6237,129.82,-0.915527,0.0610352,0.549316,-0.107269,-0.471008,-0.518127,-0.705719,65203,57761,3460,3126,-30122
3126,146622,5.3498,8.21611,-0.0382813,88.6761,-33.6237,129.82,-0.854492,0,0.549316,-0.107239,-0.471008,-0.518158,-0.70575,65200,57761,3462,3126,-30122
3132,146628,5.34023,8.21611,-0.0574219,88.6761,-33.6237,129.825,-0.732422,0.0610352,0.488281,-0.107208,-0.471008,-0.518158,-0.70575,65196,57760,3467,3126,-30122
3138,146634,5.3498,8.24961,-0.0526367,88.6816,-33.6237,129.831,-0.793457,-0.12207,0.549316,-0.107147,-0.470978,-0.518188,-0.705719,65195,57760,3470,3126,-30122
3144,146640,5.37852,8.24004,-0.0287109,88.6816,-33.6237,129.831,-0.793457,0,0.488281,-0.107117,-0.470978,-0.518219,-0.705719,65193,57761,3471,3126,-30122
3150,146646,5.35938,8.24961,-0.0478516,88.6816,-33.6237,129.836,-0.976563,0.183105,0.549316,-0.107086,-0.470978,-0.518219,-0.705719,65192,57761,3473,3126,-30122
3156,146652,5.34502,8.22568,-0.062207,88.6816,-33.6292,129.842,-0.976563,0.0610352,0.610352,-0.107056,-0.470947,-0.51825,-0.705719,65191,57760,3475,3126,-30122
3162,146658,5.3498,8.23525,-0.0526367,88.6816,-33.6292,129.842,-0.732422,0.183105,0.549316,-0.107056,-0.470947,-0.51825,-0.705719,65188,57757,3474,3126,-30122
3168,146664,5.34023,8.24961,-0.0717773,88.6816,-33.6292,129.847,-0.854492,-0.0610352,0.610352,-0.106964,-0.470917,-0.51828,-0.705719,65188,57757,3475,3126,-30122
3174,146670,5.33066,8.26875,-0.062207,88.6871,-33.6292,129.853,-0.793457,-0.0610352,0.732422,-0.106964,-0.470917,-0.518311,-0.705719,65191,57758,3474,3126,-30122
3180,146676,5.35459,8.23525,-0.0382813,88.6871,-33.6346,129.853,-0.732422,-0.0610352,0.732422,-0.106934,-0.470917,-0.518311,-0.705719,65196,57758,3473,3126,-30122
3186,146682,5.36895,8.23525,-0.062207,88.6871,-33.6346,129.858,-0.793457,0.183105,0.610352,-0.106903,-0.470917,-0.518311,-0.705719,65196,57759,3470,3126,-30122
3192,146688,5.35938,8.25918,-0.0478516,88.6871,-33.6346,129.864,-0.793457,0.244141,0.549316,-0.106842,-0.470886,-0.518341,-0.705719,65196,57759,3470,3126,-30122
3198,146694,5.32588,8.22568,-0.0478516,88.6871,-33.6346,129.864,-0.671387,-0.0610352,0.732422,-0.106781,-0.470886,-0.518372,-0.705719,65199,57759,3475,3126,-30122
3204,146700,5.35938,8.24961,-0.0574219,88.6926,-33.6401,129.869,-0.793457,0.0610352,0.671387,-0.10675,-0.470886,-0.518372,-0.705719,65198,57758,3478,3126,-30122
3210,146706,5.34023,8.24961,-0.0669922,88.6926,-33.6401,129.875,-0.610352,0.183105,0.610352,-0.10672,-0.470856,-0.518402,-0.705719,65199,57758,3479,3126,-30122
3216,146712,5.35938,8.23525,-0.0813477,88.6926,-33.6401,129.88,-0.854492,0.244141,0.732422,-0.106689,-0.470856,-0.518433,-0.705719,65202,57759,3480,3126,-30122
3222,146718,5.3498,8.24961,-0.0239258,88.6926,-33.6456,129.886,-0.976563,0.244141,0.854492,-0.106659,-0.470825,-0.518433,-0.705719,65204,57759,3481,3126,-30122
3228,146724,5.32588,8.20654,-0.0478516,88.6871,-33.6456,129.891,-1.0376,0.488281,0.854492,-0.106567,-0.470825,-0.518433,-0.70575,65204,57759,3482,3126,-30122
3234,146730,5.31631,8.24004,-0.0861328,88.6926,-33.6511,129.902,-0.427246,0.12207,0.976563,-0.106506,-0.470795,-0.518463,-0.70575,65204,57760,3481,3126,-30122
3240,146736,5.37373,8.29746,-0.105273,88.6926,-33.6511,129.902,-0.549316,-0.0610352,0.915527,-0.106476,-0.470795,-0.518463,-0.70575,65204,57761,3480,3126,-30122
3246,146742,5.35938,8.28311,-0.0957031,88.6926,-33.6566,129.908,-1.0376,0.244141,1.0376,-0.106415,-0.470795,-0.518494,-0.70575,65202,57763,3476,3126,-30122
3252,146748,5.4168,8.28311,-0.0430664,88.6926,-33.6621,129.913,-0.854492,0.488281,0.976563,-0.106384,-0.470795,-0.518494,-0.70575,65200,57764,3472,3126,-30122
3258,146754,5.42158,8.24482,-0.133984,88.6871,-33.6621,129.919,-1.40381,0.976563,1.0376,-0.106354,-0.470795,-0.518494,-0.70575,65201,57765,3466,3126,-30122
3264,146760,5.33545,8.28311,0,88.6816,-33.6676,129.935,-1.2207,0.976563,0.854492,-0.106232,-0.470734,-0.518494,-0.705811,65199,57763,3463,3126,-30122
3270,146766,5.30674,8.2209,0.062207,88.6761,-33.6731,129.946,-1.58691,1.2207,1.2207,-0.106201,-0.470703,-0.518494,-0.705841,65198,57763,3461,3126,-30122
3276,146772,5.29717,8.13955,0.00478516,88.6707,-33.6731,129.952,-1.0376,0.976563,1.15967,-0.10614,-0.470673,-0.518463,-0.705872,65200,57763,3457,3126,-30122
3282,146778,5.29717,8.17783,-0.0813477,88.6707,-33.6786,129.963,-0.305176,1.0376,1.2207,-0.106079,-0.470642,-0.518463,-0.705902,65200,57762,3453,3126,-30122
3288,146784,5.33066,8.35488,-0.062207,88.6761,-33.6841,129.968,-0.305176,0.854492,1.34277,-0.106018,-0.470642,-0.518494,-0.705933,65198,57761,3452,3126,-30122
3294,146790,5.36416,8.21611,-0.114844,88.6707,-33.6896,129.974,-1.09863,0.915527,1.34277,-0.105865,-0.470612,-0.518494,-0.705963,65199,57763,3454,3126,-30122
3300,146796,5.32109,8.26396,-0.0430664,88.6652,-33.6951,129.99,-0.732422,1.2207,1.34277,-0.105804,-0.470581,-0.518494,-0.705994,65201,57764,3456,3126,-30122
3306,146802,5.30674,8.27832,0.129199,88.6542,-33.7061,130.007,-1.40381,1.58691,1.95313,-0.105743,-0.470551,-0.518494,-0.705994,65200,57764,3456,3126,-30122
3312,146808,5.16797,8.16826,0.224902,88.6487,-33.7115,130.023,-0.915527,2.13623,1.95313,-0.105652,-0.47052,-0.518463,-0.706055,65203,57763,3457,3126,-30122
3318,146814,5.09619,7.96729,0.224902,88.6377,-33.717,130.04,-0.915527,2.56348,2.13623,-0.10553,-0.47049,-0.518463,-0.706116,65206,57762,3456,3126,-30122
3324,146820,4.96221,7.88594,0.373242,88.6487,-33.728,130.051,1.46484,1.46484,2.68555,-0.105408,-0.470428,-0.518433,-0.706177,65207,57760,3455,3126,-30122
3330,146826,4.98613,7.9625,0.502441,88.6981,-33.7555,130.045,4.15039,-2.50244,3.23486,-0.105072,-0.47049,-0.518555,-0.706085,65207,57760,3456,3126,-30122
3336,146832,5.18232,7.81416,0.119629,88.7476,-33.772,130.023,6.40869,-4.88281,3.23486,-0.104919,-0.470612,-0.518677,-0.705963,65208,57760,3459,3126,-30122
3342,146838,5.3833,8.1252,-0.0669922,88.8135,-33.783,129.99,8.66699,-6.28662,3.2959,-0.104767,-0.470856,-0.518829,-0.705719,65206,57759,3461,3126,-30122
3348,146844,5.53164,8.4123,-0.114844,88.8794,-33.7994,129.957,8.30078,-6.10352,3.05176,-0.104614,-0.47113,-0.519043,-0.705383,65206,57757,3463,3126,-30122
3354,146850,5.65605,8.4123,-0.373242,88.9288,-33.8104,129.935,6.83594,-4.82178,2.99072,-0.104462,-0.471375,-0.519257,-0.705078,65207,57755,3465,3126,-30122
3360,146856,5.5125,8.43623,-0.062207,88.9728,-33.8214,129.919,4.45557,-0.183105,2.86865,-0.104156,-0.471741,-0.519592,-0.704651,65207,57754,3465,3126,-30122
3366,146862,5.16318,8.27354,0.339746,89.0167,-33.8489,129.935,3.54004,1.70898,3.23486,-0.103973,-0.471832,-0.519714,-0.704529,65205,57754,3468,3126,-30122
3372,146868,4.78994,7.91465,0.732129,89.0332,-33.8599,129.952,4.5166,1.64795,3.84521,-0.103729,-0.471832,-0.519806,-0.704498,65206,57756,3469,3126,-30122
3378,146874,4.5459,7.54141,0.880469,89.0826,-33.8818,129.946,7.87354,-2.13623,4.5166,-0.103455,-0.471832,-0.519928,-0.704437,65208,57756,3473,3126,-30122
3384,146880,4.40713,7.50313,0.904395,89.1705,-33.9038,129.913,12.7563,-7.38525,5.06592,-0.10318,-0.472015,-0.520111,-0.704224,65208,57753,3477,3126,-30122
3390,146886,5.17275,7.86201,-0.0478516,89.3024,-33.9313,129.836,17.8223,-13.855,5.61523,-0.102631,-0.4729,-0.520844,-0.703156,65210,57750,3484,3126,-30122
3396,146892,5.72305,8.28311,-0.588574,89.6375,-33.9807,129.628,21.7285,-20.0195,5.43213,-0.102448,-0.473633,-0.521301,-0.702362,65212,57748,3486,3126,-30122
3402,146898,6.28291,8.70898,-1.1915,89.8022,-33.9972,129.523,19.8364,-18.7378,4.82178,-0.102264,-0.474396,-0.52182,-0.701508,65214,57746,3488,3126,-30122
3408,146904,6.79014,9.04395,-1.86621,89.9231,-34.0137,129.441,15.3809,-14.0381,3.41797,-0.102112,-0.475128,-0.522278,-0.700684,65214,57745,3489,3126,-30122
3414,146910,6.95762,9.24971,-1.92842,89.9945,-34.0247,129.402,8.8501,-6.5918,2.62451,-0.10199,-0.475677,-0.522644,-0.700043,65215,57744,3495,3126,-30122
3420,146916,6.92412,9.19707,-1.89492,90.0055,-34.0302,129.408,1.83105,1.64795,1.40381,-0.101868,-0.475952,-0.522858,-0.699707,65216,57739,3510,3126,-30122
3426,146922,6.02451,8.78555,-0.870898,89.8682,-34.0356,129.562,-7.75146,16.7847,0.488281,-0.101563,-0.475677,-0.522858,-0.699951,65213,57736,3520,3126,-30122
3432,146928,5.4168,8.37881,-0.354102,89.7638,-34.0411,129.677,-9.52148,19.5313,1.2207,-0.101349,-0.475159,-0.522705,-0.700439,65213,57732,3530,3126,-30122
3438,146934,4.87129,8.10606,0.153125,89.6594,-34.0466,129.787,-8.78906,19.043,1.70898,-0.101074,-0.474579,-0.522491,-0.701019,65215,57730,3542,3126,-30122
3444,146940,4.60811,7.86201,0.406738,89.588,-34.0576,129.875,-5.5542,15.1367,2.92969,-0.100769,-0.47403,-0.522308,-0.701599,65215,57726,3552,3126,-30122
3450,146946,4.75645,7.77109,0.100488,89.566,-34.0741,129.919,-0.366211,7.87354,3.78418,-0.100433,-0.473602,-0.522186,-0.701996,65217,57725,3561,3126,-30122
3456,146952,5.8666,8.59414,-1.05752,89.5825,-34.0961,129.93,2.99072,0.854492,3.90625,-0.0999146,-0.473511,-0.522247,-0.702118,65224,57722,3573,3126,-30122
3462,146958,6.47432,8.95303,-1.42598,89.588,-34.1235,129.952,-1.58691,3.96729,3.17383,-0.0997314,-0.473602,-0.522278,-0.702026,65227,57720,3574,3126,-30122
3468,146964,6.66094,9.00088,-1.21543,89.5221,-34.1345,130.012,-7.38525,11.5967,2.56348,-0.0995789,-0.473572,-0.522217,-0.702118,65228,57719,3577,3126,-30122
3474,146970,6.34033,8.77598,-0.703418,89.4012,-34.1455,130.122,-12.6343,19.5313,1.77002,-0.0993958,-0.473267,-0.522034,-0.702484,65232,57717,3580,3126,-30122
3480,146976,5.71348,8.23047,-0.277539,89.2584,-34.1455,130.259,-15.0146,24.1699,1.09863,-0.0991821,-0.472717,-0.521729,-0.703125,65236,57714,3584,3126,-30122
3486,146982,4.99092,7.929,0.172266,89.1156,-34.1675,130.402,-13.7329,24.9023,4.76074,-0.0985107,-0.471313,-0.520996,-0.704712,65240,57710,3582,3126,-30122
3492,146988,4.1918,7.60361,1.11973,88.8959,-34.1949,130.627,-8.42285,17.334,3.96729,-0.0982056,-0.470642,-0.520721,-0.705383,65245,57710,3580,3126,-30122
3498,146994,4.42627,7.54141,0.961816,88.8409,-34.2114,130.688,-5.00488,10.6201,4.39453,-0.0978699,-0.470184,-0.520508,-0.705902,65251,57710,3575,3126,-30122
3504,147000,4.57461,7.40264,0.669922,88.83,-34.2279,130.71,-0.976563,4.15039,3.96729,-0.0975952,-0.469971,-0.520325,-0.706207,65256,57710,3571,3126,-30122
3510,147006,5.00527,7.68018,0.387598,88.8519,-34.2444,130.71,2.56348,-0.12207,3.96729,-0.0974121,-0.46991,-0.520294,-0.706299,65258,57711,3569,3126,-30122
3516,147012,5.43594,8.01514,0.210547,88.8739,-34.2609,130.699,3.35693,-1.2207,3.72314,-0.097229,-0.470032,-0.520325,-0.706238,65265,57713,3562,3126,-30122
3522,147018,5.72783,8.20176,-0.162695,88.8959,-34.2719,130.704,1.46484,2.74658,2.99072,-0.0969238,-0.470245,-0.520447,-0.706055,65267,57714,3560,3126,-30122
3528,147024,5.57471,8.19697,-0.0669922,88.8904,-34.2993,130.743,0.488281,4.82178,3.05176,-0.0967407,-0.470215,-0.520477,-0.706055,65271,57714,3559,3126,-30122
3534,147030,5.31631,8.11084,0.177051,88.8794,-34.3103,130.776,0.244141,5.5542,2.68555,-0.0965271,-0.470154,-0.520477,-0.706116,65277,57714,3555,3126,-30122
3540,147036,5.12012,8.0582,0.392383,88.8684,-34.3158,130.803,0.671387,4.63867,2.68555,-0.096344,-0.470062,-0.520508,-0.706207,65284,57715,3550,3126,-30122
3546,147042,4.97178,7.94814,0.440234,88.8739,-34.3323,130.814,1.95313,2.56348,3.479,-0.0961304,-0.469971,-0.520508,-0.706268,65287,57714,3544,3126,-30122
3552,147048,5.50771,8.03906,-0.248828,88.8904,-34.3433,130.814,2.50244,0.183105,2.68555,-0.0958252,-0.470032,-0.520599,-0.706207,65297,57717,3538,3126,-30122
3558,147054,5.80918,8.26396,-0.526367,88.9398,-34.3542,130.792,2.50244,-2.01416,1.46484,-0.0957336,-0.470154,-0.520691,-0.706085,65303,57718,3535,3126,-30122
3564,147060,6.0293,8.43623,-0.75127,88.9508,-34.3597,130.781,0.183105,-0.610352,0.793457,-0.0956726,-0.470245,-0.520752,-0.705994,65307,57719,3536,3126,-30122
3570,147066,6.01973,8.50322,-0.722559,88.9343,-34.3597,130.792,-1.70898,2.62451,0.671387,-0.0956726,-0.470306,-0.520752,-0.705933,65311,57720,3540,3126,-30122
3576,147072,5.78525,8.55107,-0.354102,88.9014,-34.3597,130.825,-4.15039,6.10352,0.488281,-0.0956726,-0.470245,-0.520721,-0.705994,65316,57720,3543,3126,-30122
3582,147078,5.16318,7.8668,0.100488,88.8519,-34.3597,130.864,-6.22559,7.14111,0.183105,-0.0955811,-0.469849,-0.520508,-0.706451,65316,57717,3549,3126,-30122
3588,147084,5.21104,7.85244,0.172266,88.786,-34.3542,130.908,-3.78418,3.11279,0.0610352,-0.0955811,-0.469696,-0.520386,-0.706635,65317,57717,3550,3126,-30122
3594,147090,5.39766,8.02949,-0.0574219,88.7805,-34.3488,130.913,-1.95313,1.34277,-0.0610352,-0.0956116,-0.469604,-0.520294,-0.706757,65319,57717,3550,3126,-30122
3600,147096,5.6082,8.30225,-0.272754,88.7695,-34.3488,130.913,-2.74658,0.976563,-0.244141,-0.0956421,-0.469543,-0.520264,-0.706787,65321,57718,3550,3126,-30122
3606,147102,5.76611,8.38838,-0.416309,88.7476,-34.3433,130.919,-4.39453,2.0752,-0.305176,-0.0957031,-0.469543,-0.520233,-0.706848,65320,57718,3546,3126,-30122
3612,147108,5.69912,8.22568,-0.177051,88.7091,-34.3378,130.941,-6.28662,4.21143,-0.793457,-0.0958252,-0.469299,-0.519989,-0.707153,65322,57722,3542,3126,-30122
3618,147114,5.51729,8.04385,-0.143555,88.6102,-34.3268,130.995,-7.01904,5.98145,-0.915527,-0.0959167,-0.469116,-0.519836,-0.707367,65323,57724,3536,3126,-30122
3624,147120,5.43115,8.12041,-0.0191406,88.5663,-34.3213,131.028,-6.28662,7.20215,-0.488281,-0.0959778,-0.468903,-0.519684,-0.707611,65323,57725,3530,3126,-30122
3630,147126,5.17754,8.17305,0.267969,88.5168,-34.3158,131.067,-5.98145,6.89697,-0.366211,-0.0959778,-0.468689,-0.519562,-0.707855,65323,57726,3525,3126,-30122
3636,147132,5.03877,7.94336,0.378027,88.4729,-34.3158,131.094,-6.10352,5.79834,0.0610352,-0.0959778,-0.468475,-0.51944,-0.708099,65325,57727,3519,3126,-30122
3642,147138,5.14404,7.88115,0.244043,88.4399,-34.3103,131.116,-4.69971,4.27246,0.244141,-0.0959778,-0.46817,-0.519196,-0.708466,65328,57728,3512,3126,-30122
3648,147144,5.33545,8.02949,-0.0143555,88.429,-34.3103,131.122,-1.0376,0.671387,0.488281,-0.0960083,-0.468109,-0.519135,-0.708557,65331,57730,3515,3126,-30122
3654,147150,5.5125,8.30703,-0.172266,88.4235,-34.3158,131.122,-1.0376,0.549316,0.793457,-0.0960083,-0.468109,-0.519135,-0.708557,65336,57730,3518,3126,-30122
3660,147156,5.65127,8.4458,-0.215332,88.4125,-34.3158,131.127,-2.74658,1.95313,0.732422,-0.0960083,-0.46814,-0.519104,-0.708557,65340,57730,3522,3126,-30122
3666,147162,5.61299,8.39316,-0.110059,88.3795,-34.3158,131.149,-4.69971,3.90625,0.488281,-0.0960083,-0.468079,-0.519043,-0.708618,65342,57728,3524,3126,-30122
3672,147168,5.45986,8.19219,0.0430664,88.3411,-34.3158,131.177,-5.85938,4.94385,0.549316,-0.0960083,-0.467834,-0.518799,-0.708984,65347,57729,3530,3126,-30122
3678,147174,5.29238,7.97207,0.090918,88.2806,-34.3158,131.21,-4.3335,2.99072,0.305176,-0.0960388,-0.467682,-0.518646,-0.709167,65347,57728,3533,3126,-30122
3684,147180,5.3498,8.09648,0.00957031,88.2642,-34.3158,131.215,-3.54004,1.83105,0.366211,-0.0960693,-0.467621,-0.518555,-0.70929,65344,57728,3534,3126,-30122
3690,147186,5.479,8.21611,-0.0191406,88.2422,-34.3158,131.221,-3.66211,1.52588,0.305176,-0.0960999,-0.46756,-0.518494,-0.709381,65344,57727,3535,3126,-30122
3696,147192,5.56992,8.24482,-0.0717773,88.2202,-34.3103,131.232,-4.63867,2.13623,0.305176,-0.0961304,-0.467529,-0.518402,-0.709473,65345,57727,3535,3126,-30122
3702,147198,5.60342,8.16826,-0.0717773,88.1873,-34.3103,131.248,-5.7373,3.23486,0,-0.0961914,-0.467468,-0.51828,-0.709564,65345,57727,3532,3126,-30122
3708,147204,5.47422,8.08213,0.129199,88.1049,-34.3103,131.303,-5.5542,5.98145,0.793457,-0.0962524,-0.467194,-0.518005,-0.70993,65345,57731,3532,3126,-30122
3714,147210,5.34023,8.13955,0.325391,88.0609,-34.3103,131.336,-5.92041,6.83594,1.0376,-0.0962219,-0.467041,-0.517883,-0.710144,65347,57733,3528,3126,-30122
3720,147216,5.27324,8.00078,0.30625,88.0115,-34.3158,131.38,-5.79834,7.56836,1.58691,-0.0961609,-0.466827,-0.517731,-0.710388,65348,57736,3526,3126,-30122
3726,147222,5.29238,7.91943,0.287109,87.9675,-34.3213,131.418,-5.31006,7.08008,1.83105,-0.0960693,-0.466614,-0.517578,-0.710663,65348,57738,3523,3126,-30122
3732,147228,5.36416,7.96729,0.277539,87.9236,-34.3323,131.457,-4.57764,6.89697,1.89209,-0.0959778,-0.466431,-0.517426,-0.710876,65351,57740,3522,3126,-30122
3738,147234,5.41201,8.07256,-0.00957031,87.8522,-34.3488,131.534,-3.78418,6.46973,2.38037,-0.0957336,-0.466095,-0.517212,-0.711334,65351,57739,3522,3126,-30122
3744,147240,5.43594,8.19219,0.0478516,87.8137,-34.3597,131.572,-4.57764,7.08008,2.92969,-0.0956116,-0.465942,-0.51709,-0.711517,65352,57738,3519,3126,-30122
3750,147246,5.48379,8.15391,0.13877,87.7588,-34.3762,131.622,-5.79834,8.72803,3.90625,-0.095459,-0.46579,-0.516937,-0.711731,65353,57738,3513,3126,-30122
3756,147252,5.30674,8.11084,0.330176,87.6984,-34.3872,131.677,-6.7749,9.64355,3.479,-0.0952759,-0.465607,-0.516754,-0.712036,65354,57739,3506,3126,-30122
3762,147258,5.19668,7.92422,0.425879,87.6324,-34.4037,131.737,-7.38525,10.1929,4.27246,-0.0950928,-0.465363,-0.516541,-0.712372,65352,57738,3493,3126,-30122
3768,147264,4.98613,7.78545,0.349316,87.5226,-34.4476,131.841,-4.45557,8.72803,5.43213,-0.0946655,-0.464905,-0.516083,-0.713043,65353,57739,3489,3126,-30122
3774,147270,4.95742,7.98643,0.363672,87.4896,-34.4751,131.885,-3.23486,6.95801,6.53076,-0.0944214,-0.464752,-0.5159,-0.713318,65358,57740,3489,3126,-30122
3780,147276,5.01963,8.13955,0.239258,87.4567,-34.5081,131.918,-2.99072,5.49316,7.38525,-0.0941162,-0.464661,-0.515717,-0.713531,65362,57739,3488,3126,-30122
3786,147282,5.22061,8.20654,0.0239258,87.4347,-34.541,131.94,-2.86865,3.96729,7.14111,-0.0938416,-0.464661,-0.515533,-0.713715,65365,57740,3489,3126,-30122
3792,147288,5.2876,8.1874,-0.0861328,87.4127,-34.574,131.957,-3.17383,2.68555,7.87354,-0.0935974,-0.464691,-0.51535,-0.713867,65324,57743,3490,3126,-30122
3798,147294,5.64648,8.23525,-0.215332,87.3633,-34.6509,131.984,-4.15039,2.80762,8.54492,-0.0931702,-0.464844,-0.514923,-0.714111,65334,57743,3488,3126,-30122
3804,147300,5.58906,8.38838,-0.0430664,87.3303,-34.6893,132.012,-4.27246,4.76074,8.8501,-0.0929565,-0.464935,-0.514648,-0.714264,65342,57743,3485,3126,-30122
3810,147306,5.54121,8.51758,0.263184,87.2919,-34.7278,132.05,-5.49316,5.85938,9.0332,-0.0926514,-0.464996,-0.514404,-0.714478,65300,57744,3483,3126,-30122
3816,147312,5.51729,8.24961,0.177051,87.2479,-34.7662,132.078,-6.28662,4.76074,9.0332,-0.0923767,-0.464966,-0.51413,-0.714722,65264,57744,3480,3126,-30122
3822,147318,5.6082,8.03906,-0.0239258,87.226,-34.8047,132.089,-4.45557,2.01416,8.42285,-0.0921326,-0.464996,-0.513824,-0.714966,65202,57746,3478,3126,-30122
3828,147324,6.06758,8.40273,-0.440234,87.2314,-34.8706,132.072,-1.28174,-2.0752,6.83594,-0.0917358,-0.465302,-0.513397,-0.715118,65176,57748,3479,3126,-30122
3834,147330,6.2877,8.69941,-0.387598,87.226,-34.8981,132.067,-2.74658,-0.549316,6.16455,-0.0916138,-0.465515,-0.513245,-0.715088,65155,57749,3479,3126,-30122
3840,147336,6.39775,8.77119,-0.272754,87.193,-34.92,132.078,-5.98145,2.56348,4.63867,-0.0914917,-0.465668,-0.513092,-0.715118,65135,57750,3475,3126,-30122
3846,147342,6.2877,8.5415,-0.229688,87.1381,-34.931,132.116,-8.91113,6.16455,3.54004,-0.0914307,-0.465668,-0.512878,-0.715302,65116,57752,3469,3126,-30122
3852,147348,5.93359,8.24482,-0.0239258,87.0667,-34.942,132.16,-10.437,8.30078,2.50244,-0.0913391,-0.465546,-0.512604,-0.715576,65090,57758,3456,3126,-30122
3858,147354,5.53643,7.96729,0.287109,86.9403,-34.9475,132.237,-8.72803,6.16455,1.28174,-0.0912781,-0.465088,-0.512024,-0.716278,65078,57760,3451,3126,-30122
3864,147360,5.59385,7.98164,0.263184,86.9019,-34.953,132.259,-6.83594,3.78418,0.976563,-0.0912781,-0.464905,-0.51181,-0.716583,65067,57762,3448,3126,-30122
3870,147366,5.77568,8.10606,0.0957031,86.8744,-34.953,132.27,-5.12695,1.95313,0.244141,-0.0913086,-0.464783,-0.511627,-0.716766,65058,57763,3446,3126,-30122
3876,147372,6.03887,8.30225,-0.0239258,86.8579,-34.9475,132.275,-4.82178,1.70898,-0.732422,-0.0913391,-0.464722,-0.511536,-0.716888,65053,57763,3445,3126,-30122
3882,147378,6.06279,8.39795,-0.00957031,86.825,-34.9365,132.292,-5.85938,3.2959,-1.46484,-0.0914307,-0.464661,-0.511444,-0.71698,65041,57763,3442,3126,-30122
3888,147384,5.78047,8.20176,0.143555,86.7316,-34.9036,132.341,-7.93457,5.5542,-2.80762,-0.0916138,-0.464325,-0.51123,-0.717316,65038,57763,3440,3126,-30122
3894,147390,5.546,8.0917,0.334961,86.6876,-34.8871,132.369,-7.14111,5.49316,-3.23486,-0.0917358,-0.464081,-0.511108,-0.71756,65035,57763,3439,3126,-30122
3900,147396,5.43594,8.06777,0.401953,86.6492,-34.8706,132.391,-6.04248,3.90625,-3.35693,-0.0918579,-0.463806,-0.511017,-0.717773,65031,57764,3438,3126,-30122
3906,147402,5.3833,8.03428,0.31582,86.6327,-34.8486,132.396,-4.69971,1.64795,-3.72314,-0.09198,-0.463623,-0.510956,-0.717926,65025,57765,3435,3126,-30122
3912,147408,5.39766,8.12041,0.191406,86.6272,-34.8267,132.391,-3.479,-0.549316,-3.96729,-0.0921326,-0.46347,-0.510925,-0.718018,65017,57769,3434,3126,-30122
3918,147414,5.46465,8.21611,0.272754,86.6272,-34.8047,132.374,-4.02832,-2.2583,-4.21143,-0.0925598,-0.463348,-0.510956,-0.718018,65013,57771,3435,3126,-30122
3924,147420,5.48379,8.11084,0.425879,86.6107,-34.7662,132.341,-4.69971,-1.89209,-4.02832,-0.092804,-0.463318,-0.510956,-0.717987,65008,57773,3433,3126,-30122
3930,147426,5.43594,7.95293,0.449805,86.6052,-34.7443,132.33,-4.5166,-1.95313,-3.72314,-0.0930481,-0.463287,-0.510956,-0.718018,65006,57775,3430,3126,-30122
3936,147432,5.37852,7.84287,0.47373,86.6052,-34.7223,132.314,-3.35693,-2.13623,-3.96729,-0.0932922,-0.463257,-0.510925,-0.718018,65005,57777,3427,3126,-30122
3942,147438,5.23975,7.90986,0.626855,86.6107,-34.7058,132.303,-2.01416,-2.44141,-3.78418,-0.0935059,-0.463196,-0.510925,-0.717987,64999,57776,3422,3126,-30122
3948,147444,5.10098,7.88594,0.698633,86.6217,-34.6893,132.281,-1.46484,-3.17383,-3.2959,-0.0938721,-0.463196,-0.511047,-0.717896,64991,57776,3415,3126,-30122
3954,147450,5.05791,7.69453,0.660352,86.6656,-34.6619,132.226,0.671387,-6.40869,-2.50244,-0.0940247,-0.463257,-0.511108,-0.717773,64989,57776,3410,3126,-30122
3960,147456,5.17275,7.7998,0.579004,86.7151,-34.6564,132.182,2.99072,-7.69043,-1.95313,-0.0941772,-0.463379,-0.5112,-0.717621,64986,57777,3408,3126,-30122
3966,147462,5.25889,8.03428,0.425879,86.77,-34.6454,132.133,4.15039,-8.72803,-1.83105,-0.0943298,-0.463562,-0.511353,-0.717377,64983,57778,3404,3126,-30122
3972,147468,5.41201,8.17783,0.330176,86.8195,-34.6399,132.089,3.96729,-8.17871,-1.40381,-0.0944519,-0.463776,-0.511536,-0.717072,64981,57780,3401,3126,-30122
3978,147474,5.46465,8.23525,0.253613,86.8579,-34.6344,132.05,2.68555,-7.01904,-0.793457,-0.094574,-0.463989,-0.511719,-0.716797,64978,57782,3400,3126,-30122
3984,147480,5.32109,8.16348,0.311035,86.9293,-34.6289,131.984,1.46484,-6.46973,-0.610352,-0.0947266,-0.464325,-0.511932,-0.7164,64976,57783,3402,3126,-30122
3990,147486,5.32588,8.00078,0.15791,86.9623,-34.6289,131.946,0.976563,-7.62939,-0.183105,-0.0948486,-0.464478,-0.512024,-0.716217,64976,57783,3404,3126,-30122
3996,147492,5.32109,8.00078,0.239258,87.0062,-34.6289,131.902,2.0752,-8.42285,0.0610352,-0.0949402,-0.464691,-0.512085,-0.716034,64976,57782,3405,3126,-30122
4002,147498,5.36416,8.1252,0.44502,87.0502,-34.6234,131.852,2.74658,-8.8501,-0.305176,-0.0950623,-0.464935,-0.512146,-0.71582,64973,57781,3406,3126,-30122
4008,147504,5.36416,8.08691,0.172266,87.1106,-34.6234,131.797,3.35693,-10.6812,-0.183105,-0.0951843,-0.465179,-0.512268,-0.715546,64965,57781,3406,3126,-30122
4014,147510,5.52207,8.17783,0.13877,87.226,-34.6234,131.671,2.99072,-11.5967,-0.366211,-0.095459,-0.46579,-0.512512,-0.714966,64964,57781,3405,3126,-30122
4020,147516,5.72783,8.0582,-0.100488,87.2864,-34.6234,131.605,3.35693,-12.5122,-0.488281,-0.0956116,-0.466125,-0.512604,-0.71463,64960,57781,3404,3126,-30122
4026,147522,5.86182,8.20654,-0.282324,87.3523,-34.6179,131.534,3.479,-12.2681,-1.2207,-0.0957947,-0.466461,-0.512726,-0.714294,64956,57780,3401,3126,-30122
4032,147528,5.87617,8.51279,-0.200977,87.4017,-34.6069,131.473,2.31934,-10.7422,-2.01416,-0.0960083,-0.466797,-0.512848,-0.713959,64954,57779,3401,3126,-30122
4038,147534,5.90488,8.36924,-0.354102,87.4347,-34.5905,131.418,-0.854492,-9.8877,-3.23486,-0.0962219,-0.467072,-0.51297,-0.713654,64952,57778,3401,3126,-30122
4044,147540,5.95273,8.12041,-0.373242,87.4622,-34.574,131.364,-2.50244,-9.0332,-3.60107,-0.0968628,-0.467468,-0.513031,-0.713287,64993,57774,3392,3126,-30122
4050,147546,5.76133,8.37881,0.181836,87.4731,-34.5245,131.292,-4.15039,-4.94385,-5.18799,-0.0971985,-0.46756,-0.513031,-0.713196,65036,57773,3386,3126,-30122
4056,147552,5.48857,8.17783,0.105273,87.4731,-34.4971,131.265,-4.82178,-4.15039,-5.5542,-0.0975342,-0.46756,-0.513031,-0.713135,65073,57773,3384,3126,-30122
4062,147558,5.46465,7.99121,0.0669922,87.4677,-34.4696,131.232,-5.61523,-5.61523,-6.10352,-0.0979004,-0.46756,-0.513,-0.713104,65106,57772,3383,3126,-30122
4068,147564,5.49814,7.84287,0.100488,87.4786,-34.4366,131.177,-4.57764,-8.05664,-7.01904,-0.0982971,-0.46756,-0.51297,-0.713074,65133,57773,3385,3126,-30122
4074,147570,5.7374,8.29746,-0.153125,87.5061,-34.3982,131.116,-2.38037,-9.82666,-7.93457,-0.0992737,-0.467773,-0.513031,-0.712769,65182,57776,3391,3126,-30122
4080,147576,5.90488,8.40273,-0.430664,87.561,-34.3103,130.984,-3.60107,-10.376,-9.52148,-0.0997925,-0.467896,-0.513123,-0.712524,65201,57775,3394,3126,-30122
4086,147582,6.10586,8.37881,-0.669922,87.5775,-34.2609,130.919,-5.18799,-9.82666,-10.6812,-0.100403,-0.467987,-0.513184,-0.712341,65214,57775,3397,3126,-30122
4092,147588,6.13936,8.67549,-0.492871,87.572,-34.2059,130.869,-7.38525,-7.20215,-11.9019,-0.101044,-0.468079,-0.513245,-0.712158,65226,57775,3400,3126,-30122
4098,147594,6.05322,8.70898,-0.421094,87.55,-34.1455,130.831,-10.437,-4.88281,-12.9395,-0.101715,-0.468018,-0.513245,-0.712097,65239,57774,3402,3126,-30122
4104,147600,5.76611,8.36924,-0.181836,87.5061,-34.0796,130.803,-15.3809,-1.83105,-14.1602,-0.10318,-0.467651,-0.513062,-0.71225,65257,57773,3405,3126,-30122
4110,147606,5.61777,8.25439,-0.0191406,87.3743,-33.9368,130.759,-17.0288,-1.77002,-14.9536,-0.103973,-0.467346,-0.512878,-0.712463,65266,57775,3403,3126,-30122
4116,147612,5.479,8.17305,0.263184,87.3083,-33.8654,130.743,-16.6626,-1.89209,-15.0146,-0.104797,-0.467041,-0.512665,-0.712708,65275,57776,3401,3126,-30122
4122,147618,5.32109,8.01992,0.344531,87.2534,-33.7885,130.704,-16.0522,-4.21143,-15.8081,-0.105652,-0.466736,-0.512482,-0.712921,65278,57777,3396,3126,-30122
4128,147624,5.45986,8.06777,0.186621,87.2095,-33.7115,130.66,-15.625,-6.40869,-16.1743,-0.106537,-0.466492,-0.512299,-0.713074,65282,57781,3389,3126,-30122
4134,147630,5.71348,8.42188,-0.0574219,87.1106,-33.5577,130.562,-16.6016,-5.7373,-16.5405,-0.108459,-0.466125,-0.511963,-0.713257,65283,57784,3386,3126,-30122
4140,147636,5.81396,8.64199,-0.100488,87.0447,-33.4753,130.529,-19.104,-3.84521,-17.0898,-0.109406,-0.465881,-0.51178,-0.713409,65278,57786,3381,3126,-30122
4146,147642,5.4168,8.86211,0.46416,86.9458,-33.3984,130.534,-20.1416,2.01416,-15.8081,-0.110382,-0.465576,-0.511566,-0.713623,65273,57789,3376,3126,-30122
4152,147648,5.29238,8.76162,0.607715,86.8304,-33.3215,130.545,-22.9492,3.11279,-15.7471,-0.111206,-0.465088,-0.511292,-0.713989,65269,57792,3370,3126,-30122
4158,147654,5.01006,8.08691,0.124414,86.7316,-33.2391,130.54,-21.7896,0.793457,-16.2964,-0.112061,-0.464569,-0.510925,-0.714447,65260,57800,3359,3126,-30122
4164,147660,4.94785,8.07734,0.0287109,86.6162,-33.1018,130.479,-14.4653,-6.46973,-14.2822,-0.1138,-0.463745,-0.510376,-0.715088,65257,57805,3353,3126,-30122
4170,147666,5.16797,8.575,-0.258398,86.5942,-33.0414,130.419,-12.9395,-9.0332,-13.0615,-0.114655,-0.463593,-0.510223,-0.715179,65255,57811,3348,3126,-30122
4176,147672,5.37852,9.03438,-0.378027,86.5723,-32.981,130.347,-14.3433,-11.4136,-13.2446,-0.115479,-0.463531,-0.510101,-0.715179,65253,57816,3344,3126,-30122
4182,147678,6.1585,8.97695,-0.229688,86.5558,-32.9095,130.248,-15.3198,-15.3809,-15.0146,-0.116394,-0.463562,-0.509918,-0.715149,65247,57820,3340,3126,-30122
4188,147684,6.27813,8.51758,-0.679492,86.5558,-32.8271,130.139,-13.855,-16.4185,-17.8833,-0.117462,-0.463654,-0.509705,-0.715057,65234,57828,3334,3126,-30122
4194,147690,6.42168,9.84307,-1.54082,86.4899,-32.6624,130.023,-15.1978,-9.0332,-20.0195,-0.119537,-0.463562,-0.50946,-0.714966,65230,57790,3327,3126,-30122
4200,147696,6.2542,10.245,-1.44512,86.4789,-32.547,129.913,-16.0522,-15.0757,-24.1699,-0.120636,-0.463379,-0.509399,-0.714935,65274,57756,3318,3126,-30122
4206,147702,7.76631,10.3981,-0.14834,86.5558,-32.3822,129.683,-11.5967,-35.3394,-36.1938,-0.12204,-0.463287,-0.509338,-0.714783,65311,57726,3310,3126,-30122
4212,147708,9.21621,11.0489,2.36865,86.8469,-32.124,129.199,5.37109,-77.0874,-58.2275,-0.124146,-0.463623,-0.509552,-0.71405,65345,57700,3301,3126,-30122
4218,147714,30.5437,27.0792,10.9819,87.3523,-31.723,128.414,17.8833,-129.15,-89.6606,-0.127533,-0.464813,-0.510498,-0.712006,65390,57653,3291,3126,-30122
4224,147720,17.8391,9.221,-1.89014,88.2477,-30.4541,127.293,31.4331,-55.9692,-140.93,-0.138763,-0.468262,-0.514862,-0.704468,65404,57674,3287,3126,-30122
4230,147726,15.3651,10.9006,-3.22041,88.3795,-29.707,127.288,27.771,5.7373,-156.616,-0.143555,-0.467133,-0.518219,-0.701782,65411,57652,3284,3126,-30122
4236,147732,11.1398,13.2166,-1.40684,88.4125,-28.8776,127.386,17.0898,23.8037,-173.401,-0.147491,-0.463776,-0.522095,-0.700317,65458,57632,3282,3126,-30122
4242,147738,7.45527,12.9582,-0.588574,88.4399,-27.9932,127.386,5.37109,6.7749,-183.716,-0.151733,-0.459442,-0.526093,-0.69928,65488,57655,3282,3126,-30122
4248,147744,6.52695,10.6996,-0.952246,88.4949,-27.0923,127.227,-2.38037,-20.9961,-188.66,-0.156921,-0.455261,-0.529785,-0.69809,67,57694,3282,3126,-30122
4254,147750,8.7377,10.3455,0.301465,88.9618,-25.1642,126.403,15.5029,-82.4585,-208.923,-0.169922,-0.449036,-0.536621,-0.693848,107,57709,3283,3126,-30122
4260,147756,10.3168,10.9245,0.291895,89.3134,-24.115,125.826,23.3765,-100.159,-220.764,-0.177643,-0.446991,-0.540314,-0.690338,181,57720,3285,3126,-30122
4266,147762,11.9198,11.1733,-1.02402,89.6375,-23.0164,125.244,19.5923,-102.783,-231.201,-0.185974,-0.445221,-0.544312,-0.686157,234,57729,3287,3126,-30122
4272,147768,13.0874,11.7332,-1.43076,89.9341,-21.8408,124.689,17.9443,-99.9146,-246.216,-0.194672,-0.443237,-0.548279,-0.681854,318,57736,3288,3126,-30122
4278,147774,12.8003,12.5275,-3.10557,90.2032,-20.6049,124.167,16.9067,-95.8252,-260.132,-0.203766,-0.440765,-0.552399,-0.677429,472,57743,3284,3126,-30122
4284,147780,12.2883,13.0587,-5.23018,90.4944,-17.8693,123.239,-6.16455,-82.7026,-294.128,-0.223114,-0.434052,-0.561005,-0.668549,589,57743,3281,3126,-30122
4290,147786,12.1591,13.6568,-5.22061,90.5219,-16.4136,122.778,-20.5688,-86.9751,-304.81,-0.23349,-0.429626,-0.565216,-0.664307,677,57741,3278,3126,-30122
4296,147792,13.5946,14.7431,-6.35469,90.4724,-14.9084,122.311,-35.5225,-88.3789,-317.078,-0.244507,-0.424866,-0.569061,-0.660126,788,57735,3274,3126,-30122
4302,147798,15.0589,15.9968,-6.32119,90.2966,-13.3044,121.86,-58.0444,-84.2285,-337.28,-0.256104,-0.419647,-0.572601,-0.656006,916,57769,3269,3126,-30122
4308,147804,14.7,15.3795,-4.68945,89.978,-11.6895,121.503,-80.2612,-64.9414,-341.553,-0.268524,-0.413513,-0.575745,-0.652161,1179,57818,3254,3126,-30122
4314,147810,14.1832,13.9966,-5.3498,89.1266,-8.43201,121.174,-100.708,-17.8833,-351.929,-0.292297,-0.398346,-0.581238,-0.646454,1315,57833,3242,3126,-30122
4320,147816,12.0777,13.2932,-5.23018,88.6322,-6.71814,121.047,-104.858,-11.4746,-364.502,-0.303955,-0.389313,-0.583862,-0.644257,1465,57841,3224,3126,-30122
4326,147822,11.4078,16.3509,-4.05303,88.1927,-5.01526,120.91,-94.1162,-10.0708,-363.342,-0.315765,-0.379669,-0.586487,-0.641907,1629,57884,3203,3126,-30122
4332,147828,11.6423,20.4805,-1.69395,87.7588,-3.35632,120.756,-91.7969,-12.207,-354.858,-0.32724,-0.370117,-0.589294,-0.639191,1808,57920,3177,3126,-30122
4338,147834,14.0014,24.0693,-5.18232,87.3193,-1.71936,120.778,-90.9424,25.9399,-350.525,-0.338409,-0.360809,-0.591827,-0.636322,2158,57963,3118,3126,-30122
4344,147840,11.6279,18.2219,-6.16807,85.9021,1.63147,121.08,-157.349,82.5195,-353.088,-0.359009,-0.338989,-0.596619,-0.632568,2333,58013,3086,3126,-30122
4350,147846,11.3169,13.676,-3.0625,85.0781,3.24646,121.366,-172.607,91.7969,-342.102,-0.368378,-0.325958,-0.598358,-0.632385,2523,58052,3052,3126,-30122
4356,147852,10.7905,9.8957,-1.99541,84.3256,4.85596,121.756,-162.354,118.225,-338.928,-0.377319,-0.312683,-0.599487,-0.632751,2677,58079,3015,3126,-30122
4362,147858,7.65146,7.43135,-3.19648,83.6499,6.42151,122.223,-150.879,135.559,-328.369,-0.385223,-0.298889,-0.601135,-0.633057,2848,58138,2976,3126,-30122
4368,147864,4.12002,7.57012,-5.94316,83.2159,8.02551,122.893,-110.901,181.152,-331.604,-0.39212,-0.285095,-0.603088,-0.633331,3200,58223,2900,3126,-30122
4374,147870,-5.17275,-3.33525,-6.04365,81.4911,10.5853,123.618,-220.032,105.042,-245.483,-0.403473,-0.257385,-0.607697,-0.633667,3333,58251,2862,3126,-30122
4380,147876,-5.86182,-6.52217,-7.51748,80.5243,11.3214,123.799,-211.06,73.4253,-169.067,-0.409393,-0.245392,-0.605835,-0.636414,3490,58311,2823,3126,-30122
4386,147882,-9.39326,-9.84307,-0.392383,79.5026,11.5631,123.794,-216.614,24.231,-76.1719,-0.413879,-0.236481,-0.602783,-0.639771,3618,58358,2785,3126,-30122
4392,147888,-5.65127,-9.3502,3.76592,78.8763,11.4368,123.53,-126.587,-39.5508,-12.6953,-0.417114,-0.231293,-0.597656,-0.644348,3777,58397,2744,3126,-30122
4398,147894,-0.689063,-8.52715,1.76572,78.6896,11.0687,122.844,-21.7896,-130.005,16.4795,-0.419281,-0.231201,-0.593262,-0.647064,4032,58499,2661,3126,-30122
