TimeSinceCollection,Timestamp,AccX,AccY,AccZ,AngleRoll,AnglePitch,AngleYaw,AngularVelX,AngularVelY,             AngularVelZ,Q1,Q2,Q3,Q4,MagX,MagY,MagZ,Height,Airpressure
0,96857,4.41191,8.7042,-0.827832,95.3998,-26.8011,71.2518,-0.12207,0.12207,0.0610352,0.43222,0.675659,0.292328,0.52066,440,57088,64917,3076,-30116
6,96863,4.39277,8.69941,-0.832617,0,0,0,0,0,0,0,0,0,0,0,0,0,0,0
48,96905,4.40234,8.69941,-0.823047,95.3998,-26.8011,71.2573,-0.12207,0.0610352,0,0.43222,0.675629,0.292328,0.520691,448,57084,64925,3076,-30116
54,96911,4.43105,8.72813,-0.856543,95.3998,-26.8011,71.2573,-0.12207,0,0.183105,0.43222,0.675629,0.292328,0.520691,446,57084,64921,3076,-30116
60,96917,4.42148,8.71855,-0.823047,95.3998,-26.8011,71.2573,-0.183105,0,0.12207,0.43222,0.675629,0.292328,0.520691,445,57082,64919,3076,-30116
66,96923,4.39756,8.7042,-0.813477,95.3943,-26.8011,71.2573,-0.244141,-0.0610352,0,0.43222,0.675629,0.292328,0.520691,445,57079,64915,3076,-30116
72,96929,4.41191,8.68984,-0.808691,95.3998,-26.8011,71.2573,0,-0.12207,0,0.43222,0.675629,0.292297,0.520691,444,57080,64911,3076,-30116
78,96935,4.41191,8.70898,-0.842188,95.3998,-26.8011,71.2518,0.12207,-0.183105,0.0610352,0.43222,0.675659,0.292297,0.520691,444,57082,64910,3076,-30116
84,96941,4.41191,8.77598,-0.837402,95.3998,-26.8011,71.2518,-0.12207,0,0.0610352,0.43222,0.675659,0.292328,0.52066,443,57083,64897,3076,-30116
90,96947,4.42627,8.71377,-0.818262,95.3998,-26.8011,71.2518,-0.183105,-0.12207,0.0610352,0.43222,0.675659,0.292297,0.520691,443,57085,64896,3076,-30116
96,96953,4.43584,8.66592,-0.813477,95.3998,-26.8011,71.2518,0.0610352,-0.12207,0.0610352,0,0,0,0,0,0,0,0,0
102,96959,0,0,0,0,0,0,0,0,0,0.43222,0.675659,0.292297,0.52066,0,0,0,3076,0
108,96965,4.42148,8.72813,-0.846973,95.4053,-26.8011,71.2518,0.183105,-0.12207,0.0610352,0.43222,0.67569,0.292297,0.52066,445,57082,64901,3076,-30116
114,96971,4.41191,8.72334,-0.866113,95.4053,-26.8011,71.2518,-0.183105,0,0,0.43222,0.67569,0.292297,0.52066,445,57082,64905,3076,-30116
120,96977,4.44541,8.7042,-0.851758,95.4053,-26.8011,71.2518,-0.12207,0.0610352,0,0.43222,0.67569,0.292297,0.52066,444,57081,64904,3076,-30116
126,96983,4.42627,8.69463,-0.842188,95.3998,-26.8011,71.2518,-0.305176,0.12207,0.0610352,0.43222,0.67569,0.292297,0.52066,442,57080,64904,3076,-30116
132,96989,4.44063,8.72334,-0.823047,95.3998,-26.8011,71.2518,-0.244141,0.12207,0,0.43222,0.67569,0.292297,0.52066,442,57080,64904,3076,-30116
138,96995,4.39277,8.70898,-0.861328,95.3998,-26.8011,71.2518,0,0,-0.12207,0.43222,0.675659,0.292297,0.52066,443,57081,64906,3076,-30116
144,97001,4.43105,8.72334,-0.823047,95.3998,-26.8011,71.2518,-0.0610352,0,0,0.43222,0.675659,0.292297,0.52066,444,57078,64905,3076,-30116
150,97007,4.39756,8.71377,-0.823047,95.3998,-26.8011,71.2518,-0.12207,0,-0.0610352,0.43222,0.675659,0.292297,0.52066,445,57079,64908,3076,-30116
156,97013,4.43584,8.7042,-0.813477,95.3998,-26.8011,71.2518,-0.0610352,-0.12207,-0.0610352,0.43222,0.675659,0.292297,0.52066,445,57080,64908,3076,-30116
162,97019,4.43584,8.68027,-0.885254,95.3998,-26.8011,71.2463,-0.12207,-0.244141,0,0.432251,0.675659,0.292297,0.52066,446,57079,64908,3076,-30116
168,97025,4.45977,8.7377,-0.866113,95.4053,-26.8011,71.2463,0.244141,0,0,0.43222,0.67569,0.292297,0.52066,445,57077,64906,3076,-30116
174,97031,4.39277,8.7042,-0.803906,95.3998,-26.8011,71.2518,-0.732422,0.12207,0,0.43222,0.675659,0.292297,0.52066,446,57075,64904,3076,-30116
180,97037,4.43584,8.59893,-0.866113,95.3998,-26.8011,71.2518,0.12207,-0.0610352,0,0.432251,0.675659,0.292297,0.520691,445,57074,64902,3076,-30116
186,97043,4.4167,8.75684,-0.832617,95.3998,-26.8011,71.2518,0.244141,-0.183105,0,0.432251,0.675659,0.292297,0.52066,445,57073,64901,3076,-30116
192,97049,4.44063,8.77598,-0.856543,95.3998,-26.8011,71.2463,-0.12207,-0.244141,0,0.432251,0.675659,0.292297,0.52066,445,57075,64900,3076,-30116
198,97055,4.47412,8.69941,-0.904395,95.3998,-26.8011,71.2518,-0.366211,0.244141,0,0.432251,0.675659,0.292297,0.52066,444,57079,64900,3076,-30116
204,97061,4.4167,8.69463,-0.851758,95.3943,-26.8011,71.2518,-0.427246,0.305176,0,0.432251,0.675659,0.292267,0.52066,441,57082,64896,3076,-30116
210,97067,4.4167,8.69463,-0.851758,95.3943,-26.8011,71.2518,-0.427246,0.305176,0,0.432251,0.675659,0.292267,0.52066,441,57082,64896,3076,-30116
288,97145,4.41191,8.70898,-0.842188,95.3723,-26.8011,71.2683,-0.366211,0.244141,0,0.432343,0.675507,0.292267,0.520813,430,57080,64896,3076,-30116
294,97151,4.42627,8.68984,-0.803906,95.3668,-26.8011,71.2683,-0.305176,0.305176,0,0.432343,0.675507,0.292267,0.520813,428,57085,64899,3076,-30116
300,97157,4.4167,8.69941,-0.832617,95.3668,-26.8011,71.2738,-0.244141,0.183105,0,0.432343,0.675476,0.292267,0.520844,427,57085,64897,3076,-30116
306,97163,4.40234,8.68984,-0.832617,95.3613,-26.8011,71.2738,-0.305176,0.183105,0,0.432343,0.675476,0.292267,0.520844,426,57084,64896,3076,-30116
312,97169,4.41191,8.70898,-0.813477,95.3613,-26.8011,71.2738,-0.12207,0.0610352,0,0.432343,0.675476,0.292236,0.520844,425,57084,64894,3076,-30116
318,97175,4.41191,8.70898,-0.823047,95.3613,-26.8011,71.2738,-0.244141,0.183105,0,0.432343,0.675476,0.292236,0.520844,425,57086,64892,3076,-30116
324,97181,4.43105,8.7042,-0.818262,95.3613,-26.8011,71.2738,-0.12207,0.12207,0,0.432343,0.675446,0.292267,0.520874,426,57084,64886,3076,-30116
330,97187,4.40713,8.70898,-0.823047,95.3613,-26.8011,71.2738,-0.12207,0.12207,0,0.432343,0.675446,0.292267,0.520874,429,57085,64885,3076,-30116
336,97193,4.40713,8.74727,-0.823047,95.3613,-26.8011,71.2738,-0.12207,0.183105,0,0.432343,0.675446,0.292267,0.520874,431,57085,64884,3076,-30116
342,97199,4.42148,8.71377,-0.842188,95.3613,-26.8011,71.2793,-0.244141,0.183105,0,0.432343,0.675446,0.292267,0.520874,432,57083,64884,3076,-30116
348,97205,4.43105,8.71377,-0.842188,95.3558,-26.8011,71.2793,-0.12207,0.244141,0,0.432343,0.675446,0.292267,0.520874,434,57081,64886,3076,-30116
408,97265,4.40234,8.7042,-0.818262,95.3448,-26.8011,71.2903,-0.12207,0.244141,0,0.432373,0.675354,0.292267,0.520966,444,57082,64902,3076,-30116
414,97271,4.4167,8.68506,-0.832617,95.3394,-26.8011,71.2903,-0.183105,0.183105,0,0.432373,0.675354,0.292267,0.520966,444,57086,64905,3076,-30116
420,97277,4.44541,8.69941,-0.827832,95.3394,-26.8011,71.2958,-0.183105,0.183105,0,0.432404,0.675323,0.292267,0.520996,443,57087,64904,3076,-30116
426,97283,4.40713,8.69463,-0.813477,95.3394,-26.8011,71.2958,-0.183105,0.244141,0,0.432404,0.675323,0.292267,0.520996,443,57086,64902,3076,-30116
432,97289,4.40234,8.70898,-0.813477,95.3394,-26.8011,71.2958,-0.183105,0.183105,0,0.432404,0.675323,0.292267,0.520996,443,57087,64902,3076,-30116
438,97295,4.37842,8.69463,-0.808691,95.3394,-26.8011,71.2958,-0.12207,0.12207,0,0.432404,0.675323,0.292267,0.520996,443,57088,64905,3076,-30116
444,97301,4.43105,8.71377,-0.808691,95.3394,-26.8011,71.2958,0,0.305176,0,0.432404,0.675323,0.292267,0.520996,443,57088,64905,3076,-30116
528,97385,4.43584,8.73291,-0.823047,95.3229,-26.8121,71.3177,-0.183105,0.305176,0,0.432343,0.675232,0.292297,0.521149,434,57077,64919,3076,-30116
534,97391,4.42627,8.71855,-0.827832,95.3229,-26.8121,71.3232,-0.244141,0.305176,0,0.432343,0.675232,0.292297,0.521179,436,57081,64924,3076,-30116
540,97397,4.41191,8.71377,-0.827832,95.3229,-26.8121,71.3232,-0.244141,0.305176,0,0.432343,0.675232,0.292297,0.521179,436,57081,64924,3076,-30116
612,97469,4.39277,8.7042,-0.803906,95.2789,-26.8176,71.3507,-0.244141,0.244141,0.12207,0.432404,0.675018,0.292236,0.521393,439,57081,64927,3076,-30116
618,97475,4.4167,8.71855,-0.813477,95.2789,-26.8176,71.3507,-0.488281,0.366211,0.0610352,0.432404,0.674988,0.292236,0.521423,441,57081,64927,3076,-30116
624,97481,4.4167,8.70898,-0.813477,95.2734,-26.8176,71.3562,-0.12207,0.244141,0.0610352,0.432434,0.674957,0.292236,0.521454,442,57079,64927,3076,-30116
630,97487,4.4167,8.7042,-0.794336,95.2734,-26.8231,71.3562,0.0610352,0.183105,0.0610352,0.432434,0.674957,0.292236,0.521454,443,57078,64927,3076,-30116
636,97493,4.42148,8.74248,-0.813477,95.2734,-26.8231,71.3562,-0.0610352,0.183105,0,0.432404,0.674957,0.292236,0.521454,442,57080,64929,3076,-30116
642,97499,4.42627,8.71855,-0.799121,95.2734,-26.8231,71.3562,-0.12207,0.183105,0,0.432404,0.674957,0.292236,0.521454,441,57079,64929,3076,-30116
672,97529,4.42627,8.71855,-0.799121,95.2625,-26.8231,71.3672,-0.12207,0.183105,0,0.432434,0.674896,0.292236,0.521545,442,57077,64920,3076,-30116
678,97535,4.41191,8.6707,-0.775195,95.257,-26.8231,71.3727,-0.0610352,0.366211,0,0.432434,0.674896,0.292236,0.521545,443,57080,64919,3076,-30116
684,97541,4.4502,8.73291,-0.837402,95.257,-26.8231,71.3727,-0.0610352,0.244141,0.0610352,0.432404,0.674866,0.292236,0.521576,444,57077,64910,3076,-30116
690,97547,4.43584,8.72334,-0.818262,95.257,-26.8231,71.3727,-0.244141,0.305176,0.12207,0.432404,0.674866,0.292236,0.521576,443,57076,64909,3076,-30116
696,97553,4.44541,8.71377,-0.827832,95.257,-26.8231,71.3782,-0.305176,0.244141,0.0610352,0.432404,0.674866,0.292236,0.521606,443,57075,64909,3076,-30116
702,97559,4.41191,8.69463,-0.813477,95.2515,-26.8231,71.3782,-0.305176,0.244141,0,0.432404,0.674835,0.292236,0.521606,442,57072,64910,3076,-30116
708,97565,4.44063,8.71855,-0.808691,95.2515,-26.8286,71.3782,-0.183105,0.244141,0,0.432404,0.674835,0.292236,0.521606,442,57070,64909,3076,-30116
714,97571,4.4502,8.7042,-0.789551,95.2515,-26.8286,71.3782,-0.12207,0.183105,0.12207,0.432404,0.674835,0.292236,0.521637,442,57073,64909,3076,-30116
720,97577,4.40234,8.7042,-0.784766,95.246,-26.8286,71.3837,-0.244141,0.305176,0.12207,0.432404,0.674835,0.292236,0.521637,441,57073,64910,3076,-30116
726,97583,4.40234,8.7042,-0.784766,95.246,-26.8286,71.3837,-0.244141,0.305176,0.0610352,0.432404,0.674835,0.292236,0.521637,441,57073,64910,3076,-30116
774,97631,0,0,0,0,0,0,0,0,0,0.432373,0.674744,0.292236,0.521759,0,0,0,3076,-30116
780,97637,4.44063,8.69941,-0.808691,95.235,-26.8341,71.3947,-0.305176,0.183105,0,0.432373,0.674744,0.292236,0.521759,433,57078,64889,3076,-30116
786,97643,4.42627,8.73291,-0.846973,95.235,-26.8341,71.3947,-0.12207,0.0610352,0,0.432373,0.674744,0.292236,0.521759,433,57077,64893,3076,-30116
792,97649,4.40713,8.71855,-0.827832,95.235,-26.8341,71.4001,-0.305176,0.183105,0.0610352,0.432404,0.674744,0.292236,0.52179,433,57077,64897,3076,-30116
798,97655,4.44541,8.69941,-0.823047,95.2295,-26.8341,71.4001,-0.366211,0.305176,0,0.432404,0.674744,0.292206,0.52179,434,57076,64900,3076,-30116
804,97661,4.4167,8.72334,-0.77041,95.2295,-26.8341,71.4001,-0.244141,0.183105,0.0610352,0.432404,0.674713,0.292206,0.52182,436,57075,64899,3076,-30116
810,97667,4.42148,8.69463,-0.789551,95.2295,-26.8396,71.4056,-0.0610352,0.305176,0.12207,0.432404,0.674713,0.292206,0.52182,435,57076,64898,3076,-30116
816,97673,4.42148,8.71855,-0.827832,95.224,-26.8396,71.4056,-0.12207,0.244141,0.12207,0.432404,0.674683,0.292206,0.52182,435,57079,64897,3076,-30116
822,97679,4.43584,8.71855,-0.799121,95.224,-26.8396,71.4056,-0.12207,0.183105,0,0.432404,0.674683,0.292206,0.521851,434,57080,64893,3076,-30116
828,97685,4.39756,8.71855,-0.799121,95.224,-26.8396,71.4056,-0.12207,0.183105,0.12207,0.432404,0.674683,0.292206,0.521851,434,57079,64888,3076,-30116
834,97691,4.42148,8.7042,-0.789551,95.224,-26.8396,71.4111,-0.183105,0.183105,0,0.432373,0.674683,0.292206,0.521881,433,57082,64886,3076,-30116
840,97697,4.43584,8.69941,-0.794336,95.2185,-26.8396,71.4111,-0.366211,0.244141,0.0610352,0.432373,0.674683,0.292206,0.521881,434,57083,64887,3076,-30116
846,97703,4.41191,8.7042,-0.823047,95.2185,-26.8396,71.4111,-0.12207,0.12207,0.0610352,0.432404,0.674652,0.292206,0.521881,435,57082,64888,3076,-30116
852,97709,4.42627,8.70898,-0.818262,95.2185,-26.8396,71.4111,-0.183105,0.305176,0.12207,0.432404,0.674652,0.292206,0.521881,437,57081,64893,3076,-30116
858,97715,4.45498,8.71855,-0.813477,95.2185,-26.8396,71.4111,-0.244141,0.183105,0.12207,0.432373,0.674652,0.292206,0.521912,440,57081,64898,3076,-30116
864,97721,4.42148,8.69941,-0.813477,95.213,-26.8451,71.4166,-0.244141,0.305176,0.12207,0.432404,0.674622,0.292206,0.521942,441,57077,64900,3076,-30116
870,97727,4.40234,8.69463,-0.808691,95.213,-26.8451,71.4166,-0.12207,0.183105,0.12207,0.432404,0.674622,0.292206,0.521942,442,57077,64903,3076,-30116
876,97733,4.41191,8.68984,-0.784766,95.213,-26.8451,71.4166,-0.183105,0.183105,0,0.432373,0.674622,0.292206,0.521942,442,57076,64907,3076,-30116
882,97739,4.44541,8.69941,-0.784766,95.2075,-26.8451,71.4166,-0.366211,0.183105,0.0610352,0.432404,0.674622,0.292206,0.521973,441,57076,64905,3076,-30116
888,97745,4.43105,8.68984,-0.808691,95.2075,-26.8451,-4.46388,-0.12207,0.305176,0.183105,0,0,0,0,0,0,0,0,0
1068,97925,4.42148,8.71377,-0.813477,95.1746,-26.8616,71.4606,-0.305176,0.183105,0.183105,0.432312,0.674408,0.292145,0.522278,449,57066,64913,3076,-30116
1074,97931,4.43105,8.69463,-0.799121,95.1691,-26.8671,71.4606,-0.12207,0.244141,0.0610352,0.432312,0.674408,0.292145,0.522308,449,57072,64915,3076,-30116
1080,97937,4.45977,8.72334,-0.808691,95.1691,-26.8671,71.4661,-0.305176,0.244141,0.0610352,0.432312,0.674408,0.292145,0.522308,450,57073,64914,3076,-30116
1086,97943,4.43584,8.71855,-0.794336,95.1691,-26.8671,71.4661,-0.183105,0.305176,0.183105,0.432312,0.674377,0.292145,0.522339,451,57073,64910,3076,-30116
1092,97949,4.43105,8.71377,-0.784766,95.1691,-26.8671,71.4661,-0.183105,0.183105,0.0610352,0.432312,0.674377,5.49E-38,5.72E-41,451,57074,64905,3076,-30116
1350,98207,0,0,0,95.1471,-26.8726,71.4825,0,0,0,0.432312,0.674286,0.292114,0.522491,446,57069,64894,3076,-30116
1356,98213,4.43584,8.72334,-0.794336,95.1471,-26.8726,71.4825,-0.0610352,0,0,0.432312,0.674286,0.292114,0.522491,445,57070,64896,3076,-30116
1362,98219,4.44063,8.69941,-0.784766,95.1471,-26.8726,71.4825,0,0,0,0.432312,0.674286,0.292114,0.522491,444,57068,64897,3076,-30116
1368,98225,4.44063,8.71377,-0.756055,95.1471,-26.8726,71.4825,0,0.12207,0,0.432312,0.674286,0.292114,0.522491,442,57065,64897,3076,-30116
1374,98231,4.40713,8.71855,-0.727344,95.1471,-26.8726,71.488,-0.0610352,0.427246,0,0.432312,0.674255,0.292145,0.522491,441,57063,64899,3076,-30116
1380,98237,4.36885,8.7042,-0.741699,95.1416,-26.8726,71.4935,-0.12207,0.671387,0,0.432312,0.674255,0.292145,0.522522,439,57065,64903,3076,-30116
1386,98243,4.321,8.75205,-0.636426,95.1416,-26.8781,71.4935,0.244141,0.671387,0.549316,0.432312,0.674225,0.292145,0.522552,438,57066,64901,3076,-30116
1392,98249,4.35928,8.64678,-0.76084,95.1416,-26.8835,71.4935,0.0610352,0.244141,0.854492,0.432281,0.674225,0.292145,0.522552,438,57069,64900,3076,-30116
1398,98255,4.42148,8.65156,-0.923535,95.1471,-26.8835,71.4935,0.793457,-0.12207,0.732422,0.432251,0.674225,0.292114,0.522583,437,57071,64901,3076,-30116
1404,98261,4.56025,8.79512,-0.875684,95.1471,-26.8945,71.499,-0.427246,0.854492,0.793457,0.43219,0.674286,0.292114,0.522583,437,57073,64900,3076,-30116
1410,98267,4.48369,8.69941,-0.784766,95.1361,-26.9,71.51,-0.732422,1.70898,0.793457,0.432159,0.674255,0.292084,0.522644,438,57074,64898,3076,-30116
1416,98273,4.30664,8.6707,-0.550293,95.1251,-26.9055,71.521,-0.976563,2.74658,0.915527,0,0,0,0,439,57075,64897,0,-4160705
1608,98465,4.5459,8.68506,-0.90918,96.3501,-27.0758,71.1145,1.52588,0.976563,0.915527,0.425995,0.680115,0.294281,0.51889,490,57096,64970,3076,-30116
1614,98471,4.49326,8.68984,-1.04316,96.3556,-27.0813,71.12,2.0752,0.854492,0.732422,0.425842,0.680145,0.294312,0.518951,492,57095,64973,3076,-30116
1620,98477,4.51719,8.77119,-1.14365,96.3666,-27.0868,71.131,1.70898,0.976563,0.732422,0.425751,0.680176,0.294373,0.518951,498,57095,64975,3076,-30116
1626,98483,4.58896,8.80947,-1.20586,96.3721,-27.0923,71.131,0.976563,1.15967,0.854492,0.42569,0.680206,0.294373,0.518982,498,57094,64974,3076,-30116
1632,98489,4.58896,8.84297,-1.28721,96.3666,-27.0978,71.142,-0.0610352,1.77002,0.854492,0.425629,0.680206,0.294403,0.519012,495,57095,64975,3076,-30116
1638,98495,4.61768,8.88603,-1.29199,96.3556,-27.1033,71.153,-1.46484,2.38037,0.915527,0.425598,0.680176,0.294403,0.519073,493,57096,64976,3076,-30116
1644,98501,4.57939,8.74248,-1.1293,96.3336,-27.1143,71.1694,-3.78418,4.21143,0.732422,0.425629,0.680023,0.294312,0.519318,491,57096,64978,3076,-30116
1650,98507,4.52676,8.68027,-1.03359,96.2677,-27.1252,71.2079,-4.57764,4.82178,0.793457,0.425659,0.679871,0.294281,0.51947,491,57096,64978,3076,-30116
1656,98513,4.49805,8.61328,-0.985742,96.2347,-27.1307,71.2354,-4.57764,4.94385,0.732422,0.425751,0.679688,0.29422,0.519684,492,57098,64980,3076,-30116
1662,98519,4.48848,8.65635,-1.04316,96.2018,-27.1362,71.2573,-4.39453,4.94385,0.793457,0,0,0,0,492,57098,64980,0,0
1968,98825,5.546,9.25449,-2.09111,94.1473,-27.2021,71.7572,-25.6348,-5.43213,-3.05176,0.434479,0.670807,0.287964,0.527435,493,57061,64821,3076,-30116
1974,98831,5.43594,9.68037,-1.6126,94.0375,-27.1857,71.6913,-29.6021,-16.1133,-4.88281,0.436401,0.670197,0.286499,0.527405,495,57064,64821,3076,-30116
1980,98837,6.76621,11.7715,-0.832617,93.9606,-27.0648,71.3397,-19.9585,-42.6025,-16.7236,0.437592,0.670044,0.285614,0.52713,503,57064,64815,3076,-30116
1986,98843,8.56065,11.6136,-1.05273,94.1364,-26.7847,70.8783,-6.53076,-83.5571,-51.5747,0.439056,0.670532,0.28476,0.525757,506,57061,64808,3076,-30116
1992,98849,11.6184,9.78564,-0.0574219,94.2517,-26.4166,70.4663,-15.625,-78.3081,-69.3359,0.441437,0.671753,0.284485,0.522339,508,57099,64800,3076,-30116
1998,98855,10.6039,8.07734,-1.51211,94.2352,-26.0925,70.3125,-18.7988,-31.7383,-66.2231,0.444366,0.672424,0.284607,0.518921,507,57093,64793,3076,-30116
2004,98861,6.35947,9.29277,-0.0478516,0,0,0,-12.8174,2.31934,-76.8433,0,0,0,0,0,0,0,0,0
2278,99135,0,0,0,0,0,0,0,0,0,0,0,0,0,0,0,0,0,-475167681
2508,99365,11.2882,17.2792,-5.72305,100.767,-31.2561,64.27,-152.649,4.02832,-23.1934,0.403381,0.722168,0.252228,0.502045,65216,57312,65417,3084,-30117
2514,99371,8.48887,9.84307,-1.45947,99.9646,-30.932,64.303,-148.01,21.6064,-55.7861,0.409546,0.719543,0.249115,0.50235,65246,57313,65412,3084,-30117
2520,99377,5.55078,5.40723,-3.18691,99.2175,-30.6244,64.5447,-60.1807,62.9883,-23.4985,0.42099,0.712463,0.247528,0.503754,65271,57313,65402,3084,-30117
2526,99383,5.22539,9.4459,-2.59355,98.2947,-30.3717,65.1379,-51.4526,72.6318,-23.1323,0.42334,0.709961,0.247864,0.505157,65304,57312,65356,3076,-30116
2532,99389,3.73721,10.9245,-1.90928,97.7509,-30.1904,65.4181,-75.9277,61.8896,-33.2642,0.425262,0.707397,0.248566,0.506775,65367,57312,65329,3076,-30116
2838,99695,0,0,0,0,0,0,0,0,0,0.472198,0.676086,0.254028,0.505249,0,0,0,3076,0
2844,99701,4.10088,8.7042,0.0957031,92.5763,-26.3287,66.4838,-12.146,12.3291,1.89209,0.472321,0.675476,0.25412,0.50592,522,57627,64586,3076,-30116
2850,99707,4.52676,9.04395,-0.526367,92.4829,-26.3452,66.5607,-13.1836,10.8032,2.80762,0.472595,0.674377,0.25415,0.507111,520,57626,64579,3076,-30116
2856,99713,4.67031,9.24014,-0.727344,92.2797,-26.3727,66.731,-15.3198,13.1836,3.35693,0.472717,0.673859,0.25412,0.50769,517,57625,64566,3076,-30116
2862,99719,4.61768,9.38848,-0.583789,92.1423,-26.3947,66.8408,-18.7378,17.2119,3.90625,0.4729,0.673218,0.254059,0.508392,515,57624,64560,3076,-30116
2988,99845,4.6751,8.79033,0.483301,89.4342,-26.3617,68.8623,-10.8032,-1.2207,-7.20215,-3.62E+24,-3.62E+24,-3.53E+21,-3.62E+24,490,57566,64331,3076,-30116
3108,99965,14.4416,10.4891,5.17754,90.2637,-23.4778,66.2036,-16.2354,-46.1426,-72.2656,0.497406,0.659851,0.257935,0.500519,734,57523,64245,3084,-30117
3114,99971,12.7668,8.90518,1.73223,90.2252,-23.0438,66.264,-4.63867,4.3335,-91.7969,0.499786,0.659668,0.258728,0.498016,737,57522,64243,3084,-30117
3120,99977,5.77568,10.2833,0.722559,90.0879,-22.5769,66.5607,-7.69043,47.8516,-99.1821,0.503174,0.656006,0.265137,0.496002,735,57521,64239,3084,-30117
3126,99983,3.78506,10.8479,0.866113,89.9615,-21.5332,67.0166,4.5166,24.8413,-112.915,0.504669,0.653717,0.269287,0.49527,770,57512,64226,3084,-30117
3132,99989,6.08E+23,-1.07E+37,-4.22E+37,0,0,0,0,0,0,0,0,0,0,0,0,0,0,0
3222,100079,0,0,0,0,0,0,0,0,0,0.579681,0.637604,0.351074,0.36615,1906,57753,64183,3084,-30117
3312,100169,0,0,0,0,0,0,0,0,0,0.694397,0.484375,0.481659,0.225983,0,0,0,0,0
3318,100175,-3.04336,-6.14893,3.00029,82.9852,28.8281,59.6448,-239.563,-114.868,-218.018,0.702606,0.473755,0.482635,0.220947,4522,59128,63658,3093,-30118
3324,100181,-3.00508,-6.33555,8.32139,81.8921,29.3115,59.024,-171.875,-98.2056,-142.578,0.711365,0.463959,0.480865,0.217682,4658,59267,63608,3093,-30118
3330,100187,-1.45469,-3.21084,2.87109,81.5515,29.4708,58.5187,-31.6162,-86.6699,-76.6602,0.720062,0.456879,0.476746,0.212982,4779,59420,63554,3093,-30118
3336,100193,0.665137,0.344531,-4.30186,82.1832,29.0533,56.9696,156.86,-168.823,7.93457,0.720276,0.461395,0.47403,0.208557,4981,59662,63450,3093,-30118
3342,100199,3.94297,3.5793,-7.27822,82.5952,28.5315,55.86,175.72,-211.426,45.5933,0.719849,0.469025,0.469604,0.203003,5070,59798,63396,3093,-30118
3408,100265,7.10596,1.77051,-1.71787,83.6005,15.9686,55.1624,-21.0571,82.0313,189.636,0.701111,0.534241,0.400055,0.250732,5233,60156,62821,3110,-30120
3414,100271,6.3499,1.59346,-1.45947,83.7817,14.8535,55.7776,-13.7329,89.9658,199.768,0.697174,0.537079,0.3974,0.259705,5233,60117,62796,3110,-30120
3420,100277,4.63203,1.09102,-1.21543,83.996,13.678,56.4258,-5.67627,95.8862,211.426,0.687836,0.543549,0.392059,0.278564,5186,60087,62775,3110,-30120
3426,100283,3.5793,0.885254,-0.722559,84.5618,11.1346,57.7277,18.7988,98.0225,238.22,0.682373,0.547333,0.389221,0.288391,5123,60049,62747,3110,-30120
3432,100289,2.68926,0.746484,-0.354102,84.9078,9.74487,58.3539,31.311,94.4214,253.357,0.676331,0.551727,0.386108,0.298279,5104,60005,62739,3110,-30120
3438,100295,2.16289,1.03838,-0.196191,85.3418,8.2782,58.8922,53.833,79.7119,267.578,0.669769,0.556641,0.382599,0.308289,5092,59975,62736,3110,-30120
3444,100301,1.85186,1.14844,-0.272754,0,0,0,3.28E-19,6.10E-39,-4.22E+37,0,0,0,0,0,0,0,0,0
3528,100385,0,0,0,0,0,0,0,0,0,0.50882,0.694855,0.269104,0.431,3514,58655,63205,3126,-30122
3534,100391,6.27334,12.829,-0.0430664,97.9376,-21.7639,58.8318,106.262,-5.5542,271.484,0.500183,0.700531,0.262421,0.435974,3367,58592,63247,3126,-30122
3540,100397,6.63701,12.9726,-0.258398,98.5968,-23.1097,58.6011,111.816,-5.18799,265.625,0.491547,0.706116,0.255829,0.440674,3200,58499,63290,3126,-30122
3546,100403,6.76143,14.2646,-1.11494,99.9921,-25.675,58.1067,119.019,-5.49316,252.197,0.473999,0.71698,0.243561,0.449249,2896,58345,63374,3126,-30122
3552,100409,6.80449,14.8436,-1.69873,100.712,-26.8945,57.832,119.995,-6.40869,245.605,0.46521,0.722198,0.237793,0.453156,2767,58286,63419,3126,-30122
3558,100415,6.9002,15.3986,-2.03369,101.448,-28.0756,57.5519,120.667,-5.7373,239.075,0.456512,0.727264,0.232239,0.456787,2616,58237,63469,3126,-30122
3564,100421,6.74707,15.9441,-2.53135,102.184,-29.2181,57.2607,120.361,-4.5166,233.276,0.447876,0.732147,0.226898,0.460205,2496,58195,63518,3126,-30122
3570,100427,6.70879,16.4992,-2.91416,102.92,-30.3333,56.9696,118.896,-2.62451,227.905,0.439331,0.736816,0.221741,0.463501,2350,58160,63568,3126,-30122
3576,100433,6.60352,17.4084,-3.62236,104.354,-32.4536,56.4038,114.258,3.41797,215.881,0.422638,0.745422,0.211975,0.469727,2077,58066,63664,3126,-30122
3582,100439,6.55088,17.7864,-3.67021,105.035,-33.4534,56.1456,109.863,8.17871,208.13,0.41452,0.749359,0.207397,0.472748,1957,58009,63711,3126,-30122
3588,100445,6.36904,17.7577,-3.36875,105.672,-34.4092,55.9149,104.675,14.0991,198.364,0.406677,0.75293,0.203064,0.475739,1811,57957,63757,3126,-30122
3594,100451,5.97188,17.461,-2.49785,106.271,-35.3101,55.7336,102.112,20.9961,186.768,0.177979,0.55127,-4.22E+37,-4.22E+37,1690,57914,63804,3126,-30122
3750,100607,-14.1736,22.6242,-3.57451,113.45,-48.8672,59.436,-67.2607,22.3999,-129.578,0.262299,0.773529,0.180267,0.547943,64816,57419,65297,3093,-30118
3756,100613,-15.7432,20.6767,-5.94316,112.187,-46.9446,60.0293,-102.234,29.541,-198.181,0.268555,0.772552,0.185059,0.544678,64749,57385,65339,3093,-30118
3762,100619,-13.5946,14.0014,-2.33516,111.171,-45.9174,60.3259,-142.395,25.6348,-207.703,0.277618,0.770294,0.188416,0.542175,64756,57352,65348,3093,-30118
4428,101285,12.8673,15.3269,-5.44072,100.794,-11.9366,57.2937,22.2168,-126.038,-268.25,0.512756,0.705261,0.303589,0.383911,1979,57530,63999,3093,-30118
4434,101291,12.6759,15.2359,-6.39297,100.887,-10.459,56.9806,7.32422,-124.39,-290.649,0.517944,0.704254,0.309204,0.374237,2074,57523,64003,3093,-30118
4440,101297,13.7956,16.26,-8.29268,100.904,-8.87695,56.684,-7.26318,-125.488,-313.477,0.530334,0.699982,0.321594,0.353882,2144,57556,64006,3093,-30118
4446,101303,13.0252,18.1597,-6.82842,100.624,-5.46021,56.2885,-42.7246,-103.882,-351.074,0.537506,0.696503,0.328461,0.343445,2364,57590,64002,3093,-30118
4452,101309,12.7381,18.0065,-9.38369,100.316,-3.66394,56.2225,-64.6973,-86.6089,-367.065,0.545105,0.692078,0.335754,0.333221,2456,57635,63998,3093,-30118
4458,101315,9.11094,17.5137,-7.77109,99.9097,-1.80725,56.2994,-82.6416,-57.4341,-386.597,0.553192,0.686523,0.343506,0.323364,2580,57671,63995,3093,-30118
4464,101321,6.67529,17.7769,-6.46953,0,0,0,-89.4775,-57.4341,-4.56E-36,0,0,0,0,0,0,0,0,0
4668,101525,4.32578,2.95723,-0.502441,91.3733,9.18457,52.6959,59.1431,97.5952,288.086,0.656464,0.608276,0.37149,0.246826,5651,60306,62441,3118,-30121
4674,101531,3.76113,2.87109,-0.229688,91.8182,7.51465,53.1354,64.8193,89.5996,299.255,0.649384,0.614288,0.366669,0.25766,5636,60248,62455,3118,-30121
4680,101537,3.31611,2.79453,0.344531,92.2852,5.79529,53.4979,75.2563,77.2095,309.326,0.634277,0.627289,0.355377,0.27887,5580,60168,62473,3118,-30121
4686,101543,2.8041,3.34961,0.617285,93.3783,2.2467,53.9209,103.882,44.1284,326.477,0.62619,0.634521,0.348907,0.288788,5468,59990,62522,3118,-30121
4692,101549,3.24434,4.3832,-0.0813477,93.9825,0.41748,53.9648,112.61,26.1841,335.876,0.617737,0.642303,0.341827,0.298187,5407,59888,62551,3118,-30121
4698,101555,4.254,4.67988,-0.181836,94.6198,-1.43372,53.9319,119.202,14.0991,343.994,0.609009,0.650482,0.334015,0.307068,5366,59811,62586,3118,-30121
4704,101561,5.36895,4.81865,0.0191406,95.3064,-3.31238,53.8385,129.272,6.46973,348.999,0.600037,0.658905,0.325684,0.315643,5293,59715,62625,3118,-30121
4710,101567,6.18721,5.50293,0.0239258,96.0535,-5.18555,53.6847,140.625,0.0610352,350.708,0,0,0,0,5196,59599,62664,3118,-30121
5088,101945,0,0,0,107.54,-35.8923,54.234,24.231,-41.9312,0.976563,0.386719,0.764709,0.187866,0.479828,685,57315,65047,3084,-30117
5094,101951,6.74707,9.8335,-1.93799,107.699,-35.7385,53.9923,13.9771,-33.3252,-0.0610352,0.387115,0.766022,0.187714,0.477478,697,57314,65039,3084,-30117
5100,101957,6.83799,8.85732,-1.15322,107.781,-35.5957,53.855,9.64355,-19.9585,-2.50244,0.388367,0.767365,0.187775,0.474274,708,57315,65032,3084,-30117
5106,101963,4.92393,8.38359,-1.46426,107.897,-35.3101,53.7231,13.3057,-12.8784,-8.36182,0.388916,0.767609,0.188263,0.473236,727,57311,65018,3084,-30117
5112,101969,4.52676,9.00088,-1.95713,107.979,-35.1563,53.6407,13.9771,-17.4561,-8.91113,0.389404,0.767883,0.188873,0.472137,736,57310,65014,3084,-30117
5118,101975,4.6416,9.52246,-1.871,108.045,-35.0079,53.5529,9.8877,-18.8599,-8.36182,0.389893,0.76825,0.189453,0.470886,744,57309,65013,3084,-30117
5124,101981,4.8665,9.33584,-1.21543,108.073,-34.8706,53.4814,4.02832,-16.4185,-7.32422,0.390472,0.768585,0.189941,0.469696,749,57307,65010,3084,-30117
5130,101987,4.86172,8.58936,-0.483301,108.067,-34.7443,53.443,1.15967,-12.8174,-7.08008,0.391937,0.768768,0.190704,0.467865,751,57305,65009,3084,-30117
5136,101993,4.31143,7.8668,-0.14834,108.111,-34.4916,53.3881,9.76563,-12.8174,-8.42285,0.392548,0.768799,0.191223,0.467102,754,57304,65010,3084,-30117
5142,101999,4.27793,8.30225,-0.626855,108.177,-34.3597,53.3441,14.3433,-15.9302,-9.33838,0.392975,0.768921,0.191833,0.466278,755,57304,65012,3084,-30117
5508,102365,0,0,0,0,0,0,0,0,0,0.460663,0.731232,0.221893,0.451355,0,0,0,3084,-30117
5514,102371,3.72285,9.8,2.3208,100.382,-25.9772,57.1344,-10.9253,31.9824,-129.333,0.462891,0.728485,0.226868,0.45108,1166,57531,64598,3084,-30117
5520,102377,3.34482,8.46016,1.69873,100.261,-25.3619,57.3706,-4.57764,9.33838,-131.409,0.465271,0.726166,0.231537,0.449951,1210,57537,64586,3084,-30117
5526,102383,4.46455,7.68975,0.712988,100.278,-24.6918,57.4805,12.207,-14.7095,-138.428,0.470001,0.723328,0.240387,0.444946,1240,57538,64573,3084,-30117
5532,102389,5.39766,10.7379,0.971387,100.679,-23.1427,57.431,44.1284,-52.9175,-158.691,0.472076,0.7229,0.245178,0.440826,1323,57536,64545,3084,-30117
5538,102395,5.61299,11.5514,-0.0191406,100.948,-22.3077,57.2717,41.626,-71.228,-163.269,0.474091,0.722931,0.250061,0.435822,1370,57535,64536,3084,-30117
5544,102401,6.80449,11.7188,-0.626855,101.223,-21.4233,57.063,39.7339,-83.9844,-169.556,0.476471,0.723175,0.254608,0.430176,1401,57532,64527,3084,-30117
5550,102407,7.84766,11.7906,-0.234473,101.497,-20.495,56.8213,38.147,-91.98,-179.26,0.479126,0.72348,0.259064,0.424011,1470,57527,64517,3084,-30117
5556,102413,8.41709,11.3552,-1.56475,101.761,-19.5007,56.5741,36.7432,-97.6563,-190.918,0.485229,0.723907,0.26825,0.41037,1523,57524,64512,3084,-30117
5562,102419,8.99131,11.8146,-0.842188,102.283,-17.2815,56.0358,36.2549,-114.502,-221.436,0.488708,0.723938,0.273224,0.402863,1687,57552,64504,3084,-30117
5754,102611,0,0,0,0,0,0,0,0,0,0.701447,0.574005,0.412598,0.0900879,6079,60975,63018,3101,-30119
5760,102617,12.4845,2.8041,-2.24424,90.2087,25.9497,43.1488,5.49316,9.39941,207.336,0.700043,0.578918,0.406464,0.0972595,6050,60980,62950,3101,-30119
5766,102623,10.1637,2.56963,-3.42617,90.412,24.7247,43.3685,7.75146,25.5127,209.778,0.695587,0.588379,0.396301,0.113098,6031,60992,62886,3101,-30119
5772,102629,7.44092,2.25859,-2.79453,90.7635,22.1759,43.8684,-0.549316,33.9355,223.633,0.693085,0.592926,0.391388,0.121643,6008,60988,62777,3101,-30119
5778,102635,7.43613,2.24902,-1.54561,90.9229,20.8411,44.1046,0.183105,33.3252,230.957,0.69046,0.597473,0.38623,0.130463,6000,60984,62734,3101,-30119
5784,102641,7.87158,2.06719,-0.77041,91.1041,19.4733,44.3463,5.06592,35.7056,238.281,0.687683,0.602081,0.380798,0.139465,6001,60948,62695,3101,-30119
5790,102647,8.30225,1.87578,-0.669922,91.3348,18.0725,44.6265,13.0005,45.6543,245.117,0.684631,0.606842,0.375214,0.148621,5954,60927,62661,3101,-30119
5796,102653,8.08691,1.75615,-0.736914,91.6205,16.6168,44.9725,22.1558,60.1196,254.028,0.67688,0.617004,0.364441,0.16803,5913,60877,62635,3101,-30119
5802,102659,6.39297,1.88535,-0.736914,92.3346,13.5516,45.791,40.9546,80.9326,275.208,0.672028,0.622406,0.359253,0.178375,5853,60813,62598,3101,-30119
5808,102665,5.63213,1.98105,-0.765625,92.7521,11.9257,46.225,51.2085,87.0972,288.574,0.666595,0.628052,0.353973,0.189087,5838,60758,62583,3101,-30119
5814,102671,4.95742,2.25381,-0.660352,93.208,10.2173,46.6479,60.8521,89.5996,303.894,0.660553,0.634033,0.348511,0.200165,5828,60682,62574,3101,-30119
5820,102677,4.53633,2.63184,-0.684277,93.6859,8.4375,47.0435,69.7021,87.8296,317.81,0.653961,0.64035,0.342743,0.211517,5774,60629,62570,3135,-30123
5826,102683,4.31143,3.48838,-0.803906,94.1803,6.60828,47.384,76.9653,81.7261,329.712,0.639343,0.653778,0.329742,0.234436,5734,60553,62571,3135,-30123
5832,102689,3.73721,5.56514,-1.41641,95.1526,2.82898,47.8674,82.5806,63.8428,347.778,0.631653,0.660706,0.322418,0.245758,5680,60409,62588,3135,-30123
5838,102695,3.66064,6.17285,-1.7083,95.6415,0.895386,48.0157,85.3271,55.7251,354.675,0.623749,0.667725,0.314575,0.256897,5618,60308,62608,3135,-30123
5844,102701,3.47881,6.65615,-1.79922,96.1359,-1.0437,48.0981,87.0972,46.814,359.558,0.615631,0.674774,0.306274,0.267853,5576,60229,62634,3135,-30123
5850,102707,3.37832,6.98633,-1.62695,96.6302,-2.99377,48.1146,88.1958,36.5601,363.098,0.607391,0.681793,0.297577,0.278503,5500,60131,62665,3135,-30123
5856,102713,3.23477,7.17773,-1.12451,97.1301,-4.93835,48.0487,89.1724,24.8413,364.624,0.590637,0.695709,0.2789,0.298676,5443,60018,62700,3135,-30123
5862,102719,3.52666,7.34043,0.00478516,98.2178,-8.76709,47.6971,97.168,0.671387,363.464,0.582184,0.702637,0.269043,0.307983,5327,59810,62769,3135,-30123
5868,102725,4.18223,7.67539,0.263184,98.833,-10.6293,47.406,104.675,-11.3525,358.887,0.573578,0.709595,0.258972,0.316742,5228,59720,62801,3135,-30123
5874,102731,3.88555,8.08691,0.6125,99.5197,-12.442,47.038,115.601,-22.7051,353.455,0.564789,0.716583,0.24881,0.324799,5105,59611,62835,3135,-30123
5880,102737,4.62725,9.43154,-0.0430664,100.272,-14.1998,46.5985,122.375,-34.79,346.375,0.555756,0.723724,0.238647,0.332123,5012,59486,62873,3135,-30123
5886,102743,5.65605,10.3359,-0.468945,101.047,-15.9027,46.1096,123.718,-39.917,339.539,0.5466,0.730865,0.228485,0.338715,4896,59385,62913,3135,-30123
5892,102749,6.69922,9.86221,1.34941,102.728,-19.1437,45.0824,137.146,-40.1001,320.862,0.52829,0.744537,0.208679,0.350616,4802,59257,62952,3135,-30123
5898,102755,7.12988,10.4604,1.64609,103.694,-20.6653,44.5331,152.283,-42.7856,311.035,0.518799,0.75116,0.199371,0.355988,4547,59038,63042,3135,-30123
5904,102761,7.95293,11.7523,1.31592,104.744,-22.1265,43.9618,164.978,-43.7012,301.697,0.508911,0.757874,0.190582,0.360809,4392,58941,63091,3135,-30123
5910,102767,8.96738,13.2022,0.253613,105.831,-23.5327,43.4015,171.021,-38.4521,291.199,0.498688,0.764587,0.182281,0.365204,4273,58823,63141,3135,-30123
5916,102773,9.65645,14.3794,-1.15801,106.902,-24.8785,42.8851,170.959,-27.3438,278.992,0.488281,0.771057,0.1745,0.369415,4134,58687,63194,3135,-30123
5922,102779,9.49854,16.5614,-2.51221,107.941,-26.1584,42.4292,161.682,-4.39453,250.488,0.467804,0.782501,0.16095,0.37793,3967,58569,63247,3135,-30123
5928,102785,8.82383,17.5998,-2.95244,109.902,-28.526,41.6602,157.104,3.11279,236.938,0.457977,0.787384,0.155121,0.382233,3684,58388,63366,3135,-30123
5934,102791,7.97686,18.6525,-3.53623,110.83,-29.6246,41.3196,152.71,8.05664,225.647,0.448425,0.79184,0.149872,0.386444,3513,58282,63436,3143,-30124
5940,102797,7.02461,19.3033,-4.30186,111.725,-30.6848,40.9955,146.545,12.8174,218.872,0.439148,0.795898,0.14502,0.390533,3375,58192,63510,3143,-30124
5946,102803,5.95752,19.6048,-5.546,112.571,-31.723,40.6879,137.573,18.0664,214.905,0.430176,0.799622,0.140442,0.394623,3215,58115,63586,3143,-30124
5952,102809,5.11533,19.6048,-5.60342,113.379,-32.7338,40.3693,118.591,17.8223,205.383,0.413269,0.805939,0.131409,0.402832,3078,58047,63659,3143,-30124
5958,102815,4.92871,19.0497,-4.81387,114.879,-34.6289,39.7211,112.793,19.4702,196.899,0.405426,0.808685,0.126953,0.406708,2786,57870,63820,3143,-30124
5964,102821,4.49326,18.4851,-3.70371,115.598,-35.5023,39.4409,112.976,24.1699,185.852,0.397949,0.811157,0.122711,0.410461,2631,57800,63905,3143,-30124
5970,102827,3.1917,18.3224,-2.73711,116.307,-36.3373,39.2212,117.981,31.311,174.683,0.390625,0.813416,0.118988,0.414124,2506,57740,63990,3143,-30124
5976,102833,2.03848,18.5616,-2.39258,117.026,-37.1228,39.0344,124.207,35.7056,163.818,0.383301,0.815491,0.115875,0.417755,2354,57650,64078,3143,-30124
5982,102839,0.153125,18.5999,-1.33506,117.751,-37.8754,38.9026,143.433,48.7061,145.813,0.368439,0.819305,0.11145,0.424774,2223,57570,64162,3143,-30124
5988,102845,-1.29199,18.9301,-1.01924,119.279,-39.2871,38.7708,155.579,52.8564,139.099,0.360718,0.821136,0.110199,0.428223,1982,57437,64325,3143,-30124
5994,102851,-2.91416,19.4229,-0.378027,120.125,-39.9518,38.7213,168.091,51.8188,135.193,0.352661,0.822937,0.109467,0.43161,1872,57386,64411,3143,-30124
6000,102857,-4.01953,20.0259,0.0717773,121.047,-40.6,38.6334,180.42,48.3398,134.644,0.344299,0.82486,0.109131,0.434784,1735,57341,64498,3143,-30124
6006,102863,-5.69434,20.9638,0.339746,122.047,-41.2372,38.5016,189.758,43.1519,137.329,0.335541,0.826965,0.109009,0.437683,1623,57301,64587,3143,-30124
6012,102869,-2.31602,21.8921,2.93809,123.074,-41.8964,38.3752,211.06,88.3179,140.686,0.316986,0.83136,0.108887,0.443115,1526,57266,64674,3143,-30124
6018,102875,-6.86191,22.3419,0.712988,124.98,-43.4784,38.5455,213.806,98.938,150.818,0.306915,0.832855,0.109741,0.447205,1294,57212,64862,3143,-30124
6024,102881,-7.81895,23.5286,0.665137,125.931,-44.3683,38.6499,215.515,111.633,160.095,0.296509,0.834106,0.110413,0.451721,1158,57189,64961,3143,-30124
6030,102887,-8.39316,24.8828,-0.301465,126.848,-45.3351,38.7543,211.792,124.268,171.509,0.285828,0.835083,0.110962,0.456665,1046,57168,65067,3143,-30124
6036,102893,-8.97695,26.5624,-1.33506,127.678,-46.3568,38.8586,194.946,135.376,180.42,0.275024,0.835663,0.111176,0.462097,907,57150,65181,3143,-30124
6042,102899,-9.10137,27.6486,-1.66523,128.364,-47.395,38.9685,169.006,142.7,180.847,0.255219,0.835419,0.109924,0.47406,788,57132,65290,3143,-30124
6048,102905,-9.54639,27.1988,-1.11016,129.051,-49.4275,39.4025,103.516,167.725,160.645,0.247131,0.834381,0.108643,0.480408,576,57096,65509,3143,-30124
6054,102911,-10.5465,26.5528,-1.13408,129.023,-50.3778,39.743,72.0215,181.152,140.381,0.24054,0.832672,0.107147,0.487061,432,57079,78,3110,-30120
6060,102917,-11.8959,25.5575,-1.41641,128.782,-51.2677,40.1331,41.687,195.435,116.516,0.235565,0.830414,0.105408,0.493652,317,57063,180,3110,-30120
6066,102923,-13.8052,25.4188,-1.68438,128.205,-52.1136,40.6824,3.41797,213.44,89.7827,0.232147,0.827759,0.103302,0.500122,176,57046,273,3110,-30120
6072,102929,-18.8344,22.8922,-2.27295,127.43,-52.8387,41.347,-19.4702,211.121,62.6221,0.230133,0.82077,0.0991211,0.513245,55,57029,357,3110,-30120
6078,102935,-20.5953,21.6911,-2.20117,125.272,-53.9978,42.9126,-73.9746,197.205,21.7896,0.231232,0.816803,0.0971069,0.51947,65364,57003,504,3110,-30120
6084,102941,-21.9495,19.7818,-1.9332,124.052,-54.3713,43.6487,-96.9238,174.927,7.44629,0.233643,0.812744,0.0952454,0.525024,65252,56991,557,3110,-30120
6090,102947,-23.2559,16.6763,-0.990527,122.882,-54.6185,44.2365,-112.732,146.423,-0.549316,0.237274,0.808929,0.0931396,0.529694,65153,56981,599,3110,-30120
6096,102953,-22.8778,14.2933,0.631641,121.904,-54.7614,44.588,-116.028,111.572,-1.83105,0.241699,0.805542,0.0906677,0.533264,65068,56973,628,3110,-30120
6102,102959,-5.31152,19.7531,17.8726,121.245,-54.7559,44.61,-104.736,65.4297,-5.49316,0.250854,0.801483,0.0849915,0.536072,64993,56967,650,3110,-30120
6108,102965,-7.12031,22.6673,3.43574,123.162,-52.7399,42.6984,167.664,-212.891,-189.209,0.2547,0.803558,0.083252,0.531372,64865,56952,662,3110,-30120
6114,102971,-6.70879,23.4521,-3.3209,123.201,-51.6193,42.3248,-29.48,-96.8628,-167.48,0.254852,0.810822,0.0899963,0.519043,64805,56947,666,3110,-30120
6120,102977,-5.49814,17.2266,-3.77549,122.607,-50.4382,42.5061,-68.8477,-45.4712,-215.332,0.260986,0.813202,0.0927734,0.511719,64742,56943,670,3110,-30120
6126,102983,-5.06748,12.9821,-2.94287,121.987,-49.2572,42.7533,-65.1855,-34.9731,-221.924,0.269318,0.813721,0.0969849,0.505768,64724,56939,673,3110,-30120
6132,102989,-0.334961,-2.77539,6.18721,121.481,-47.8949,42.4402,-133.484,-141.968,-178.284,0.288147,0.815033,0.103668,0.49176,64700,56936,674,3110,-30120
6138,102995,2.16289,-1.88535,11.7858,121.47,-45.3021,40.8856,-56.7627,-181.03,-163.696,0.298218,0.816681,0.103943,0.48291,64716,56939,670,3110,-30120
6144,103001,4.76602,-3.09121,9.46025,122.443,-43.8409,39.6661,42.2974,-236.755,-161.621,0.305328,0.820099,0.104797,0.472382,64751,56941,661,3110,-30120
6150,103007,9.07744,0.933105,4.89522,123.975,-42.2424,38.3643,147.217,-269.47,-170.41,0.309021,0.825836,0.106812,0.45932,64769,56944,648,3110,-30120
6156,103013,12.6232,6.03887,-11.0633,125.799,-40.545,37.4304,259.644,-245.239,-206.36,0.309174,0.833374,0.110748,0.444397,64825,56950,640,3110,-30120
6162,103019,14.7574,39.8699,-23.6865,127.716,-37.749,36.6119,63.2935,-93.6279,-187.927,0.30191,0.848938,0.126129,0.414917,64868,56955,637,3110,-30120
6168,103025,13.9152,40.7121,-22.8539,126.815,-36.9305,37.0349,-105.408,7.99561,-176.941,0.304504,0.851166,0.13147,0.406647,64998,56966,667,3084,-30117
6174,103031,9.8,30.0699,-16.4131,124.827,-36.6339,37.9742,-260.925,135.376,-138.611,0.312622,0.849243,0.134918,0.403412,65084,56930,694,3084,-30117
6180,103037,5.26846,22.2366,-5.91924,122.476,-36.7053,39.3365,-285.828,235.352,-108.887,0.324982,0.842957,0.136169,0.406403,65148,56899,713,3084,-30117
6186,103043,3.31611,10.2785,-13.9727,120.24,-37.2052,40.9076,-238.098,307.495,-41.8701,0.337097,0.834442,0.13739,0.413605,65246,56870,717,3084,-30117
6192,103049,-3.49795,8.35488,4.75166,115.675,-37.8918,44.2584,-227.6,276.855,-59.8755,0.354218,0.815552,0.140259,0.435455,65331,56844,711,3084,-30117
6198,103055,-4.13916,4.34492,4.8665,113.846,-37.9193,45.3241,-217.224,198.792,-59.8145,0.362762,0.806763,0.141541,0.444275,65458,56801,654,3084,-30117
6204,103061,-5.99102,0.334961,2.30645,112.665,-37.7875,45.9283,-143.494,123.779,-55.9692,0.371338,0.799561,0.141693,0.450104,18,56823,609,3084,-30117
6210,103067,-5.2876,0.617285,1.11973,112.225,-37.6556,46.0217,-59.082,50.4761,-24.292,0.377716,0.795013,0.141937,0.452789,101,56841,555,3084,-30117
6216,103073,-3.11035,6.09629,4.36406,112.181,-37.4139,45.7141,-27.71,-15.0146,-19.7144,0.380951,0.793488,0.14151,0.452881,173,56858,499,3084,-30117
6222,103079,3.12949,8.69463,1.225,112.538,-36.8042,44.5221,-11.5967,-68.6646,-11.2915,0.386017,0.795105,0.13855,0.446655,294,56883,393,3084,-30117
6228,103085,6.7375,9.74258,-2.73711,112.747,-36.5186,44.0277,0,-59.8145,-9.70459,0.388123,0.796692,0.136719,0.442566,344,56891,339,3084,-30117
6234,103091,8.67549,11.4557,-5.47422,112.797,-36.2823,43.7476,-10.376,-35.7056,-10.7422,0.389679,0.798096,0.135529,0.438965,387,56901,292,3084,-30117
6240,103097,8.80469,13.2836,-5.44072,112.527,-36.1395,43.7531,-41.9922,6.22559,-10.0098,0.391357,0.798676,0.134979,0.436584,425,56911,250,3084,-30117
6246,103103,7.91943,12.8051,-3.69893,111.956,-36.0736,44.0002,-76.1108,43.1519,-9.82666,0.393799,0.797791,0.134705,0.436096,458,56920,214,3084,-30117
6252,103109,4.38799,8.03906,2.03848,110.297,-36.0791,44.967,-101.807,85.9375,-8.91113,0.401031,0.792267,0.134583,0.439636,513,56932,147,3084,-30117
6258,103115,2.75625,6.33555,2.98594,109.539,-36.0901,45.4669,-86.0596,78.9795,-6.40869,0.404816,0.788635,0.134857,0.442596,535,56938,113,3084,-30117
6264,103121,2.24902,6.00537,2.8998,108.929,-36.0791,45.8899,-67.1997,63.2324,-6.16455,0.40802,0.785339,0.135315,0.445343,552,56942,73,3084,-30117
6270,103127,1.88535,6.2207,2.08633,108.545,-36.0297,46.1755,-38.4521,39.1235,-4.76074,0.410614,0.782654,0.135895,0.447479,568,56943,32,3084,-30117
6276,103133,1.97148,6.96719,1.55518,108.331,-35.9583,46.3348,-19.4702,15.5029,-3.17383,0.412292,0.780945,0.136597,0.44873,582,56944,65529,3084,-30117
6282,103139,4.21094,8.9626,-0.358887,108.193,-35.766,46.3898,-4.63867,-10.5591,0.0610352,0.414246,0.779633,0.137695,0.448883,605,56947,65457,3084,-30117
6288,103145,5.29717,9.7665,-1.30635,108.116,-35.6781,46.4008,-10.5591,-9.76563,-0.0610352,0.414948,0.779449,0.138062,0.448456,615,56947,65423,3084,-30117
6294,103151,6.27334,10.044,-1.78965,107.974,-35.6067,46.4667,-17.334,-0.976563,-0.0610352,0.415802,0.779175,0.138336,0.448059,624,56949,65397,3084,-30117
6300,103157,6.29248,9.78086,-1.20107,107.737,-35.5463,46.6095,-27.4658,11.8408,-1.34277,0.416779,0.778595,0.138611,0.448059,634,56951,65376,3084,-30117
6306,103163,5.71826,9.13008,-0.440234,107.435,-35.5023,46.8182,-34.3628,21.9727,-2.50244,0.41806,0.777557,0.138977,0.448578,642,56952,65352,3084,-30117
6312,103169,4.23008,7.91943,0.885254,106.798,-35.4199,47.3016,-32.4097,25.1465,-4.27246,0.420898,0.774689,0.140015,0.450531,654,56955,65304,3084,-30117
6318,103175,3.73721,7.67539,1.05752,106.54,-35.3705,47.5049,-26.4893,19.043,-4.21143,0.422241,0.773254,0.140656,0.451538,659,56957,65281,3084,-30117
6324,103181,3.46924,7.62275,0.937891,106.342,-35.3046,47.6587,-20.6299,9.33838,-5.00488,0.42337,0.772064,0.141296,0.452362,663,56957,65258,3084,-30117
6330,103187,3.8042,7.77109,0.966602,106.205,-35.2386,47.7686,-14.4043,0.854492,-3.72314,0.424347,0.771118,0.141907,0.45282,666,56955,65238,3084,-30117
6336,103193,4.21094,7.77588,0.808691,106.117,-35.1617,47.84,-8.66699,-5.43213,-3.96729,0.425171,0.770477,0.142426,0.453003,667,56954,65219,3084,-30117
6342,103199,4.66553,8.25918,0.756055,106.013,-34.9969,47.9553,-2.44141,-8.78906,-4.82178,0.42627,0.769745,0.143585,0.45282,668,56952,65180,3084,-30117
6348,103205,4.61768,8.34531,0.76084,105.963,-34.92,48.0157,-1.77002,-8.72803,-4.82178,0.426697,0.769501,0.144226,0.452637,668,56949,65159,3084,-30117
6354,103211,4.47412,8.13955,0.756055,105.93,-34.8431,48.0707,-0.12207,-10.0098,-5.12695,0.427094,0.769226,0.144867,0.452515,670,56948,65140,3084,-30117
6360,103217,4.37842,7.91465,0.669922,105.925,-34.7607,48.1091,3.84521,-12.8174,-5.31006,0.427429,0.769043,0.145538,0.452332,670,56948,65123,3084,-30117
6366,103223,4.17266,7.89072,0.650781,105.958,-34.6783,48.1311,9.15527,-16.1133,-5.49316,0.427643,0.768951,0.14621,0.452026,670,56948,65108,3084,-30117
6372,103229,4.16309,8.30703,0.344531,106.128,-34.4971,48.1036,17.1509,-24.5361,-5.06592,0.427582,0.769287,0.147705,0.45105,763,56946,65081,3084,-30117
6378,103235,4.3832,8.48408,0.00478516,106.243,-34.4037,48.0652,18.4326,-27.3438,-5.37109,0.427399,0.769684,0.148407,0.450317,804,56947,65072,3084,-30117
6384,103241,4.7373,8.65156,-0.133984,106.359,-34.3048,48.0267,18.6768,-27.771,-5.7373,0.427185,0.770142,0.149109,0.449524,839,56946,65064,3084,-30117
6390,103247,4.72773,8.68506,-0.267969,106.469,-34.2114,47.9883,18.4326,-26.7944,-5.92041,0.426941,0.770599,0.149811,0.4487,869,56945,65055,3084,-30117
6396,103253,4.69902,8.71377,-0.30625,106.573,-34.118,47.9608,17.2729,-25.6958,-6.71387,0.426727,0.771057,0.150513,0.447906,897,56945,65050,3084,-30117
6402,103259,4.35928,8.52236,-0.382813,106.776,-33.9258,47.9114,17.0898,-25.9399,-7.26318,0.426331,0.771851,0.152008,0.446381,945,56945,65050,3084,-30117
6408,103265,4.67988,8.7042,-0.363672,106.886,-33.8324,47.8839,18.1274,-25.6348,-6.83594,0.426147,0.772247,0.15271,0.445618,967,56944,65049,3084,-30117
6414,103271,4.34014,8.61807,-0.574219,106.99,-33.7335,47.851,18.3716,-26.7944,-7.93457,0.425934,0.772675,0.153442,0.444855,987,56945,65050,3076,-30116
6420,103277,4.71338,8.75684,-0.866113,107.1,-33.6456,47.8125,17.9443,-26.7944,-6.28662,0.42572,0.773102,0.154175,0.444061,1004,56947,65051,3076,-30116
6426,103283,4.78994,8.93867,-1.05752,107.205,-33.5413,47.785,16.7236,-26.6113,-8.72803,0.425476,0.77356,0.154846,0.443268,1018,56948,65052,3076,-30116
6432,103289,5.40723,9.10615,-1.86143,107.369,-33.3545,47.7356,12.8174,-22.9492,-8.91113,0.425201,0.774323,0.156189,0.441711,1041,56951,65055,3076,-30116
6438,103295,5.46943,9.26885,-2.0959,107.408,-33.2721,47.7466,8.78906,-17.9443,-7.99561,0.42514,0.774597,0.156891,0.44104,1051,56953,65056,3076,-30116
6444,103301,5.58428,9.36455,-1.84229,107.397,-33.2007,47.7905,1.70898,-11.2305,-8.48389,0.425171,0.774719,0.157562,0.440552,1062,56953,65057,3076,-30116
6450,103307,5.45508,9.24014,-1.54082,107.336,-33.1293,47.8674,-3.60107,-6.10352,-9.52148,0.425415,0.774597,0.158203,0.440338,1070,56952,65057,3076,-30116
6456,103313,5.30195,9.17793,-1.33984,107.249,-33.0469,47.9718,-7.08008,-2.13623,-13.3667,0.425781,0.774261,0.158875,0.440277,1077,56952,65060,3076,-30116
6462,103319,4.54111,8.61807,-0.708203,107.056,-32.9095,48.1586,-10.0708,-2.68555,-10.2539,0.42688,0.773285,0.160339,0.44046,1083,56955,65063,3076,-30116
6468,103325,4.73252,8.75684,-0.215332,106.957,-32.8271,48.252,-10.0708,-3.90625,-13.3667,0.42746,0.772766,0.16095,0.440552,1088,56956,65061,3076,-30116
6474,103331,4.25879,8.53672,-0.196191,106.87,-32.7502,48.3344,-10.2539,-5.43213,-11.2915,0.428101,0.772247,0.161621,0.440582,1089,56958,65060,3076,-30116
6480,103337,4.53154,8.51279,-0.224902,106.787,-32.6788,48.4058,-8.97217,-6.34766,-10.9863,0.428711,0.77179,0.162231,0.440582,1090,56960,65059,3076,-30116
6486,103343,4.22051,8.45537,-0.368457,106.721,-32.5909,48.4717,-7.38525,-8.48389,-12.146,0.429291,0.771362,0.162811,0.440552,1090,56958,65061,3076,-30116
6492,103349,4.35928,8.6085,-0.114844,106.617,-32.4371,48.576,-4.82178,-10.9253,-11.1084,0.430328,0.770691,0.164001,0.440308,1089,56954,65061,3076,-30116
6498,103355,4.24443,8.58457,-0.153125,106.573,-32.3602,48.6255,-3.41797,-10.8032,-11.0474,0.430756,0.770416,0.164581,0.440125,1087,56951,65068,3076,-30116
6504,103361,4.33057,8.64678,-0.0861328,106.54,-32.2833,48.6804,-2.2583,-10.498,-9.8877,0.431152,0.770172,0.165192,0.439941,1084,56950,65071,3076,-30116
6510,103367,4.39277,8.55586,0.0334961,106.512,-32.2119,48.7299,-0.671387,-10.8643,-10.1318,0.431488,0.769928,0.165802,0.439789,1080,56950,65072,3076,-30116
6516,103373,4.42148,8.57979,-0.196191,106.496,-32.1405,48.7793,0.366211,-10.6201,-9.64355,0.431793,0.769745,0.166412,0.439606,1077,56949,65072,3076,-30116
6522,103379,4.58418,8.75684,-1.0623,106.485,-31.9922,48.8617,3.41797,-12.6953,-10.3149,0.43219,0.76947,0.167694,0.439209,1074,56950,65073,3084,-30117
6528,103385,4.67988,9.10137,-1.34463,106.485,-31.9208,48.9001,2.80762,-12.207,-9.82666,0.432373,0.769379,0.168365,0.438934,1067,56946,65069,3084,-30117
6534,103391,4.62246,9.73779,-1.36377,106.452,-31.8494,48.9496,-1.58691,-9.52148,-9.64355,0.432526,0.769287,0.169006,0.43869,1064,56946,65068,3084,-30117
6540,103397,4.72295,9.86699,-1.3207,106.381,-31.7889,49.021,-8.30078,-5.98145,-9.09424,0.4328,0.769073,0.169617,0.438538,1061,56948,65067,3084,-30117
6546,103403,4.90479,9.47939,-1.51689,106.276,-31.7285,49.1034,-13.3057,-4.02832,-9.64355,0.433289,0.768677,0.170135,0.438568,1057,56949,65065,3084,-30117
6552,103409,4.90957,9.27363,-1.52646,106.15,-31.6681,49.1913,-20.6299,2.31934,-8.97217,0.434692,0.767487,0.171021,0.438904,1052,56948,65062,3084,-30117
6558,103415,5.06748,9.41719,-1.62217,105.804,-31.5747,49.433,-24.9634,6.22559,-9.82666,0.435516,0.766724,0.171417,0.43927,1047,56948,65060,3084,-30117
6564,103421,4.69902,9.35977,-0.784766,105.59,-31.5253,49.5813,-28.3813,9.58252,-10.2539,0.436462,0.765778,0.171844,0.439789,1043,56946,65057,3084,-30117
6570,103427,4.66074,8.76162,-0.693848,105.359,-31.4813,49.7406,-30.5786,11.1084,-10.437,0.4375,0.76474,0.172272,0.44043,1038,56944,65052,3084,-30117
6576,103433,4.3832,8.38359,-0.143555,105.156,-31.4319,49.8834,-27.0996,8.36182,-11.3525,0.438599,0.763611,0.172668,0.441162,1031,56942,65048,3084,-30117
6582,103439,4.00039,8.42666,0.00478516,104.837,-31.311,50.1141,-18.3716,0.12207,-11.9019,0.440552,0.761658,0.173615,0.4422,1015,56937,65030,3084,-30117
6588,103445,3.8999,8.59414,0.272754,104.744,-31.2341,50.1746,-14.4043,-6.83594,-12.0239,0.441345,0.760956,0.174103,0.442413,1007,56932,65018,3084,-30117
6594,103451,4.05781,8.61328,0.325391,104.689,-31.1462,50.191,-10.0708,-14.8315,-13.0615,0.442078,0.760437,0.17453,0.442383,1002,56930,65007,3084,-30117
6600,103457,4.5459,8.52715,0.062207,104.672,-31.0474,50.1746,-5.85938,-21.4233,-13.6108,0.442719,0.760162,0.174927,0.442047,996,56928,64999,3084,-30117
6606,103463,4.76602,8.59893,-0.846973,104.683,-30.932,50.1471,-1.83105,-23.3765,-15.564,0.443298,0.760101,0.175293,0.441467,990,56926,64991,3084,-30117
6612,103469,4.65596,9.72344,-0.689063,104.689,-30.7123,50.1086,-4.5166,-21.1792,-17.2119,0.444214,0.760162,0.176239,0.440033,980,56921,64968,3084,-30117
6618,103475,4.33057,9.4459,-0.617285,104.656,-30.6024,50.1031,-9.0332,-19.2261,-15.9912,0.444824,0.760101,0.176727,0.439362,976,56922,64960,3084,-30117
6624,103481,4.57939,9.0918,-0.177051,104.639,-30.4761,50.0757,-6.95801,-24.4141,-18.6768,0.445526,0.759888,0.177155,0.438843,970,56920,64949,3084,-30117
6630,103487,5.36416,9.66602,1.11973,104.716,-30.2948,49.9603,3.54004,-41.5039,-26.123,0.446259,0.759827,0.177582,0.438049,1015,56918,64939,3084,-30117
6636,103493,10.4699,12.0921,3.22998,104.974,-29.9597,49.6747,21.6064,-80.5054,-48.2788,0.446899,0.760193,0.178131,0.436493,1054,56917,64931,3084,-30117
6642,103499,12.0682,9.95313,-3.58887,105.211,-29.1797,49.6033,13.0005,-14.5874,-76.8433,0.448517,0.762451,0.180756,0.42981,1112,56916,64920,3084,-30117
6648,103505,9.91963,11.3073,-3.1917,105.073,-28.8116,49.9493,4.69971,24.6582,-85.5713,0.449493,0.762085,0.183624,0.428162,1133,56913,64915,3084,-30117
6654,103511,7.26865,12.4223,-2.07676,104.919,-28.3832,50.3009,0.305176,23.1934,-98.2666,0.450592,0.760773,0.187408,0.427734,1147,56913,64917,3084,-30117
6660,103517,6.15371,11.8002,-0.91875,104.749,-27.8998,50.5865,-7.8125,10.376,-106.384,0.452057,0.759308,0.191467,0.427002,1157,56911,64918,3084,-30117
6666,103523,5.98145,10.446,-0.569434,104.612,-27.3779,50.8337,-6.34766,1.58691,-112.244,0.454041,0.757813,0.195343,0.425781,1159,56908,64917,3084,-30117
6672,103529,6.2542,8.93867,0.0861328,104.485,-26.2024,51.2128,11.1084,-16.4795,-127.014,0.458374,0.755188,0.203278,0.422058,1239,56901,64916,3084,-30117
6678,103535,6.21113,9.22578,1.14844,104.529,-25.5377,51.3501,20.1416,-24.9023,-136.108,0.460297,0.754364,0.207611,0.419342,1260,56898,64915,3084,-30117
6684,103541,6.26855,10.3934,-0.0574219,104.661,-24.8126,51.4215,31.4941,-38.9404,-145.386,0.462128,0.753723,0.21225,0.416107,1326,56894,64912,3084,-30117
6690,103547,6.87627,11.0537,0.143555,104.832,-24.0216,51.4545,35.8276,-49.9268,-156.677,0.463898,0.753479,0.217072,0.41214,1374,56889,64908,3084,-30117
6696,103553,6.76621,10.9819,-0.942676,104.985,-23.1812,51.4709,31.9214,-55.7861,-165.71,0.46579,0.753326,0.222137,0.407501,1409,56884,64906,3084,-30117
6702,103559,6.06279,10.6805,0.090918,105.32,-21.4014,51.427,29.7241,-72.7539,-176.575,0.470276,0.752899,0.232422,0.397308,1537,56913,64911,3084,-30117
6708,103565,6.78535,10.5178,0.129199,105.557,-20.4291,51.2842,36.3159,-93.5669,-185.486,0.472839,0.752716,0.237457,0.391571,1627,56940,64913,3084,-30117
6714,103571,8.40752,10.7522,0.899609,105.859,-19.3579,51.0809,47.3022,-111.816,-200.439,0.475525,0.752869,0.242432,0.384918,1703,56965,64917,3084,-30117
6720,103577,9.61816,10.7331,0.110059,106.205,-18.1769,50.8447,53.894,-125.793,-219.482,0.478241,0.753326,0.247681,0.377228,1758,56986,64920,3084,-30117
6726,103583,10.8623,11.4892,0.124414,106.578,-16.897,50.6085,61.6455,-133.911,-240.234,0.48114,0.753876,0.253326,0.368622,1846,57000,64922,3084,-30117
6732,103589,12.7764,13.1305,-2.42607,107.314,-13.9691,50.1691,61.0352,-147.949,-288.635,0.487427,0.7547,0.266327,0.34903,2005,57012,64923,3084,-30117
6738,103595,13.2836,14.1641,-4.55547,107.633,-12.3047,50.0043,56.6406,-149.109,-317.81,0.49115,0.754608,0.273682,0.338074,2126,57054,64929,3084,-30117
6744,103601,12.6663,15.4513,-5.99102,107.864,-10.5359,49.8724,41.748,-150.879,-340.027,0.495361,0.753998,0.28183,0.326477,2225,57088,64934,3084,-30117
6750,103607,13.7717,17.5807,-6.9624,108.029,-8.62976,49.7516,28.9307,-158.386,-367.798,0.500244,0.752625,0.290344,0.314453,2347,57112,64937,3084,-30117
6756,103613,14.2693,18.4946,-10.8814,108.083,-6.60278,49.6252,7.69043,-167.175,-389.893,0.50589,0.75058,0.299286,0.301697,2437,57128,64939,3093,-30118
6762,103619,15.279,19.6861,-12.5036,107.737,-2.31812,49.5648,-48.8281,-139.648,-428.772,0.520203,0.743591,0.317657,0.274719,2547,57176,64936,3093,-30118
6768,103625,14.121,22.4185,-10.513,107.408,-0.164795,49.7845,-67.4438,-105.103,-441.04,0.52829,0.738129,0.327637,0.261932,2817,57264,64913,3093,-30118
6774,103631,11.3169,21.4854,-12.3409,106.908,2.12585,50.0867,-103.088,-93.0176,-473.816,0.536438,0.731415,0.33844,0.250183,2984,57310,64898,3093,-30118
6780,103637,8.17305,23.2606,-9.07744,106.392,4.42749,50.3943,-109.009,-88.1348,-477.051,0.545654,0.723022,0.350037,0.238495,3161,57380,64876,3093,-30118
6786,103643,9.66602,26.8017,-9.85742,105.892,6.69617,50.5975,-106.934,-103.577,-466.614,0.554779,0.714081,0.361603,0.226868,3345,57469,64846,3093,-30118
6792,103649,8.61807,24.4282,-12.695,105.293,8.96484,50.8997,-178.833,-63.5376,-499.451,0.572815,0.69516,0.383362,0.203796,3489,57531,64808,3093,-30118
6798,103655,6.09629,20.5905,-7.75195,103.59,13.5626,51.5259,-193.237,-76.6602,-463.867,0.583069,0.683044,0.39502,0.193207,3808,57707,64715,3093,-30118
6804,103661,9.35498,19.2315,-7.11553,102.805,15.6281,51.839,-177.185,-49.8657,-438.66,0.593384,0.67099,0.404907,0.18335,3994,57822,64664,3093,-30118
6810,103667,12.9486,18.2362,-6.25898,101.926,17.8748,51.9598,-187.317,-87.9517,-468.506,0.602264,0.659302,0.414703,0.174561,4191,57945,64606,3093,-30118
6816,103673,14.389,11.5896,-6.03887,100.942,20.2753,51.9873,-204.224,-105.408,-497.681,0.612091,0.646881,0.424072,0.164063,4398,58076,64545,3093,-30118
6822,103679,12.695,7.41221,-4.72295,100.02,22.6208,52.0148,-192.078,-96.1914,-490.295,0.632202,0.619904,0.442688,0.141235,4564,58212,64480,3093,-30118
6828,103685,12.2979,7.56533,-7.97686,99.1351,27.1527,52.8333,-115.417,-16.2964,-496.887,0.638641,0.607239,0.453918,0.131287,4951,58531,64334,3093,-30118
6834,103691,9.19229,9.32627,-7.70889,98.8824,29.4049,53.3057,-101.501,-4.21143,-490.784,0.644043,0.594879,0.465515,0.120422,5127,58680,64262,3093,-30118
6840,103697,4.41191,7.26865,-10.1541,98.5803,31.5912,53.7781,-116.882,-0.427246,-478.455,0.64856,0.582733,0.477142,0.109741,5318,58868,64191,3093,-30118
6846,103703,-0.617285,3.95732,-8.75684,98.0475,33.5468,54.0857,-148.132,-20.5078,-428.528,0.653015,0.57019,0.488251,0.0997925,5476,59049,64120,3093,-30118
6852,103709,-3.73242,2.5457,-7.66582,97.4213,35.2112,54.2285,-149.048,-36.8042,-367.676,0.663361,0.546509,0.504059,0.0843201,5609,59266,64053,3093,-30118
6858,103715,-8.1252,1.08623,0.947461,95.9491,37.6776,53.5034,-96.8018,-125.549,-237.427,0.668579,0.53714,0.508301,0.0775452,5901,59695,63927,3093,-30118
6864,103721,-8.59414,1.63652,4.48369,95.3888,38.2764,52.6849,-20.0195,-155.396,-140.015,0.673706,0.530457,0.509491,0.0709534,6021,59873,63867,3093,-30118
6870,103727,-4.47891,3.93818,-0.870898,94.856,38.3533,51.5094,29.7852,-200.012,-33.1421,0.677399,0.528198,0.507782,0.0648499,6131,60069,63808,3110,-30120
6876,103733,2.55049,4.41191,-3.69893,94.2572,38.1226,50.0757,48.2788,-237.122,30.8228,0.680573,0.529846,0.502411,0.0597229,6231,60239,63748,3110,-30120
6882,103739,12.3218,4.72295,-5.58906,93.6969,37.6062,48.5706,69.458,-223.206,146.912,0.686798,0.538788,0.484985,0.0518799,6321,60388,63682,3110,-30120
6888,103745,15.4178,6.27813,-5.79961,93.0432,35.7111,46.0986,73.7915,-186.279,188.232,0.688812,0.545441,0.474731,0.0507813,6451,60652,63528,3110,-30120
6894,103751,17.93,6.51738,-5.05312,92.9004,34.4971,45.4449,34.668,-113.77,213.135,0.689697,0.552917,0.464539,0.0516968,6492,60735,63445,3110,-30120
6900,103757,18.6095,5.12012,-3.50752,92.9388,33.2501,45.1758,25.8789,-50.7813,216.187,0.689911,0.559509,0.45578,0.0559082,6533,60814,63369,3110,-30120
6906,103763,16.4705,4.18701,-2.37344,93.1476,31.9977,45.2472,22.3389,6.65283,213.745,0.688965,0.565674,0.448761,0.0619202,6584,60892,63293,3110,-30120
6912,103769,9.43633,4.24443,-2.58398,93.8947,29.5038,45.8569,32.5928,56.2134,209.106,0.683868,0.577301,0.439209,0.0775146,6588,60930,63222,3110,-30120
6918,103775,6.75664,4.01475,-4.02432,94.2682,28.2349,46.214,27.8931,62.1948,213.013,0.68045,0.583038,0.435394,0.0858154,6606,60980,63104,3110,-30120
6924,103781,4.98613,3.73242,-4.84258,94.5758,26.9,46.5546,17.2729,63.6597,226.196,0.676941,0.588623,0.43158,0.0944519,6620,60995,63056,3110,-30120
6930,103787,4.3832,3.20605,-4.74688,94.812,25.5048,46.8677,6.71387,62.2559,239.685,0.673492,0.594055,0.427338,0.103668,6635,61013,63013,3110,-30120
6936,103793,4.37842,2.53613,-3.55059,94.9933,24.0381,47.1478,-0.915527,58.7158,254.272,0.670227,0.599335,0.422638,0.113403,6601,61001,62979,3110,-30120
6942,103799,5.61777,1.93799,-0.775195,95.3668,20.9674,47.6532,7.99561,59.6924,272.461,0.663666,0.609985,0.411652,0.133881,6559,60977,62934,3110,-30120
6948,103805,5.69912,1.97627,-0.669922,95.614,19.3689,47.9279,17.334,66.8945,281.25,0.659882,0.615601,0.405792,0.144318,6551,60923,62918,3110,-30120
6954,103811,5.19189,2.19639,-1.19629,95.9052,17.71,48.2355,25.0854,76.2329,291.87,0.655548,0.62146,0.399872,0.154999,6549,60890,62909,3110,-30120
6960,103817,4.44063,2.45,-1.55996,96.2128,15.9851,48.5541,30.0293,82.3364,304.688,0.650665,0.627533,0.393921,0.166046,6498,60826,62899,3110,-30120
6966,103823,3.76113,2.56006,-1.95713,96.5204,14.1998,48.8507,32.4097,83.4961,318.726,0.645294,0.633759,0.387726,0.17746,6460,60742,62895,3110,-30120
6972,103829,3.55059,2.41172,-1.54082,97.1082,10.4315,49.2847,38.3911,69.1528,345.825,0.633667,0.646637,0.373871,0.20108,6371,60602,62894,3110,-30120
6978,103835,4.01475,2.32559,-1.10059,97.4213,8.48145,49.4,45.105,59.082,354.919,0.627472,0.653381,0.365936,0.212891,6321,60505,62903,3110,-30120
