TimeSinceCollection,Timestamp,AccX,AccY,AccZ,AngleRoll,AnglePitch,AngleYaw,AngularVelX,AngularVelY,             AngularVelZ,Q1,Q2,Q3,Q4,MagX,MagY,MagZ,Height,Airpressure
0,291577,4.14395,8.76162,-1.01445,97.1741,-25.2081,-127.853,1.52588,-1.52588,0.244141,0.430756,0.192017,-0.720764,-0.507874,60003,60040,2672,3110,-30120
6,291583,4.15352,8.77119,-1.05273,0,0,0,1.64795,-1.95313,0.12207,0,0,0,0,0,0,0,0,0
84,291661,4.20615,8.7999,-1.16758,97.3279,-25.2136,-127.974,1.09863,-0.915527,0.183105,0.429993,0.191803,-0.72168,-0.507324,60010,60049,2686,3110,-30120
90,291667,4.1918,8.83818,-1.17236,97.3334,-25.2136,-127.974,0.854492,-0.732422,0.183105,0.429932,0.191772,-0.721741,-0.507294,59989,60048,2690,3110,-30120
96,291673,4.18701,8.78555,-1.14365,97.3389,-25.2191,-127.98,0.732422,-0.610352,0.305176,0.429901,0.191772,-0.721771,-0.507263,59970,60046,2693,3110,-30120
102,291679,4.17744,8.78555,-1.08623,97.3499,-25.2191,-127.985,0.854492,-0.549316,0.0610352,0.429901,0.191742,-0.721802,-0.507263,59984,60042,2699,3110,-30120
108,291685,4.17744,8.77598,-1.0958,97.3553,-25.2191,-127.991,0.854492,-0.793457,0.183105,0.429871,0.191742,-0.721832,-0.507233,59968,60041,2702,3110,-30120
114,291691,4.18701,8.81426,-1.14365,97.3608,4.39009e+24,1.19557e+30,0.793457,-0.732422,0.12207,0,0,0,0,0,0,0,0,0
582,292159,0,0,0,0,0,0,1.02932,1.02932,1.03656,0,0,0,0,0,0,0,0,0
654,292231,0,0,0,0,0,0,0,0,0,0.433899,0.191864,-0.718109,-0.509033,0,0,0,0,0
660,292237,4.17744,8.81904,-1.01445,96.6467,-25.3345,-127.436,-1.89209,1.89209,0.12207,0.43399,0.191895,-0.718018,-0.509064,59879,60043,2653,3110,-30120
666,292243,4.21572,8.82383,-1.01924,96.6357,-25.3345,-127.425,-2.2583,1.95313,0.12207,0.434174,0.191925,-0.717865,-0.509155,59874,60044,2651,3110,-30120
672,292249,4.20137,8.78555,-0.976172,96.6028,-25.34,-127.397,-2.44141,2.0752,0.244141,0.434265,0.191925,-0.717773,-0.509186,59863,60044,2646,3110,-30120
678,292255,4.18701,8.77119,-0.952246,96.5863,-25.34,-127.381,-2.44141,2.0752,0.0610352,0.434357,0.191925,-0.717682,-0.509216,59859,60044,2645,3110,-30120
684,292261,4.18223,8.81426,-0.976172,96.5698,-25.34,-127.37,-2.2583,2.19727,0.12207,0.434448,0.191956,-0.71759,-0.509277,59858,60046,2642,3110,-30120
690,292267,4.18223,8.81426,-0.961816,96.5533,-25.3455,-127.354,-2.0752,1.95313,0.244141,0.43454,0.191986,-0.717499,-0.509308,59856,60048,2641,3110,-30120
696,292273,4.16787,8.77119,-0.966602,96.5424,-25.3455,-127.343,-1.83105,1.89209,0.244141,0.434723,0.192017,-0.717346,-0.509369,59854,60049,2641,3110,-30120
702,292279,4.18701,8.80469,-0.971387,96.5149,-25.351,-127.321,-1.83105,1.64795,0.244141,0.434814,0.192017,-0.717255,-0.509399,59848,60052,2642,3110,-30120
708,292285,4.18223,8.80947,-0.990527,96.5039,-25.351,-127.31,-1.64795,1.46484,0.12207,0.434906,0.192017,-0.717194,-0.50943,59847,60054,2642,3110,-30120
714,292291,4.20137,8.80469,-1.0001,96.4929,-25.351,-127.304,-1.77002,1.34277,0.244141,0.434967,0.192047,-0.717133,-0.50946,59845,60054,2640,3110,-30120
720,292297,4.22051,8.84297,-1.05273,96.4819,-25.3564,-127.293,-1.64795,1.34277,0.12207,0.435028,0.192047,-0.717072,-0.509491,59844,60053,2638,3110,-30120
726,292303,4.22529,8.83818,-1.00488,0,0,0,0,0,0,0,0,0,0,0,0,0,0,0
864,292441,4.24443,8.7999,-0.971387,96.2238,-25.3729,-127.084,-0.244141,0.305176,-0.0610352,0.436554,0.19223,-0.715546,-0.510254,59840,60070,2591,3118,-30121
870,292447,4.19658,8.81426,-0.91875,96.2183,-25.3729,-127.084,-0.488281,0.12207,0,0.436554,0.19223,-0.715515,-4.20368e+37,59840,60072,2591,3118,-30121
1206,292783,0,0,0,0,0,0,0,0,0,0.436432,0.192627,-0.714905,-0.511078,59834,60072,2583,3118,-30121
1212,292789,4.20137,8.82383,-0.937891,96.1249,-25.2795,-127.046,0,-0.183105,-0.183105,0.436401,0.192657,-0.714905,-0.511078,59832,60070,2573,3118,-30121
1218,292795,4.19658,8.80469,-0.961816,96.1249,-25.2795,-127.04,0,-0.12207,-0.244141,0.436432,0.192688,-0.714905,-0.511078,59829,60070,2569,3118,-30121
1284,292861,0,0,0,96.1194,-25.2631,-127.007,0,0,0,0.436493,0.192932,-0.714783,-0.511078,59825,60073,2573,3118,-30121
1290,292867,4.19658,8.81426,-0.966602,96.1139,-25.2631,-127.007,-0.305176,-0.0610352,-0.305176,0.436493,0.192963,-0.714783,-0.511078,59825,60072,2572,3118,-30121
1296,292873,4.20615,8.7999,-0.923535,96.1139,-25.2631,-127.002,-0.305176,0,-0.183105,0.436523,0.192963,-0.714752,-0.511078,59823,60068,2573,3118,-30121
1302,292879,4.17744,8.82383,-0.880469,96.1084,-25.2576,-126.996,-0.305176,0,-0.427246,0.436523,0.193024,-0.714752,-0.511078,59821,60071,2580,3118,-30121
1308,292885,4.18223,8.79512,-0.904395,96.1084,-25.2576,-126.996,-0.183105,0,-0.244141,0.436554,0.193024,-0.714722,-0.511108,59822,60074,2585,3118,-30121
1314,292891,4.17744,8.81426,-0.899609,96.1084,-25.2576,-126.991,-0.244141,0,-0.0610352,0.436554,0.193054,-0.714722,-0.511108,59822,60077,2590,3118,-30121
1320,292897,4.17744,8.81904,-0.90918,96.1084,-25.2576,-126.991,-0.183105,-0.183105,-0.0610352,0.436554,0.193054,-0.714691,-0.511108,59822,60078,2595,3118,-30121
1326,292903,4.1918,8.83818,-0.92832,96.1029,-25.2576,-126.991,-0.244141,-0.12207,-0.12207,0.436554,0.193054,-0.714691,-0.511108,59824,60081,2597,3118,-30121
1332,292909,4.1918,8.83818,-0.952246,96.1029,-25.2521,-126.985,-0.305176,0,-0.427246,0.436584,0.193085,-0.714691,-0.511108,59823,60081,2588,3118,-30121
1338,292915,4.19658,8.81426,-0.980957,96.0974,-25.2521,-126.985,-0.366211,0.0610352,-0.305176,0.436584,0.193085,-0.714661,-0.511139,59821,60081,2582,3118,-30121
1428,293005,4.12002,8.75205,-0.803906,95.993,-25.1971,-126.914,-1.09863,0.183105,-0.915527,0.436768,0.19342,-0.71402,-0.511719,59833,60082,2573,3110,-30120
1434,293011,4.13438,8.73291,-0.818262,95.993,-25.1917,-126.914,-0.549316,-0.366211,-0.854492,0.436798,0.193451,-0.713989,-0.51178,59832,60081,2572,3110,-30120
1440,293017,4.13916,8.80469,-0.885254,95.9875,-25.1862,-126.914,-0.305176,-0.427246,-0.793457,0.436768,0.193481,-0.713959,-0.51178,59830,60079,2571,3110,-30120
1446,293023,4.16787,8.88125,-0.947461,95.9875,-25.1807,-126.914,-0.488281,-0.671387,-0.793457,0.436768,0.193481,-0.713959,-0.51181,59831,60078,2569,3110,-30120
1452,293029,4.21572,8.84297,-0.90918,95.9821,-25.1752,-126.914,-1.09863,-0.244141,-0.793457,0.436707,0.193512,-0.713928,-0.511871,59830,60077,2571,3110,-30120
1458,293035,4.18701,8.81904,-0.90918,95.9766,-25.1697,-126.914,-1.0376,0,-1.15967,0.436707,0.193542,-0.713898,-0.511902,59828,60077,2573,3110,-30120
1464,293041,4.20615,8.82383,-0.952246,95.9711,-25.1642,-126.909,-0.793457,0,-0.793457,0.436707,0.193573,-0.713867,-0.511963,59830,60078,2574,3110,-30120
1470,293047,4.1583,8.86211,-0.933105,95.9656,-25.1642,-126.909,-0.793457,-0.12207,-0.976563,0.436707,0.193573,-0.713837,-0.511993,59830,60079,2575,3110,-30120
1476,293053,4.1583,8.85732,-0.90918,95.9601,-25.1587,-126.903,-1.09863,0,-0.915527,0.436707,0.193604,-0.713806,-0.512024,59828,60079,2580,3110,-30120
1482,293059,4.13916,8.81426,-0.823047,95.9491,-25.1477,-126.898,-1.2207,0.183105,-0.793457,0.436707,0.193634,-0.713715,-0.512115,59824,60083,2589,3110,-30120
1488,293065,4.15352,8.78555,-0.799121,95.9381,-25.1477,-126.892,-1.09863,0.12207,-0.732422,0.436707,0.193665,-0.713684,-0.512177,59823,60087,2591,3110,-30120
1494,293071,4.12959,8.78076,-0.837402,1.75292e-38,-4.2201e+37,-4.2201e+37,-0.915527,0.0610352,-0.732422,0,0,0,0,0,0,0,0,0
1572,293149,0,0,0,95.8777,-25.0983,-126.887,0,0,0,0.436646,0.193787,-0.713287,-0.512726,59994,60111,2565,3110,-30120
1578,293155,4.14873,8.82383,-0.827832,95.8722,-25.0928,-126.887,-0.427246,0,-0.305176,0.436615,0.193787,-0.713287,-0.512756,60024,60111,2566,3110,-30120
1584,293161,4.1248,8.79033,-0.832617,95.8722,-25.0928,-126.892,-0.244141,0,-0.427246,0.436615,0.193756,-0.713287,-0.512787,60003,60112,2565,3110,-30120
1590,293167,4.1248,8.80947,-0.866113,95.8722,-25.0928,-126.892,0.0610352,-0.183105,-0.305176,0.436584,0.193756,-0.713257,-0.512817,59985,60112,2566,3110,-30120
1596,293173,4.11523,8.85732,-0.923535,95.8722,-25.0928,-126.898,0,-0.305176,-0.305176,0.436554,0.193726,-0.713287,-0.512817,59969,60109,2568,3110,-30120
1602,293179,4.16787,8.82861,-0.890039,95.8722,-25.0873,-126.898,-0.305176,-0.0610352,0,0.436554,0.193726,-0.713287,-0.512848,59942,60104,2565,3110,-30120
1608,293185,4.15352,8.81904,-0.866113,95.8667,-25.0873,-126.898,-0.183105,0.0610352,-0.0610352,0.436554,0.193695,-0.713257,-0.512878,59932,60103,2564,3110,-30120
1614,293191,4.12959,8.81904,-0.870898,95.8667,-25.0873,-126.898,-0.183105,0,0,0.436554,0.193695,-0.713257,-0.512878,59921,60101,2565,3110,-30120
1620,293197,4.11523,8.82383,-0.866113,95.8667,-25.0873,-126.898,-0.12207,0.0610352,0,0.436554,0.193695,-0.713257,-0.512878,59911,60101,2568,3110,-30120
1626,293203,4.1248,8.84297,-0.851758,95.8667,-25.0873,-126.898,-0.0610352,0,0.0610352,0.436554,0.193695,-0.713257,-0.512909,59903,60104,2567,3110,-30120
1632,293209,4.14873,8.81426,-0.885254,95.8667,-25.0928,-126.892,0,-0.0610352,0.183105,0.436554,0.193695,-0.713226,-0.512909,59892,60106,2568,3110,-30120
1638,293215,4.12959,8.84297,-0.851758,95.8612,-25.0928,-126.892,0,-0.0610352,0.183105,0,0,0,0,59884,60106,2571,0,-30120
1992,293569,0,0,0,95.8557,-25.2191,-126.705,1.52588,-1.2207,0.671387,0.43811,0.194122,-0.712982,-0.51178,59833,60105,2565,3110,-30120
1998,293575,4.24922,8.79033,-0.890039,95.8612,-25.2191,-126.711,1.34277,-0.427246,0.366211,0.43808,0.194092,-0.713043,-0.511749,59832,60103,2565,3110,-30120
2286,293863,0,0,0,0,0,0,0,0,0,0.438019,0.194763,-0.715363,-0.50827,0,0,0,3110,0
2292,293869,4.20615,8.87168,-1.02881,96.2402,-25.3949,-126.661,-4.3335,4.15039,0.366211,0.438324,0.194794,-0.715088,-0.508362,59818,60065,2603,3110,-30120
2298,293875,4.21094,8.80947,-0.933105,96.2073,-25.4004,-126.634,-4.94385,4.63867,0.671387,0.438507,0.194824,-0.714935,-0.508453,59818,60063,2605,3110,-30120
2304,293881,4.1583,8.75684,-0.90918,96.1743,-25.4114,-126.606,-4.39453,4.82178,0.671387,0.438721,0.194824,-0.714722,-0.508545,59821,60064,2603,3110,-30120
2310,293887,4.12002,8.73291,-0.861328,96.1469,-25.4169,-126.579,-3.96729,4.57764,0.976563,0.438934,0.194855,-0.714539,-0.508606,59823,60064,2598,3110,-30120
2316,293893,4.10088,8.76641,-0.842188,96.1194,-25.4224,-126.557,-3.72314,4.3335,1.09863,0.439148,0.194855,-0.714386,-0.508636,59825,60064,2596,3110,-30120
2322,293899,4.1248,8.80469,-0.813477,96.0645,-25.4443,-126.508,-3.78418,4.15039,1.52588,0.439545,0.194885,-0.714081,-0.508728,59823,60066,2594,3118,-30121
2328,293905,4.17744,8.76162,-0.866113,96.037,-25.4498,-126.486,-3.60107,3.84521,1.77002,0.439728,0.194855,-0.713928,-0.508759,59823,60068,2593,3118,-30121
2334,293911,4.26357,8.7377,-0.923535,96.015,-25.4608,-126.464,-3.11279,3.72314,1.64795,0.439911,0.194824,-0.713806,-0.50882,59823,60067,2591,3118,-30121
2340,293917,4.2875,8.83818,-0.890039,95.993,-25.4718,-126.442,-3.05176,3.90625,1.64795,0.440094,0.194824,-0.713654,-0.50882,59823,60067,2588,3118,-30121
2346,293923,4.27314,8.84297,-0.904395,95.9656,-25.4828,-126.42,-3.35693,4.15039,1.40381,0.440308,0.194824,-0.713531,-0.50885,59824,60067,2584,3118,-30121
2352,293929,4.26357,8.81904,-0.961816,95.9161,-25.4993,-126.37,-3.05176,4.3335,1.52588,0.440674,0.194824,-0.713257,-0.508911,59830,60068,2576,3118,-30121
2358,293935,4.29229,8.85254,-1.02881,95.8942,-25.5103,-126.348,-3.17383,4.27246,1.34277,0.440887,0.194824,-0.713135,-0.508942,59832,60067,2575,3118,-30121
2364,293941,4.29229,8.94824,-1.10059,95.8667,-25.5157,-126.321,-3.78418,4.45557,1.34277,0.441071,0.194824,-0.712982,-0.508972,59836,60067,2572,3118,-30121
2370,293947,4.32578,8.9291,-1.0623,95.8337,-25.5267,-126.293,-4.69971,5.31006,1.52588,0.441284,0.194824,-0.71283,-0.509003,59839,60068,2568,3118,-30121
2376,293953,4.32578,8.89561,-0.947461,95.7898,-25.5377,-126.26,-5.79834,5.98145,1.28174,0.441528,0.194824,-0.712646,-0.509064,59841,60067,2567,3118,-30121
2382,293959,4.22051,8.74727,-0.870898,95.7019,-25.5542,-126.189,-5.79834,6.5918,1.28174,0.442078,0.194794,-0.712158,-0.509247,59842,60066,2568,3118,-30121
2388,293965,4.14873,8.74727,-0.851758,95.6635,-25.5652,-126.156,-5.24902,6.22559,1.2207,0.442352,0.194794,-0.711945,-0.509338,59845,60066,2567,3118,-30121
2394,293971,4.16787,8.75684,-0.823047,95.625,-25.5762,-126.123,-5.43213,5.61523,1.2207,0.442596,0.194824,-0.7117,-0.509399,59847,60064,2567,3118,-30121
2400,293977,4.16787,8.78555,-0.765625,95.5865,-25.5817,-126.096,-5.49316,5.5542,1.34277,0.442841,0.194794,-0.711487,-0.509491,59851,60062,2564,3118,-30121
2406,293983,4.18701,8.72813,-0.684277,95.5481,-25.5927,-126.068,-5.49316,5.43213,1.58691,0.443085,0.194794,-0.711304,-0.509583,59854,60061,2560,3118,-30121
2412,293989,4.21572,8.67549,-0.813477,95.4822,-25.6201,-126.013,-4.94385,4.82178,1.09863,0.443604,0.194672,-0.710907,-0.509705,59858,60062,2550,3118,-30121
2418,293995,4.25879,8.72813,-0.870898,95.4547,-25.6256,-125.991,-4.08936,4.21143,0.854492,0.443817,0.194672,-0.710724,-0.509796,59859,60060,2545,3118,-30121
2424,294001,4.28271,8.87168,-0.904395,95.4218,-25.6311,-125.975,-4.15039,4.15039,0.732422,0.44397,0.194641,-0.710571,-0.509857,59862,60063,2538,3118,-30121
2430,294007,4.2875,8.93867,-0.890039,95.3888,-25.6366,-125.947,-4.82178,4.63867,0.793457,0.444153,0.194641,-0.710419,-0.509949,59864,60065,2531,3118,-30121
2436,294013,4.30186,8.85732,-0.861328,95.3503,-25.6421,-125.92,-5.98145,5.37109,0.915527,0.444336,0.194641,-0.710236,-0.51004,59867,60064,2524,3118,-30121
2442,294019,4.23965,8.72334,-0.712988,95.2679,-25.6531,-125.859,-5.79834,5.5542,0.610352,0.444824,0.19458,-0.709778,-0.510254,59872,60066,2517,3118,-30121
2448,294025,4.20137,8.71855,-0.732129,95.2295,-25.6586,-125.832,-5.00488,5.12695,0.793457,0.445038,0.19458,-0.709564,-0.510376,59875,60066,2512,3118,-30121
2454,294031,4.18701,8.78555,-0.727344,95.1965,-25.6641,-125.81,-4.88281,4.82178,0.671387,0.445251,0.19458,-0.709351,-0.510468,59875,60066,2511,3118,-30121
2460,294037,4.22051,8.81426,-0.703418,95.1636,-25.6696,-125.788,-4.82178,4.3335,0.671387,0.445435,0.19455,-0.709167,-0.510559,59874,60067,2509,3118,-30121
2466,294043,4.26357,8.75684,-0.77998,95.1306,-25.675,-125.766,-4.63867,3.84521,0.793457,0.445618,0.19455,-0.708984,-0.510681,59874,60068,2508,3118,-30121
2472,294049,4.43584,8.90039,-1.10537,95.0757,-25.686,-125.733,-4.39453,4.08936,0.366211,0.445923,0.194489,-0.708679,-0.510834,59876,60070,2505,3118,-30121
2478,294055,4.3832,9.0583,-0.990527,95.0372,-25.6915,-125.706,-6.04248,5.37109,0.427246,0.446106,0.194458,-0.708527,-0.510925,59878,60069,2505,3118,-30121
2484,294061,4.37842,8.98174,-0.789551,94.9768,-25.697,-125.667,-8.23975,7.20215,0.488281,0.44632,0.194458,-0.708313,-0.511078,59882,60072,2499,3118,-30121
2490,294067,4.29707,8.76641,-0.679492,94.9164,-25.7025,-125.623,-8.78906,8.05664,0.549316,0.446594,0.194427,-0.708008,-0.51123,59885,60073,2491,3118,-30121
2496,294073,4.254,8.64199,-0.655566,94.8615,-25.708,-125.585,-7.99561,7.87354,0.488281,0.44693,0.194427,-0.707672,-0.511444,59886,60073,2484,3118,-30121
2502,294079,4.14395,8.81904,-0.746484,94.7681,-25.7135,-125.519,-6.71387,6.04248,0.427246,0.447479,0.194427,-0.707092,-0.511749,59887,60073,2473,3118,-30121
2508,294085,4.18701,8.86211,-0.717773,94.7186,-25.719,-125.486,-7.26318,5.61523,0.610352,0.447723,0.194397,-0.706818,-0.511871,59887,60073,2468,3118,-30121
2514,294091,4.30186,8.80469,-0.641211,94.6692,-25.7245,-125.458,-8.05664,5.67627,0.671387,0.447968,0.194366,-0.706573,-0.512054,59886,60073,2468,3118,-30121
2520,294097,4.2875,8.74248,-0.617285,94.6143,-25.73,-125.431,-7.87354,6.04248,0.549316,0.448212,0.194305,-0.706299,-0.512238,59886,60071,2467,3118,-30121
2526,294103,4.29229,8.71855,-0.588574,94.5648,-25.7355,-125.398,-7.38525,6.40869,0.305176,0.448456,0.194275,-0.706024,-0.512421,59887,60072,2464,3118,-30121
2532,294109,4.21094,8.78076,-0.60293,94.4769,-25.741,-125.338,-6.40869,5.98145,0.183105,0.448914,0.194214,-0.705505,-0.512726,59892,60075,2459,3118,-30121
2538,294115,4.1583,8.79512,-0.583789,94.433,-25.7465,-125.316,-6.5918,5.06592,0.183105,0.449158,0.194214,-0.705261,-0.512878,59893,60075,2459,3118,-30121
2544,294121,4.21572,8.77119,-0.564648,94.3945,-25.7465,-125.294,-6.28662,4.57764,0.244141,0.449341,0.194153,-0.705017,-0.513031,59894,60075,2455,3118,-30121
2550,294127,4.2875,8.75205,-0.645996,94.3561,-25.752,-125.277,-5.79834,4.15039,0.12207,0.449524,0.194122,-0.704803,-0.513184,59895,60076,2450,3118,-30121
2556,294133,4.33057,8.82383,-0.756055,94.3176,-25.752,-125.255,-5.37109,4.15039,0.0610352,0.449677,0.194061,-0.70462,-0.513336,59895,60076,2444,3118,-30121
2562,294139,4.33057,8.90039,-0.631641,94.2407,-25.7574,-125.217,-6.65283,4.94385,0,0.449982,0.194,-0.704254,-0.513611,59896,60079,2430,3118,-30121
2568,294145,4.28271,8.76162,-0.559863,94.1913,-25.7574,-125.189,-6.95801,5.43213,-0.183105,0.450165,0.19397,-0.70401,-0.513794,59898,60083,2422,3118,-30121
2574,294151,4.24922,8.7042,-0.45459,94.1528,-25.7574,-125.167,-6.46973,5.06592,0,0.450378,0.193939,-0.703766,-0.513977,59900,60083,2418,3118,-30121
2580,294157,4.16787,8.64199,-0.382813,94.1144,-25.7574,-125.145,-5.49316,4.39453,-0.244141,0.450562,0.193909,-0.703522,-0.51413,59903,60084,2414,3118,-30121
2586,294163,4.14395,8.65156,-0.401953,94.0869,-25.7574,-125.134,-4.5166,2.99072,-0.366211,0.450714,0.193878,-0.703339,-0.514282,59906,60086,2411,3118,-30121
2592,294169,4.20137,8.74248,-0.44502,94.043,-25.752,-125.129,-3.54004,1.40381,-0.427246,0.450867,0.193817,-0.703064,-0.514526,59911,60086,2404,3118,-30121
2598,294175,4.21094,8.75205,-0.349316,94.0265,-25.752,-125.123,-3.23486,1.28174,-0.244141,0.450897,0.193756,-0.702972,-0.514648,59913,60085,2400,3118,-30121
2604,294181,4.20615,8.66592,-0.387598,94.01,-25.752,-125.123,-2.74658,0.915527,-0.244141,0.450928,0.193695,-0.702881,-0.514771,59916,60086,2395,3118,-30121
2610,294187,4.21572,8.66592,-0.45459,94.0045,-25.752,-125.129,-1.46484,0.244141,-0.488281,0.450928,0.193634,-0.70282,-0.514862,59917,60088,2387,3118,-30121
2616,294193,4.17266,8.7377,-0.488086,93.999,-25.7465,-125.14,-0.915527,-0.244141,-0.671387,0.450928,0.193573,-0.702789,-0.514923,59917,60090,2381,3118,-30121
2622,294199,4.1918,8.74248,-0.430664,93.9935,-25.741,-125.156,-0.854492,-1.09863,-0.366211,0.450836,0.193481,-0.702789,-0.515076,59915,60096,2368,3118,-30121
2628,294205,4.18223,8.70898,-0.406738,93.9935,-25.741,-125.173,-0.12207,-1.34277,-0.183105,0.450775,0.19342,-0.702789,-0.515137,59916,60100,2364,3118,-30121
2634,294211,4.18701,8.72334,-0.411523,94.0045,-25.741,-125.184,0.549316,-1.64795,-0.12207,0.450714,0.193359,-0.70282,-0.515167,59916,60100,2363,3118,-30121
2640,294217,4.16309,8.75205,-0.468945,94.01,-25.7355,-125.2,1.15967,-2.0752,-0.12207,0.450623,0.193298,-0.702881,-0.515198,59916,60100,2363,3118,-30121
2646,294223,4.24443,8.79033,-0.564648,94.0265,-25.7355,-125.222,1.58691,-2.38037,-0.244141,0.450531,0.193237,-0.702942,-0.515198,59918,60101,2362,3110,-30120
2652,294229,4.32578,8.82383,-0.62207,94.0485,-25.7355,-125.261,1.58691,-2.19727,-0.12207,0.450287,0.193146,-0.703125,-0.515198,59921,60101,2356,3110,-30120
2658,294235,4.30664,8.85254,-0.593359,94.0594,-25.73,-125.272,1.2207,-1.70898,-0.0610352,0.450195,0.193085,-0.703217,-0.515198,59920,60101,2355,3110,-30120
2664,294241,4.30186,8.81904,-0.617285,94.0649,-25.73,-125.283,0.915527,-0.915527,0.0610352,0.450104,0.193054,-0.703278,-0.515198,59920,60102,2352,3110,-30120
2670,294247,4.24443,8.81426,-0.598145,94.0704,-25.73,-125.294,0.732422,-0.915527,0.0610352,0.450043,0.192993,-0.703308,-0.515228,59921,60103,2349,3110,-30120
2676,294253,4.20615,8.80469,-0.521582,94.0759,-25.73,-125.305,0.854492,-0.793457,0.12207,0.449982,0.192963,-0.703369,-0.515228,59919,60102,2351,3110,-30120
2682,294259,4.23008,8.71855,-0.521582,94.0924,-25.7355,-125.327,1.64795,-1.46484,0.427246,0.44989,0.192871,-0.703461,-0.515228,59914,60099,2354,3110,-30120
2688,294265,4.22051,8.76162,-0.516797,94.1089,-25.7355,-125.343,2.13623,-1.89209,0.305176,0.449799,0.192841,-0.703522,-0.515198,59912,60100,2354,3110,-30120
2694,294271,4.25879,8.81904,-0.564648,94.1254,-25.7355,-125.359,2.44141,-1.95313,0.244141,0.449707,0.19278,-0.703613,-0.515167,59909,60099,2354,3110,-30120
2700,294277,4.29229,8.85732,-0.665137,94.1418,-25.7355,-125.376,2.56348,-2.01416,0.366211,0.449615,0.192749,-0.703705,-0.515137,59908,60098,2357,3110,-30120
2706,294283,4.30664,8.85254,-0.679492,94.1583,-25.7355,-125.392,2.19727,-1.95313,0.244141,0.449524,0.192719,-0.703827,-0.515106,59908,60099,2359,3110,-30120
2712,294289,4.321,8.85732,-0.655566,94.1803,-25.741,-125.414,1.46484,-1.28174,0.183105,0.449341,0.192627,-0.703979,-0.515045,59910,60101,2364,3110,-30120
2718,294295,4.29229,8.84297,-0.6125,94.1858,-25.741,-125.425,1.40381,-0.854492,0.244141,0.44928,0.192596,-0.704041,-0.515015,59909,60104,2363,3110,-30120
2724,294301,4.26357,8.80469,-0.636426,94.1968,-25.741,-125.436,1.40381,-0.732422,0.366211,0.449219,0.192566,-0.704102,-0.515015,59909,60107,2361,3110,-30120
2730,294307,4.24922,8.7999,-0.62207,94.2023,-25.741,-125.442,1.52588,-0.915527,0.183105,0.449188,0.192535,-0.704163,-0.514984,59911,60109,2361,3110,-30120
2736,294313,4.254,8.82383,-0.60293,94.2133,-25.741,-125.453,1.52588,-0.976563,0.244141,0.449127,0.192505,-0.704224,-0.514954,59910,60108,2360,3110,-30120
2742,294319,4.27314,8.81426,-0.674707,94.2297,-25.741,-125.475,1.64795,-1.2207,0.183105,0.449005,0.192444,-0.704346,-0.514923,59909,60103,2367,3110,-30120
2748,294325,4.27793,8.81426,-0.698633,94.2407,-25.741,-125.486,1.40381,-1.09863,0.12207,0.448944,0.192413,-0.704407,-0.514893,59909,60103,2370,3110,-30120
2754,294331,4.29707,8.83818,-0.641211,94.2462,-25.7465,-125.497,1.09863,-0.854492,0.12207,0.448883,0.192383,-0.704468,-0.514893,59909,60102,2376,3118,-30121
2760,294337,4.29707,8.8334,-0.674707,94.2517,-25.7465,-125.502,1.0376,-0.610352,0.12207,0.448822,0.192322,-0.704498,-0.514893,59909,60100,2382,3118,-30121
2766,294343,4.29707,8.82383,-0.712988,94.2572,-25.7465,-125.513,1.0376,-0.610352,0.183105,0.448792,0.192291,-0.704559,-0.514893,59911,60099,2386,3118,-30121
2772,294349,4.34014,8.88125,-0.775195,94.2682,-25.7465,-125.53,0.732422,-0.549316,0.183105,0.4487,0.19223,-0.70462,-0.514862,59912,60098,2386,3118,-30121
2778,294355,4.35928,8.91953,-0.803906,94.2682,-25.7465,-125.535,0.244141,0.183105,0.183105,0.448669,0.1922,-0.704651,-0.514862,59910,60097,2386,3118,-30121
2784,294361,4.34492,8.90996,-0.75127,94.2682,-25.7465,-125.535,-0.488281,0.732422,0,0.448639,0.192169,-0.704681,-0.514893,59908,60098,2383,3118,-30121
2790,294367,4.29229,8.87646,-0.636426,94.2572,-25.752,-125.53,-1.2207,1.52588,0.12207,0.448669,0.192139,-0.704651,-0.514893,59906,60099,2382,3118,-30121
2796,294373,4.20615,8.7999,-0.492871,94.2462,-25.752,-125.524,-1.40381,1.77002,0.244141,0.4487,0.192139,-0.70462,-0.514954,59904,60098,2380,3118,-30121
2802,294379,4.13438,8.68984,-0.44502,94.2407,-25.752,-125.524,0.366211,0.183105,0,0.448792,0.192078,-0.704529,-0.515015,59903,60095,2376,3118,-30121
2808,294385,4.1583,8.72813,-0.47373,94.2462,-25.7574,-125.535,1.09863,-0.610352,0.427246,0.448761,0.192078,-0.704529,-0.515015,59904,60094,2372,3118,-30121
2814,294391,4.22529,8.79512,-0.512012,94.2572,-25.7574,-125.546,1.70898,-1.40381,0.305176,0.44873,0.192047,-0.704559,-0.515015,59903,60091,2374,3118,-30121
2820,294397,4.26836,8.82383,-0.583789,94.2682,-25.7574,-125.557,1.89209,-1.58691,0.305176,0.448669,0.191986,-0.704651,-0.514984,59902,60088,2375,3118,-30121
2826,294403,4.321,8.8334,-0.641211,94.2847,-25.7574,-125.574,2.01416,-1.70898,0,0.448578,0.191956,-0.704712,-0.514954,59901,60087,2376,3118,-30121
2832,294409,4.29707,8.83818,-0.645996,94.3066,-25.752,-125.596,1.58691,-1.28174,-0.12207,0.448425,0.191895,-0.704895,-0.514893,59899,60085,2379,3118,-30121
2838,294415,4.24922,8.83818,-0.598145,94.3121,-25.752,-125.607,1.52588,-1.28174,0,0.448334,0.191895,-0.704956,-0.514893,59897,60084,2382,3118,-30121
2844,294421,4.23965,8.75684,-0.535937,94.3286,-25.752,-125.623,1.77002,-1.64795,-0.12207,0.448273,0.191864,-0.705017,-0.514862,59898,60085,2384,3118,-30121
2850,294427,4.26357,8.74727,-0.626855,94.3451,-25.752,-125.64,2.50244,-2.13623,-0.366211,0.448181,0.191803,-0.705078,-0.514862,59899,60086,2384,3118,-30121
2856,294433,4.26836,8.80469,-0.645996,94.3616,-25.7465,-125.656,2.80762,-2.2583,-0.366211,0.448059,0.191803,-0.70517,-0.514832,59898,60087,2383,3118,-30121
2862,294439,4.26836,8.88125,-0.583789,94.389,-25.741,-125.684,2.0752,-1.95313,-0.366211,0.447845,0.191772,-0.705383,-0.514771,59896,60090,2379,3118,-30121
2868,294445,4.26357,8.77598,-0.588574,94.4055,-25.741,-125.7,2.2583,-2.31934,-0.488281,0.447754,0.191742,-0.705475,-0.51474,59897,60092,2377,3118,-30121
2874,294451,4.254,8.78076,-0.607715,94.422,-25.7355,-125.717,2.86865,-2.31934,-0.549316,0.447632,0.191711,-0.705566,-0.51474,59897,60092,2378,3118,-30121
2880,294457,4.26357,8.79033,-0.689063,94.444,-25.73,-125.739,3.2959,-2.86865,-0.732422,0.44751,0.191711,-0.705658,-0.514709,59896,60093,2381,3118,-30121
2886,294463,4.27314,8.86689,-0.708203,94.4714,-25.7245,-125.76,3.41797,-2.99072,-0.671387,0.447357,0.191711,-0.70578,-0.514648,59895,60094,2384,3118,-30121
2892,294469,4.27793,8.95781,-0.823047,94.5099,-25.7135,-125.799,2.50244,-3.05176,-0.793457,0.447052,0.191681,-0.706024,-0.514587,59895,60093,2380,3118,-30121
2898,294475,4.33535,8.87168,-0.712988,94.5264,-25.7135,-125.815,2.13623,-2.80762,-0.793457,0.446899,0.191681,-0.706146,-0.514557,59896,60090,2381,3118,-30121
2904,294481,4.27314,8.8334,-0.598145,94.5428,-25.708,-125.832,2.44141,-2.68555,-0.793457,0.446777,0.19165,-0.706238,-0.514557,59900,60089,2380,3118,-30121
2910,294487,4.2875,8.7999,-0.60293,94.5648,-25.7025,-125.854,3.17383,-3.05176,-0.976563,0.446655,0.19165,-0.706329,-0.514526,59903,60089,2381,3118,-30121
2916,294493,4.26836,8.81426,-0.645996,94.5923,-25.6915,-125.87,3.84521,-3.41797,-1.15967,0.446503,0.19165,-0.706451,-0.514496,59905,60090,2383,3118,-30121
2922,294499,4.33057,8.90518,-0.880469,94.6582,-25.675,-125.925,5.00488,-4.57764,-1.52588,0.446106,0.19165,-0.706787,-0.514404,59909,60092,2387,3118,-30121
2928,294505,4.44063,9.01523,-1.07187,94.6912,-25.6641,-125.953,5.06592,-4.69971,-2.13623,0.445892,0.191681,-0.70697,-0.514313,59913,60092,2385,3118,-30121
2934,294511,4.39756,9.13486,-1.17715,94.7186,-25.6531,-125.975,3.66211,-3.60107,-1.95313,0.445648,0.191711,-0.707153,-0.514252,59914,60089,2386,3118,-30121
2940,294517,4.41191,9.221,-1.07666,94.7296,-25.6421,-125.986,1.40381,-2.31934,-2.01416,0.445435,0.191742,-0.707306,-0.514221,59913,60086,2387,3118,-30121
2946,294523,4.34971,9.07266,-1.10059,94.7296,-25.6366,-125.991,-0.549316,-0.793457,-1.64795,0.445313,0.191772,-0.707367,-0.514252,59912,60085,2386,3118,-30121
2952,294529,4.33535,8.93867,-1.04795,94.7131,-25.6201,-125.991,-1.70898,0.610352,-1.46484,0.445221,0.191803,-0.707306,-0.514374,59909,60084,2388,3118,-30121
2958,294535,4.31621,8.95303,-1.02881,94.6967,-25.6146,-125.98,-2.38037,1.28174,-1.58691,0.445221,0.191833,-0.707245,-0.514435,59901,60084,2397,3118,-30121
2964,294541,4.32578,8.98174,-0.942676,94.6747,-25.6091,-125.969,-3.479,2.19727,-1.09863,0.445251,0.191864,-0.707153,-0.514526,59898,60087,2402,3118,-30121
2970,294547,4.31143,8.94346,-0.880469,94.6472,-25.6036,-125.947,-4.76074,3.35693,-1.0376,0.445313,0.191895,-0.707031,-0.514648,59898,60090,2405,3118,-30121
2976,294553,4.23965,8.84775,-0.756055,94.6088,-25.6036,-125.925,-5.18799,4.76074,-0.915527,0.445435,0.191895,-0.706848,-0.514771,59897,60092,2406,3118,-30121
2982,294559,4.13916,8.75205,-0.593359,94.5319,-25.6036,-125.859,-5.5542,5.98145,-0.305176,0.445801,0.191986,-0.706421,-0.515015,59897,60091,2407,3118,-30121
2988,294565,4.10088,8.72334,-0.535937,94.4879,-25.6091,-125.826,-5.31006,6.34766,0.0610352,0.446045,0.192017,-0.706177,-0.515137,59900,60094,2405,3118,-30121
2994,294571,4.10088,8.71855,-0.430664,94.4495,-25.6091,-125.793,-5.00488,6.28662,0.366211,0.446259,0.192047,-0.705963,-0.515228,59902,60094,2405,3118,-30121
3000,294577,4.05781,8.66113,-0.406738,94.4165,-25.6146,-125.76,-4.39453,5.7373,0.549316,0.446503,0.192078,-0.705719,-0.51532,59902,60094,2404,3118,-30121
3006,294583,4.09131,8.62764,-0.378027,94.389,-25.6201,-125.739,-3.11279,4.76074,0.671387,0.446716,0.192108,-0.705536,-0.515411,59903,60095,2405,3118,-30121
3012,294589,4.21094,8.69463,-0.6125,94.3671,-25.6311,-125.717,-0.366211,1.95313,0.488281,0.447021,0.192139,-0.705292,-0.515472,59904,60095,2406,3118,-30121
3018,294595,4.321,8.81904,-0.756055,94.3671,-25.6311,-125.711,0.244141,1.2207,0.427246,0.447083,0.192139,-0.705261,-0.515472,59906,60093,2411,3118,-30121
3024,294601,4.36406,8.98174,-0.789551,94.3616,-25.6366,-125.706,-0.12207,1.95313,0.549316,0.447113,0.192139,-0.705261,-0.515442,59907,60093,2414,3118,-30121
3030,294607,4.36406,9.07266,-0.722559,94.3506,-25.6421,-125.689,-1.09863,3.479,0.671387,0.447174,0.192139,-0.705231,-0.515411,59907,60096,2410,3118,-30121
3036,294613,4.28271,8.95781,-0.650781,94.3286,-25.6476,-125.662,-2.19727,5.06592,1.15967,0.447296,0.192169,-0.705139,-0.515411,59906,60096,2410,3118,-30121
3042,294619,4.11523,8.76162,-0.512012,94.2902,-25.6696,-125.601,-0.12207,6.5918,2.2583,0.447693,0.19223,-0.704865,-0.515411,59904,60095,2410,3118,-30121
3048,294625,4.04346,8.85254,-0.330176,94.2792,-25.686,-125.568,1.09863,6.71387,2.68555,0.447937,0.192291,-0.704773,-0.51535,59903,60097,2410,3118,-30121
3054,294631,3.96689,8.87646,-0.277539,94.2792,-25.7025,-125.541,1.95313,5.67627,3.23486,0.448181,0.192352,-0.704681,-0.515198,59903,60096,2411,3118,-30121
3060,294637,3.98604,8.72334,-0.330176,94.2792,-25.7245,-125.524,3.05176,4.21143,3.60107,0.448364,0.192383,-0.704651,-0.515045,59903,60094,2414,3118,-30121
3066,294643,4.04824,8.63242,-0.655566,94.3066,-25.741,-125.524,5.18799,1.58691,3.84521,0.448547,0.192413,-0.704681,-0.514893,59904,60092,2413,3118,-30121
3072,294649,4.52676,9.03438,-1.06709,94.3726,-25.7739,-125.535,6.53076,0,3.479,0.448608,0.192413,-0.704987,-0.514404,59906,60091,2304,3118,-30121
3078,294655,4.65117,9.18272,-1.23936,94.3945,-25.7904,-125.53,4.45557,1.15967,3.2959,0.448608,0.192444,-0.70517,-0.51416,59908,60088,2399,3118,-30121
3084,294661,4.70859,9.14922,-1.14365,94.389,-25.8069,-125.513,1.40381,3.84521,3.60107,0.448669,0.192444,-0.705261,-0.513947,59910,60086,2395,3118,-30121
3090,294667,4.70381,8.99609,-1.14844,94.3726,-25.8289,-125.48,-0.610352,6.83594,3.479,0.448822,0.192413,-0.705261,-0.513824,59914,60087,2393,3118,-30121
3096,294673,4.56982,8.86689,-1.04795,94.3451,-25.8453,-125.431,-1.46484,9.09424,3.479,0.449097,0.192444,-0.70517,-0.513702,59916,60087,2391,3118,-30121
3102,294679,4.254,8.89561,-0.698633,94.2847,-25.8948,-125.316,-1.2207,12.3901,4.08936,0.44986,0.192627,-0.704803,-0.513458,59916,60086,2390,3118,-30121
3108,294685,4.19658,8.86211,-0.46416,94.2517,-25.9222,-125.25,-1.40381,12.085,4.76074,0.450348,0.192749,-0.70459,-0.513336,59919,60088,2380,3118,-30121
3114,294691,4.22529,8.6085,-0.550293,94.2133,-25.9497,-125.195,-2.62451,11.2915,4.57764,0.450806,0.192841,-0.704376,-0.513184,59921,60086,2377,3118,-30121
3120,294697,4.254,8.39316,-0.468945,94.1858,-25.9717,-125.145,-1.89209,9.52148,4.3335,0.451263,0.192871,-0.704132,-0.513062,59923,60084,2377,3118,-30121
3126,294703,4.25879,8.43145,-0.220117,94.1638,-25.9991,-125.101,-0.0610352,9.0332,4.45557,0.45163,0.192902,-0.703949,-0.51297,59927,60082,2378,3118,-30121
3132,294709,4.14395,8.59414,-0.0334961,94.1364,-26.0376,-125.03,1.70898,8.11768,3.72314,0.452301,0.192993,-0.703705,-0.512695,59930,60082,2375,3118,-30121
3138,294715,3.96689,8.50322,-0.129199,94.1309,-26.0596,-124.997,2.2583,6.71387,3.66211,0.452576,0.193054,-0.703613,-0.512543,59933,60079,2367,3118,-30121
3144,294721,3.99082,8.49365,-0.00478516,94.1364,-26.0815,-124.98,3.35693,4.63867,3.72314,0.45282,0.193085,-0.703583,-0.51236,59935,60078,2362,3118,-30121
3150,294727,3.98604,8.36924,-0.153125,94.1528,-26.098,-124.98,4.02832,1.95313,3.479,0.452972,0.193115,-0.703613,-0.512207,59937,60079,2357,3118,-30121
3156,294733,4.06738,8.35488,-0.110059,94.1748,-26.109,-124.986,4.94385,0.366211,3.11279,0.453033,0.193085,-0.703705,-0.512024,59938,60077,2353,3118,-30121
3162,294739,4.17744,8.50801,-0.119629,94.2517,-26.1475,-125.008,8.72803,0,3.60107,0.453003,0.192993,-0.70401,-0.511627,59938,60075,2351,3118,-30121
3168,294745,4.16787,8.6707,-0.220117,94.2957,-26.1639,-125.019,9.76563,0.244141,3.84521,0.452972,0.192993,-0.704254,-0.511353,59943,60075,2342,3118,-30121
3174,294751,4.08652,8.7377,-0.363672,94.3396,-26.1804,-125.03,9.27734,-0.12207,3.96729,0.452942,0.193024,-0.704498,-0.511017,59945,60073,2338,3118,-30121
3180,294757,4.06738,8.71377,-0.45459,94.3781,-26.2024,-125.052,7.93457,-1.40381,4.15039,0.452911,0.193024,-0.704742,-0.510712,59946,60071,2338,3118,-30121
3186,294763,4.22051,8.575,-0.416309,94.422,-26.2189,-125.074,7.87354,-2.38037,4.08936,0.45285,0.192963,-0.704956,-0.510468,59948,60069,2337,3118,-30121
3192,294769,4.35928,8.58936,-0.416309,94.5099,-26.2463,-125.123,8.91113,-2.68555,3.05176,0.452667,0.19278,-0.705475,-0.51001,59950,60064,2337,3118,-30121
3198,294775,4.35449,8.73291,-0.60293,94.5593,-26.2573,-125.151,8.72803,-2.99072,2.50244,0.452515,0.192749,-0.70575,-0.509766,59950,60051,2339,3118,-30121
3204,294781,4.22529,8.7999,-0.60293,94.6033,-26.2683,-125.184,8.42285,-3.23486,2.50244,0.452362,0.192719,-0.706024,-0.509552,59949,60048,2340,3118,-30121
3210,294787,4.21572,8.86211,-0.717773,94.6527,-26.2793,-125.211,7.93457,-3.72314,2.86865,0.452209,0.192657,-0.706299,-0.509338,59951,60048,2345,3118,-30121
3216,294793,4.2875,8.83818,-0.775195,94.6912,-26.2903,-125.25,6.34766,-4.3335,3.05176,0.452057,0.192566,-0.706573,-0.509125,59952,60048,2347,3118,-30121
3222,294799,4.5459,8.52715,-0.823047,94.7571,-26.3068,-125.327,4.63867,-5.31006,1.95313,0.451721,0.192291,-0.707031,-0.508881,59952,60047,2352,3118,-30121
3228,294805,4.57461,8.59414,-0.712988,94.79,-26.3123,-125.359,5.92041,-4.08936,1.77002,0.451538,0.192139,-0.707245,-0.50882,59957,60044,2351,3110,-30120
3234,294811,4.45977,8.85254,-0.669922,94.8285,-26.3177,-125.376,6.7749,-1.89209,1.70898,0.451355,0.192047,-0.707489,-0.508698,59958,60042,2348,3110,-30120
3240,294817,4.35449,8.94346,-0.75127,94.856,-26.3287,-125.392,6.04248,-0.671387,1.89209,0.451233,0.192017,-0.707672,-0.508514,59958,60038,2347,3110,-30120
3246,294823,4.27793,8.87646,-0.942676,94.8779,-26.3397,-125.403,4.08936,-1.0376,2.01416,0.451172,0.191986,-0.707825,-0.508362,59961,60035,2344,3110,-30120
3252,294829,4.42627,8.66592,-0.899609,94.9164,-26.3507,-125.453,3.23486,-3.17383,1.95313,0.451019,0.191833,-0.708099,-0.508209,59963,60032,2344,3110,-30120
3258,294835,4.57461,8.72813,-0.756055,94.9384,-26.3617,-125.475,3.41797,-2.62451,1.95313,0.450897,0.191711,-0.708252,-0.508148,59963,60022,2354,3110,-30120
3264,294841,4.64639,8.77598,-0.684277,94.9548,-26.3672,-125.491,2.99072,-1.09863,1.52588,0.450806,0.191589,-0.708405,-0.508057,59963,60018,2357,3110,-30120
3270,294847,4.56025,8.77598,-0.823047,94.9603,-26.3727,-125.497,2.19727,0.732422,1.2207,0.450745,0.191528,-0.708496,-0.507996,59964,60018,2359,3110,-30120
3276,294853,4.4502,8.79033,-0.899609,94.9658,-26.3782,-125.497,1.64795,1.46484,0.976563,0.450745,0.191498,-0.708557,-0.507935,59966,60017,2361,3110,-30120
3282,294859,4.4167,8.82383,-0.990527,94.9658,-26.3892,-125.502,0.793457,0.793457,1.0376,0.450775,0.191406,-0.708588,-0.507874,59967,60015,2365,3110,-30120
3288,294865,4.47891,8.82861,-1.06709,94.9658,-26.3947,-125.508,0.366211,0.915527,1.09863,0.450806,0.191345,-0.708588,-0.507874,59973,60016,2369,3110,-30120
3294,294871,4.57461,8.86689,-1.11016,94.9603,-26.4001,-125.508,-0.12207,1.09863,0.854492,0.450806,0.191315,-0.708618,-0.507874,59972,60014,2371,3110,-30120
3300,294877,4.65596,8.85732,-1.24414,94.9493,-26.4056,-125.508,-0.732422,1.83105,0.549316,0.450836,0.191254,-0.708588,-0.507874,59968,60011,2372,3110,-30120
3306,294883,4.65117,8.90996,-1.18193,94.9329,-26.4056,-125.497,-2.2583,3.05176,0.183105,0.450867,0.191223,-0.708557,-0.507904,59966,60010,2369,3110,-30120
3312,294889,4.37363,8.87168,-0.579004,94.9054,-26.4111,-125.475,-3.90625,4.57764,0.0610352,0.451111,0.191162,-0.708313,-0.508087,59964,60009,2368,3110,-30120
3318,294895,4.23486,8.65635,-0.550293,94.8285,-26.4166,-125.431,-4.39453,4.82178,0,0.451294,0.191162,-0.708099,-0.508209,59960,60005,2369,3110,-30120
3324,294901,4.22529,8.51758,-0.736914,94.812,-26.4166,-125.425,-2.80762,2.56348,0.0610352,0.451447,0.191132,-0.707916,-0.508331,59961,60004,2370,3110,-30120
3330,294907,4.43105,8.56543,-0.995313,94.8065,-26.4166,-125.431,-1.09863,0.549316,-0.244141,0.451538,0.191071,-0.707825,-0.508423,59963,60005,2368,3110,-30120
3336,294913,4.66553,8.80469,-1.0001,94.801,-26.4166,-125.431,-0.915527,0.549316,-0.305176,0.451508,0.19104,-0.707794,-0.508484,59963,60002,2368,3110,-30120
3342,294919,4.68945,9.04873,-0.875684,94.7845,-26.4166,-125.425,-2.2583,2.38037,-0.366211,0.451508,0.19101,-0.707764,-0.508514,59963,60000,2364,3110,-30120
3348,294925,4.20615,8.83818,-0.631641,94.7131,-26.4166,-125.381,-4.88281,5.24902,-0.366211,0.451691,0.190979,-0.70752,-0.508728,59963,60000,2358,3118,-30121
3354,294931,4.09609,8.575,-0.512012,94.6857,-26.4166,-125.37,-4.76074,3.66211,0.183105,0.451874,0.190979,-0.707306,-0.50885,59960,60000,2346,3118,-30121
3360,294937,4.23965,8.45059,-0.45459,94.6637,-26.4221,-125.365,-3.35693,1.70898,0.671387,0.451996,0.190918,-0.707153,-0.508972,59959,60038,2344,3118,-30121
3366,294943,4.2875,8.49365,-0.512012,94.6582,-26.4221,-125.37,-1.40381,0,-0.610352,0.452057,0.190826,-0.707062,-0.509064,59960,60033,2342,3118,-30121
3372,294949,4.44063,8.7377,-0.75127,94.6582,-26.4166,-125.381,-0.183105,-0.366211,-0.732422,0.452026,0.190796,-0.707031,-0.509155,59962,60028,2340,3118,-30121
3378,294955,4.49326,9.08223,-0.985742,94.6527,-26.4111,-125.387,-2.0752,0.793457,-0.854492,0.451935,0.190735,-0.707031,-0.509247,59963,60064,2342,3118,-30121
3384,294961,4.46455,8.96738,-0.933105,94.6198,-26.4056,-125.381,-3.479,1.89209,-0.610352,0.451935,0.190735,-0.707001,-0.509338,59964,60049,2343,3118,-30121
3390,294967,4.41191,8.79512,-0.689063,94.5978,-26.4056,-125.37,-4.08936,2.62451,-0.427246,0.451996,0.190674,-0.706879,-0.50946,59964,60048,2344,3118,-30121
3396,294973,4.35928,8.63242,-0.535937,94.5758,-26.4056,-125.365,-3.23486,2.50244,-0.549316,0.452087,0.190643,-0.706757,-0.509583,59963,60044,2344,3118,-30121
3402,294979,4.34014,8.56065,-0.535937,94.5593,-26.4001,-125.359,-1.89209,1.83105,-0.732422,0.452148,0.190613,-0.706635,-0.509674,59961,60041,2346,3118,-30121
3408,294985,4.3832,8.82861,-0.75127,94.5538,-26.4001,-125.359,-0.732422,0.976563,-0.854492,0.452148,0.190613,-0.706543,-0.509796,59961,60040,2350,3118,-30121
3414,294991,4.39756,8.94346,-0.789551,94.5483,-26.3892,-125.365,-1.0376,0.610352,-0.976563,0.452118,0.190613,-0.706543,-0.509857,59961,60037,2351,3118,-30121
3420,294997,4.40713,8.9291,-0.756055,94.5319,-26.3837,-125.365,-2.38037,0.732422,-1.0376,0.452118,0.190582,-0.706512,-0.509918,59961,60032,2353,3118,-30121
3426,295003,4.37842,8.76162,-0.674707,94.5154,-26.3782,-125.37,-2.99072,0.732422,-1.28174,0.452087,0.190552,-0.706451,-0.51001,59961,60028,2351,3118,-30121
3432,295009,4.32578,8.66113,-0.526367,94.5044,-26.3727,-125.37,-2.31934,0.244141,-1.58691,0.452087,0.190521,-0.70636,-0.510162,59961,60026,2352,3118,-30121
3438,295015,4.26836,8.66592,-0.46416,94.5044,-26.3617,-125.381,-1.15967,-0.549316,-1.64795,0.451965,0.19046,-0.706299,-0.510376,59961,60023,2351,3118,-30121
3444,295021,4.22051,8.78555,-0.540723,94.5154,-26.3397,-125.42,0.793457,-3.17383,-1.89209,0.451843,0.19043,-0.706329,-0.510437,59960,60020,2351,3118,-30121
3450,295027,4.20137,8.82861,-0.535937,94.5319,-26.3287,-125.453,1.28174,-4.39453,-1.77002,0.45166,0.190399,-0.706421,-0.510529,59963,60021,2350,3118,-30121
3456,295033,4.23486,8.76162,-0.425879,94.5538,-26.3232,-125.486,1.64795,-5.18799,-1.70898,0.451447,0.190338,-0.706512,-0.51059,59962,60019,2350,3118,-30121
3462,295039,4.27314,8.67549,-0.330176,94.5813,-26.3123,-125.524,2.68555,-5.49316,-1.83105,0.451202,0.190247,-0.706665,-0.51062,59962,60018,2349,3118,-30121
3468,295045,4.21572,8.59414,-0.311035,94.6143,-26.2958,-125.563,4.3335,-6.10352,-2.01416,0.450958,0.190186,-0.706818,-0.510651,59963,60019,2346,3110,-30120
3474,295051,4.32578,8.58457,-0.636426,94.7186,-26.2628,-125.673,7.56836,-9.46045,-3.11279,0.450287,0.190125,-0.707275,-0.51062,59964,60020,2344,3110,-30120
3480,295057,4.48848,8.69941,-0.90918,94.79,-26.2408,-125.733,8.97217,-10.6201,-3.54004,0.449829,0.190094,-0.707611,-0.510559,59961,60019,2341,3110,-30120
3486,295063,4.62246,8.84297,-1.07666,94.8615,-26.2189,-125.804,9.21631,-11.5356,-4.15039,0.449341,0.190094,-0.708008,-0.510468,59959,60018,2342,3110,-30120
3492,295069,4.70381,8.92432,-1.25371,94.9329,-26.1914,-125.87,8.66699,-11.7798,-4.69971,0.448792,0.190094,-0.708405,-0.510406,59958,60019,2343,3110,-30120
3498,295075,4.7373,9.01523,-1.30635,94.9933,-26.1584,-125.936,7.75146,-11.3525,-5.00488,0.448212,0.190125,-0.708771,-0.510345,59956,60018,2348,3110,-30120
3504,295081,4.84736,9.15879,-1.25371,95.0372,-26.1365,-125.991,3.72314,-9.27734,-4.45557,0.447266,0.190094,-0.709381,-0.510376,59953,60017,2352,3110,-30120
3510,295087,4.61768,9.16836,-1.43076,95.1086,-26.087,-126.09,1.70898,-8.48389,-4.08936,0.446808,0.190094,-0.709625,-0.510437,59949,60021,2358,3110,-30120
3516,295093,4.64639,9.15879,-1.55039,95.1306,-26.0596,-126.145,0.366211,-9.27734,-4.45557,0.446442,0.190033,-0.709808,-0.510529,59944,60019,2364,3110,-30120
3522,295099,4.88564,9.45068,-1.86621,95.1636,-26.0376,-126.205,0.366211,-11.2305,-4.45557,0.446045,0.189972,-0.709961,-0.510681,59941,60018,2372,3110,-30120
3528,295105,5.05791,10.3886,-2.33994,95.1965,-26.0046,-126.266,0.610352,-12.2681,-5.85938,0.445587,0.18985,-0.710175,-0.510834,59942,60017,2379,3110,-30120
3534,295111,4.71338,10.7714,-3.33047,95.191,-25.9607,-126.326,-7.62939,-12.207,-7.69043,0.445099,0.189789,-0.710388,-0.510986,59943,60017,2384,3110,-30120
3540,295117,5.0292,10.4029,-2.9668,95.0098,-25.8838,-126.403,-28.8696,-7.26318,-6.71387,0.444305,0.189331,-0.710175,-0.512146,59943,60016,2398,3110,-30120
3546,295123,5.0627,9.69473,-2.58877,94.8505,-25.8508,-126.414,-36.8652,-4.94385,-6.5918,0.444214,0.188904,-0.709625,-0.513123,59942,60018,2402,3110,-30120
3552,295129,5.04834,8.95303,-1.871,94.6582,-25.8234,-126.409,-41.4429,-1.52588,-5.61523,0.444244,0.188416,-0.708862,-0.514313,59940,60023,2402,3110,-30120
3558,295135,5.24453,8.4793,-1.42119,94.455,-25.8014,-126.392,-42.5415,0.0610352,-5.06592,0.444458,0.187866,-0.707977,-0.515594,59935,60026,2401,3110,-30120
3564,295141,5.53164,8.21133,-0.75127,94.2517,-25.7794,-126.381,-43.6401,-0.0610352,-4.88281,0.444733,0.187286,-0.707001,-0.516876,59931,60030,2400,3110,-30120
3570,295147,7.52227,5.54121,0.363672,93.8892,-25.752,-126.683,-56.4575,-37.1704,-0.0610352,0.444733,0.185516,-0.705322,-0.519775,59930,60034,2400,3110,-30120
3576,295153,10.1589,4.39756,2.00977,93.7683,-25.7629,-127.013,-52.6733,-55.7861,3.84521,0.444061,0.183594,-0.704834,-0.521729,59928,60047,2396,3110,-30120
3582,295159,10.8862,3.01943,0.837402,93.7189,-25.7739,-127.343,-37.1704,-54.8706,0.732422,0.442871,0.18103,-0.704834,-0.523651,59926,60053,2399,3110,-30120
3588,295165,10.9963,1.80879,-1.89014,93.7189,-25.7959,-127.634,-23.3765,-44.7388,2.0752,0.441437,0.178741,-0.705139,-0.525208,59923,60061,2400,3110,-30120
3594,295171,10.4269,1.96191,-1.78486,93.7958,-25.8344,-127.886,-2.19727,-34.4849,2.0752,0.440247,0.176788,-0.705627,-0.526245,59921,60068,2402,3110,-30120
3600,295177,10.9389,5.45986,-2.27295,94.0265,-25.8453,-128.172,48.7671,-51.5137,-7.75146,0.437531,0.174377,-0.707916,-0.526215,59918,60072,2304,3110,-30120
3606,295183,12.1304,7.16816,-4.34492,94.7626,-25.8234,-128.958,48.1567,-56.8848,-7.69043,0.435211,0.173523,-0.710144,-0.525421,59909,60079,2418,3110,-30120
3612,295189,25.8829,15.9154,-10.8527,95.0098,-25.8453,-129.348,27.3438,-47.1802,-2.50244,0.432709,0.172455,-0.712463,-0.524689,59906,60082,2424,3110,-30120
3618,295195,26.4236,15.8819,-9.88135,95.0702,-25.9277,-129.666,0.183105,-28.8086,6.04248,0.430695,0.170837,-0.714172,-0.524536,59900,60084,2433,3110,-30120
3624,295201,12.5323,6.89541,-3.55537,94.9878,-26.0486,-129.93,-20.5078,-14.7705,12.7563,0.429535,0.168579,-0.715027,-0.525085,59894,60083,2445,3110,-30120
3630,295207,10.4173,3.89512,-2.36865,94.834,-26.1859,-130.182,-32.4707,-10.0708,15.3809,0.428833,0.162994,-0.714966,-0.527466,59887,60082,2456,3110,-30120
3636,295213,9.86699,2.90937,-1.43555,94.5538,-26.4935,-130.792,-28.3203,-19.5313,20.2026,0.428528,0.15976,-0.714813,-0.528931,59875,60080,2471,3110,-30120
3642,295219,9.93398,2.39258,-0.727344,94.4989,-26.6528,-131.171,-17.6392,-27.2217,19.7754,0.428009,0.156342,-0.714874,-0.530304,59867,60079,2478,3110,-30120
3648,295225,10.1206,2.34951,-0.354102,94.5209,-26.7957,-131.594,-5.49316,-34.2407,18.3105,0.427094,0.152863,-0.715302,-0.531464,59861,60079,2482,3110,-30120
3654,295231,10.4508,2.77539,-0.440234,94.5978,-26.933,-132.039,4.63867,-37.7197,17.395,0.425873,0.149445,-0.716095,-0.532349,59859,60079,2489,3110,-30120
3660,295237,10.5848,3.51709,-0.727344,94.6967,-27.0758,-132.49,9.8877,-38.6353,17.6392,0.422913,0.142853,-0.718323,-0.533508,59856,60077,2498,3110,-30120
3666,295243,10.7379,4.65117,-1.15801,94.8944,-27.3669,-133.401,8.42285,-39.7339,19.3481,0.421417,0.139526,-0.719513,-0.533997,59854,60070,2523,3110,-30120
3672,295249,10.8671,4.79951,-0.985742,94.9658,-27.5208,-133.863,5.00488,-39.978,20.3247,0.419922,0.136108,-0.720612,-0.534546,59855,60067,2536,3110,-30120
3678,295255,11.0633,4.7373,-0.655566,95.0317,-27.6801,-134.313,3.17383,-38.6353,21.3013,0.418457,0.132599,-0.721649,-0.535156,59855,60064,2548,3110,-30120
3684,295261,11.1781,4.57461,-0.45459,95.0867,-27.8448,-134.753,3.66211,-35.7056,22.522,0.417114,0.129028,-0.722595,-0.535828,59852,60059,2566,3110,-30120
3690,295267,10.8671,4.65596,-0.0526367,95.1471,-28.0206,-135.165,10.5591,-28.1372,25.8179,0.414795,0.122101,-0.724335,-0.536896,59849,60055,2585,3110,-30120
3696,295273,10.6661,4.82344,-0.0526367,95.3009,-28.3997,-135.934,14.1602,-26.2451,27.5879,0.413849,0.118805,-0.72522,-0.537201,59843,60046,2617,3110,-30120
3702,295279,10.5226,5.02441,0.0430664,95.3943,-28.6029,-136.302,17.395,-23.9868,29.9683,0.412994,0.11557,-0.726135,-0.537323,59839,60079,2632,3118,-30121
3708,295285,10.3646,5.28281,0.267969,95.4987,-28.8226,-136.648,21.1182,-20.2637,32.4097,0.412262,0.112366,-0.727051,-0.537292,59837,60107,2645,3118,-30121
3714,295291,10.1685,5.69434,0.0526367,95.614,-29.0588,-136.967,24.9023,-16.7236,34.9121,0.411713,0.109253,-0.728027,-0.537048,59839,60133,2658,3118,-30121
3720,295297,9.70908,6.61309,-0.583789,95.8557,-29.5477,-137.576,27.1606,-12.3901,37.2314,0.411072,0.103271,-0.72998,-0.536072,59842,60166,2690,3118,-30121
3726,295303,9.52246,6.97676,-0.636426,95.9601,-29.7894,-137.856,25.1465,-10.9253,36.8652,0.410889,0.100372,-0.730927,-0.535461,59845,60179,2705,3118,-30121
3732,295309,9.40762,7.20166,-0.679492,96.048,-30.0256,-138.137,20.9961,-10.0098,35.1563,0.410736,0.0975037,-0.731781,-0.534912,59850,60189,2716,3118,-30121
3738,295315,9.20186,7.13467,-0.689063,96.0974,-30.2454,-138.4,15.3809,-8.66699,31.3721,0.410645,0.0946655,-0.732513,-0.534515,59854,60195,2726,3118,-30121
3744,295321,8.91475,6.97676,-0.550293,96.1304,-30.4321,-138.658,11.6577,-7.75146,25.8789,0.410492,0.0918884,-0.733093,-0.534332,59857,60198,2737,3118,-30121
3750,295327,8.37881,6.52217,-0.512012,96.1908,-30.6958,-139.169,10.9253,-11.2305,10.8032,0.409882,0.086853,-0.733887,-0.534546,59864,60199,2747,3118,-30121
3756,295333,7.96729,6.3499,-0.0861328,96.2512,-30.7727,-139.433,14.5874,-12.3291,4.82178,0.409241,0.0846558,-0.734283,-0.534851,59879,60239,2773,3118,-30121
3762,295339,7.40742,6.28291,0.421094,96.3336,-30.8441,-139.686,19.8364,-12.3291,2.68555,0.408417,0.0827026,-0.734772,-0.535126,59886,60273,2787,3118,-30121
3768,295345,6.89541,6.3499,0.368457,96.449,-30.91,-139.944,25.4517,-13.2446,3.35693,0.407532,0.0809937,-0.735382,-0.535248,59892,60264,2799,3118,-30121
3774,295351,6.59395,6.52217,-0.200977,96.6193,-30.9814,-140.224,32.1655,-18.1274,4.3335,0.406616,0.0793457,-0.736115,-0.535156,59898,60296,2812,3118,-30121
3780,295357,7.4457,7.33564,-0.799121,97.0752,-31.0968,-140.856,42.6025,-26.8555,1.09863,0.404327,0.0760803,-0.738312,-0.534332,59904,60323,2826,3118,-30121
3786,295363,7.80938,7.88594,-1.0001,97.3444,-31.1243,-141.174,46.6309,-26.4282,-1.77002,0.402924,0.074585,-0.739685,-0.533691,59914,60373,2854,3118,-30121
3792,295369,7.82373,8.40752,-1.01445,97.608,-31.1517,-141.454,48.2788,-21.6675,-2.99072,0.401459,0.0733032,-0.74115,-0.532959,59918,60395,2866,3118,-30121
3798,295375,7.36436,8.76641,-1.20107,97.8497,-31.1902,-141.691,48.4619,-14.9536,-2.13623,0.400116,0.0722351,-0.742554,-0.532166,59918,60411,2879,3118,-30121
3804,295381,6.85234,8.97217,-1.27764,98.0859,-31.2341,-141.899,48.645,-9.94873,0.488281,0.399048,0.0713501,-0.743835,-0.531281,59917,60425,2897,3118,-30121
3810,295387,5.75654,9.15879,-2.11025,98.5583,-31.3879,-142.256,49.6826,-6.10352,8.36182,0.397583,0.0697937,-0.746246,-0.529175,59915,60438,2914,3118,-30121
3816,295393,5.41201,9.37412,-2.2251,98.8055,-31.5033,-142.438,49.8047,-6.65283,14.3433,0.397095,0.0689697,-0.747467,-0.527954,59912,60454,2948,3118,-30121
3822,295399,5.18711,9.65166,-2.24424,99.0582,-31.6461,-142.614,49.3774,-6.16455,20.6299,0.396759,0.0679932,-0.748718,-0.52655,59911,60457,2964,3118,-30121
3828,295405,5.03398,9.91006,-2.13896,99.3054,-31.8219,-142.784,47.4854,-5.67627,28.0762,0.396606,0.0668945,-0.75,-0.524994,59911,60459,2976,3118,-30121
3834,295411,5.03877,10.2737,-2.2251,99.5416,-32.0251,-142.954,43.5181,-5.37109,35.0342,0.396637,0.0656433,-0.751221,-0.523346,59913,60461,2989,3118,-30121
3840,295417,5.34502,10.824,-2.93809,99.8987,-32.5031,-143.262,26.6724,-2.86865,43.6401,0.397339,0.0624695,-0.753418,-0.520081,59912,60457,3004,3118,-30121
3846,295423,5.33545,10.8671,-2.9333,100.003,-32.7557,-143.383,17.5171,0,44.7388,0.39798,0.0606689,-0.754181,-0.518707,59912,60448,3028,3118,-30121
3852,295429,5.23018,10.8575,-2.94766,100.058,-32.9974,-143.476,7.56836,1.89209,43.457,0.398773,0.0588074,-0.7547,-0.517548,59913,60484,3040,3118,-30121
3858,295435,4.96699,10.6948,-2.95244,100.052,-33.2227,-143.553,-2.74658,3.17383,41.0156,0.399658,0.0569763,-0.754944,-0.516693,59915,60514,3051,3118,-30121
3864,295441,4.59375,10.3838,-2.78496,100.003,-33.4314,-143.619,-11.5967,3.479,38.208,0.400574,0.0551453,-0.754944,-0.516205,59917,60541,3064,3118,-30121
3870,295447,3.78984,9.74736,-2.56006,99.8108,-33.7939,-143.734,-26.1841,0.488281,32.1045,0.402344,0.0516052,-0.754333,-0.516052,59922,60566,3077,3118,-30121
3876,295453,3.48359,9.26406,-2.33037,99.6844,-33.9532,-143.789,-31.25,-1.28174,29.9072,0.403076,0.0498657,-0.753845,-0.516357,59930,60604,3100,3118,-30121
3882,295459,3.19648,8.92432,-1.97627,99.5471,-34.0961,-143.855,-34.4238,-3.78418,27.9541,0.403748,0.0481262,-0.753265,-0.516876,59934,60617,3112,3118,-30121
3888,295465,2.7084,8.57979,-1.75615,99.4208,-34.2224,-143.937,-35.0342,-8.48389,26.3672,0.404297,0.0464172,-0.752625,-0.517487,59941,60625,3120,3118,-30121
3894,295471,2.44521,8.4793,-1.47383,99.3109,-34.3433,-144.036,-33.6914,-12.085,25.6958,0.404694,0.0446777,-0.752075,-0.518158,59947,60633,3126,3118,-30121
3900,295477,1.69873,8.55107,-1.17236,99.1791,-34.574,-144.289,-28.4424,-19.5313,27.771,0.40509,0.0412903,-0.751282,-0.519318,59954,60640,3134,3118,-30121
3906,295483,1.73223,8.45059,-1.4834,99.1516,-34.6893,-144.448,-26.4282,-25.2075,29.0527,0.405121,0.0395508,-0.751038,-0.519745,59920,60656,3142,3118,-30121
3912,295489,1.75137,8.24961,-1.24893,99.1626,-34.8102,-144.635,-24.0479,-30.5176,31.311,0.40506,0.0377197,-0.750946,-0.52005,59884,60665,3144,3118,-30121
3918,295495,1.871,8.05342,-0.894824,99.1956,-34.9365,-144.833,-19.8975,-31.9824,34.3018,0.404846,0.0358276,-0.751038,-0.520264,59852,60671,3144,3118,-30121
3924,295501,1.69395,8.01035,-0.746484,99.2505,-35.0903,-145.025,-14.4653,-30.5786,38.3911,0.404663,0.033905,-0.75119,-0.520264,59871,60675,3144,3118,-30121
3930,295507,1.17715,7.84766,-1.19629,99.4427,-35.4529,-145.382,-3.35693,-28.9307,49.0723,0.404724,0.0301514,-0.751831,-0.519531,59838,60678,3144,3118,-30121
3936,295513,1.07187,7.86201,-1.22979,99.6021,-35.6671,-145.58,2.86865,-31.5552,53.1616,0.404968,0.0282288,-0.752319,-0.518738,59876,60676,3154,3118,-30121
3942,295519,1.28242,8.0582,-1.26328,99.7998,-35.8923,-145.8,9.15527,-33.7524,57.0679,0.405182,0.0262756,-0.752991,-0.51767,59892,60669,3160,3118,-30121
3948,295525,1.81357,8.55586,-1.3542,100.025,-36.1285,-146.014,14.2212,-33.8135,59.9365,0.405426,0.0242615,-0.753845,-0.516357,59860,60664,3167,3118,-30121
3954,295531,2.45479,9.08223,-1.59824,100.245,-36.3702,-146.212,15.8691,-30.2734,61.5234,0.405731,0.0222778,-0.754822,-0.514801,59833,60658,3177,3118,-30121
3960,295537,3.25391,10.2211,-1.9667,100.585,-36.8481,-146.464,11.9629,-15.686,58.1055,0.406799,0.0186768,-0.756531,-0.511597,59807,60692,3186,3118,-30121
3966,295543,3.33525,10.6613,-2.00977,100.679,-37.0679,-146.503,7.38525,-6.89697,53.772,0.407654,0.0172119,-0.75708,-0.510132,59768,60746,3214,3118,-30121
3972,295549,3.07686,10.9437,-1.79443,100.695,-37.2711,-146.475,1.15967,2.80762,49.6826,0.408691,0.0160217,-0.757385,-0.508911,59754,60765,3227,3118,-30121
3978,295555,2.50742,10.7857,-1.46426,100.635,-37.4689,-146.376,-6.04248,13.4888,45.5933,0.409943,0.0151062,-0.757355,-0.507965,59740,60777,3244,3118,-30121
3984,295561,1.91406,10.2833,-1.22979,100.519,-37.6501,-146.228,-10.5591,21.3013,42.6025,0.411469,0.0144348,-0.756958,-0.507324,59727,60789,3260,3118,-30121
3990,295567,0.904395,9.77129,-0.579004,100.201,-37.9852,-145.805,-11.4136,31.6772,36.7432,0.415009,0.0137329,-0.755554,-0.506561,59721,60797,3272,3118,-30121
3996,295573,0.31582,9.87178,-0.425879,100.025,-38.1281,-145.552,-10.376,35.1563,34.2407,0.416901,0.0137024,-0.7547,-0.506256,59713,60806,3282,3118,-30121
4002,295579,-0.14834,9.92441,-0.512012,99.8273,-38.2654,-145.278,-9.82666,38.208,32.2876,0.418854,0.0138855,-0.753815,-0.506012,59712,60808,3284,3118,-30121
4008,295585,-0.593359,9.8335,-0.488086,99.6185,-38.3917,-144.976,-10.1318,40.7104,30.7617,0.420837,0.0142212,-0.752838,-0.505768,59713,60810,3284,3118,-30121
4014,295591,-1.00488,9.57988,-0.368457,99.4043,-38.5071,-144.662,-9.46045,42.5415,29.6021,0.422882,0.0147095,-0.751831,-0.505585,59714,60811,3284,3118,-30121
4020,295597,-2.04805,9.52725,-0.0191406,99.0088,-38.7213,-144.025,-3.17383,42.2974,28.4424,0.426941,0.0159607,-0.749756,-0.505188,59715,60851,3282,3118,-30121
4026,295603,-2.62227,9.59902,-0.0765625,98.833,-38.8257,-143.707,0.732422,41.9312,30.6396,0.428925,0.0167542,-0.74884,-0.504852,59679,60918,3266,3118,-30121
4032,295609,-3.15342,9.46025,-0.205762,98.6792,-38.9465,-143.388,3.35693,41.9312,34.2407,0.430939,0.0175781,-0.747986,-0.504364,59645,60947,3255,3118,-30121
4038,295615,-3.59365,9.17314,-0.334961,98.5419,-39.0839,-143.086,6.40869,39.4287,38.6963,0.433014,0.0183411,-0.747192,-0.503754,59615,60972,3247,3118,-30121
4044,295621,-3.82813,8.91475,-0.263184,98.4595,-39.2322,-142.822,11.8408,33.5693,43.0298,0.435089,0.0190125,-0.74649,-0.50296,59588,60991,3238,3118,-30121
4050,295627,1.98105,16.6236,2.68926,99.624,-38.551,-142.927,111.328,1.2207,-89.1724,0.434784,0.0213928,-0.749298,-0.498932,59569,61009,3228,3110,-30120
4056,295633,1.26328,10.4029,-6.20635,99.5526,-38.1226,-142.267,67.1387,77.5146,-85.083,0.432709,0.0272217,-0.751373,-0.497314,59532,61033,3213,3110,-30120
4062,295639,-3.30176,8.94346,-7.1873,99.1626,-37.7325,-141.13,59.7534,154.236,-87.0972,0.433289,0.0337524,-0.751068,-0.496918,59517,61044,3207,3110,-30120
4068,295645,-8.42188,13.4271,-0.588574,98.6078,-37.1887,-139.746,55.481,190.613,-122.681,0.436279,0.0419312,-0.749115,-0.496613,59506,61059,3197,3110,-30120
4074,295651,-11.2834,12.9534,1.2585,97.9431,-36.4636,-138.235,46.9971,207.886,-156.86,0.439636,0.0520325,-0.746216,-0.49704,59495,61072,3188,3110,-30120
4080,295657,-7.55098,3.2874,2.73232,97.597,-34.3378,-137.324,27.1606,-25.0854,-196.777,0.441223,0.0730896,-0.740173,-0.502014,59487,61086,3174,3110,-30120
4086,295663,-1.7418,5.01963,6.72793,98.1958,-33.2446,-137.549,96.4966,-77.3315,-188.843,0.435852,0.0804138,-0.740326,-0.505371,59475,61048,3127,3110,-30120
4092,295669,0.378027,16.2791,8.14434,99.278,-32.1515,-138.082,162.476,-132.874,-181.702,0.42868,0.0875549,-0.742889,-0.5065,59465,61042,3105,3110,-30120
4098,295675,1.69873,22.7438,-0.856543,100.289,-31.2122,-138.691,141.418,-145.752,-146.545,0.419617,0.0944214,-0.747864,-0.505585,59449,61001,3092,3110,-30120
4104,295681,5.79004,26.7873,-8.94346,100.838,-30.4156,-139.098,70.1904,-108.398,-124.39,0.410919,0.0994263,-0.752625,-0.504669,59482,60967,3083,3110,-30120
4110,295687,5.69434,19.5904,-7.59883,100.096,-29.2346,-138.988,-114.197,3.2959,-94.2383,0.400299,0.105988,-0.754822,-0.508575,59506,60946,3082,3110,-30120
4116,295693,4.03389,10.6613,-2.01934,99.245,-28.7402,-138.68,-142.029,25.1465,-90.0269,0.398834,0.108032,-0.751526,-0.51416,59520,60880,3095,3110,-30120
4122,295699,2.89023,3.90469,0.334961,98.5364,-28.2843,-138.45,-121.765,14.5264,-80.3833,0.398285,0.109894,-0.747192,-0.520447,59569,60841,3101,3110,-30120
4128,295705,2.17725,6.79492,3.70371,98.2507,-27.8503,-138.362,-49.1943,-8.11768,-72.4487,0.397522,0.111542,-0.743561,-0.525879,59615,60811,3104,3110,-30120
4134,295711,1.98584,7.99121,-8.23525,98.454,-27.6801,-138.323,41.0767,-10.1318,-20.0806,0.395813,0.113617,-0.741974,-0.528961,59653,60749,3105,3110,-30120
4140,295717,3.22041,19.6287,-8.62764,98.2727,-27.3999,-137.884,-36.7432,15.9912,-28.0151,0.395416,0.11792,-0.742798,-0.527161,59684,60696,3106,3110,-30120
4146,295723,2.23467,13.853,-4.94307,97.6849,-27.2351,-137.692,-104.37,17.7002,-22.3999,0.395508,0.119354,-0.741333,-0.528809,59736,60613,3102,3110,-30120
4152,295729,3.05771,7.27344,-0.31582,97.1411,-27.1582,-137.488,-94.5435,22.8271,-6.04248,0.396118,0.119507,-0.738342,-0.532501,59757,60578,3097,3110,-30120
4158,295735,3.78984,5.31152,2.86152,96.7017,-27.1417,-137.225,-68.6035,35.5225,3.78418,0.397217,0.119385,-0.735535,-0.535553,59774,60545,3093,3110,-30120
4164,295741,3.78027,4.87607,3.83291,96.3556,-27.0978,-136.994,-52.5513,29.1748,-1.0376,0.398834,0.119659,-0.733185,-0.537537,59791,60521,3087,3110,-30120
4170,295747,1.77051,5.80918,-0.320605,96.1908,-26.8671,-136.763,6.83594,-0.244141,-11.4136,0.40033,0.121246,-0.730164,-0.540161,59809,60504,3077,3110,-30120
4176,295753,2.94287,10.0153,-1.78008,96.3007,-26.7737,-136.763,18.9209,-11.6577,-6.71387,0.400024,0.122375,-0.730103,-0.540192,59839,60476,3059,3110,-30120
4182,295759,3.90469,12.0395,-3.59844,96.3501,-26.6858,-136.807,2.38037,-19.043,-5.49316,0.399414,0.123322,-0.73056,-0.539825,59850,60464,3049,3110,-30120
4188,295765,4.95264,11.5179,-4.7373,96.3062,-26.6144,-136.829,-15.0146,-15.3198,-2.74658,0.398712,0.123749,-0.730804,-0.539948,59860,60454,3038,3110,-30120
4194,295771,5.78047,11.0298,-4.06738,96.1908,-26.5649,-136.796,-25.7568,-5.37109,-0.488281,0.398254,0.123871,-0.73056,-0.540558,59869,60445,3027,3110,-30120
4200,295777,5.50293,9.82393,-2.7084,95.7953,-26.4716,-136.571,-37.0483,12.5732,-2.31934,0.398651,0.124176,-0.728973,-0.542358,59875,60434,3018,3110,-30120
4206,295783,4.82822,9.24971,-2.52178,95.5756,-26.4221,-136.428,-37.5366,14.5264,-3.60107,0.399261,0.124542,-0.727753,-0.543427,59891,60421,2999,3110,-30120
4212,295789,4.57461,9.07266,-2.29688,95.3613,-26.3672,-136.302,-37.3535,12.085,-4.76074,0.399902,0.124969,-0.726532,-0.544525,59897,60417,2991,3110,-30120
4218,295795,4.60811,9.20664,-2.11982,95.1581,-26.3068,-136.187,-36.9263,10.0708,-5.37109,0.400452,0.125366,-0.725342,-0.545624,59902,60413,2986,3110,-30120
4224,295801,4.6416,9.17314,-1.80879,94.9603,-26.2518,-136.071,-37.0483,10.0098,-5.43213,0.400909,0.125732,-0.724213,-0.546692,59907,60408,2982,3110,-30120
4230,295807,5.16318,8.99131,-2.02412,94.5593,-26.12,-135.868,-37.1704,8.17871,-7.8125,0.401764,0.126404,-0.721924,-0.54892,59911,60406,2976,3110,-30120
4236,295813,5.29717,9.05352,-2.40215,94.3616,-26.0431,-135.769,-38.147,7.26318,-10.8032,0.4021,0.12674,-0.720825,-0.550018,59917,60401,2956,3110,-30120
4242,295819,5.29717,9.52725,-2.32559,94.1473,-25.9607,-135.648,-39.5508,11.9019,-11.1694,0.402374,0.127136,-0.719696,-0.551208,59918,60359,2945,3110,-30120
