TimeSinceCollection,Timestamp,AccX,AccY,AccZ,AngleRoll,AnglePitch,AngleYaw,AngularVelX,AngularVelY,             AngularVelZ,Q1,Q2,Q3,Q4,MagX,MagY,MagZ,Height,Airpressure
0,244025,4.7708,9.4459,0.626855,79.4366,-26.532,16.7651,43.457,-37.9639,-4.57764,0.720551,0.639252,-0.0835266,0.255096,64314,61223,62139,5601,-30418
6,244031,5.10576,9.56074,0.0191406,79.7003,-26.543,16.6058,38.8794,-33.4473,-3.90625,0.719238,0.641022,-0.0839539,0.254211,64321,61214,62151,5601,-30418
12,244037,5.0292,9.80957,-0.119629,79.953,-26.543,16.4465,36.0107,-31.9214,-5.24902,0.718079,0.642578,-0.0843201,0.253448,64328,61206,62164,5601,-30418
18,244043,4.9,10.0967,-0.172266,80.1727,-26.543,16.3037,30.8838,-29.2358,-5.18799,0.71701,0.644043,-0.0846558,0.252655,64286,61199,62175,5601,-30418
24,244049,4.81387,9.54639,0.114844,80.3485,-26.5375,16.1664,17.0288,-24.292,-4.5166,0.715393,0.646301,-0.0853271,0.25119,64214,61195,62199,5601,-30418
30,244055,4.67988,9.23535,0.502441,80.6122,-26.5265,15.9302,13.4888,-21.7285,-4.57764,0.714874,0.647095,-0.0856934,0.250519,64183,61194,62208,5601,-30418
36,244061,4.46455,8.97695,1.02402,80.7166,-26.521,15.8313,11.7798,-19.9585,-4.39453,0.714478,0.647766,-0.0859985,0.249878,64157,61196,62217,5601,-30418
42,244067,4.4167,8.7999,1.24893,80.8209,-26.5155,15.7269,11.8408,-19.2871,-4.39453,0.714111,0.648346,-0.0863037,0.249268,64133,61197,62225,5601,-30418
48,244073,3.81377,8.51279,1.40684,80.9363,-26.4825,15.6061,11.7188,-21.9727,-9.76563,0.713745,0.648926,-0.0866089,0.248688,64111,61199,62233,5601,-30418
54,244079,4.14395,8.6085,1.33984,81.0626,-26.4771,15.4852,16.1133,-23.6816,-3.90625,0.712982,0.650269,-0.0872498,0.247162,64078,61202,62249,5601,-30418
60,244085,4.23965,8.73291,1.29678,81.3428,-26.4771,15.2271,17.0898,-24.9634,-3.96729,0.712494,0.651001,-0.0876465,0.24646,64064,61204,62256,5601,-30418
66,244091,4.26836,8.81904,1.13408,81.4856,-26.4771,15.0952,17.2119,-24.7803,-3.54004,0.711975,0.651794,-0.0880737,0.245728,64053,61165,62262,5601,-30418
72,244097,4.70381,9.04873,1.07187,81.6284,-26.4716,14.9689,16.7236,-23.9258,-4.3335,0.711426,0.652588,-0.088501,0.245026,64043,61132,62270,5601,-30418
78,244103,4.0626,8.80947,0.91875,81.7657,-26.4441,14.8315,15.7471,-24.9023,-8.78906,0.710907,0.653381,-0.0888977,0.244324,64032,61103,62280,5601,-30418
84,244109,4.48848,8.95781,0.90918,81.8921,-26.4386,14.7162,14.1602,-20.3247,-3.17383,0.709991,0.654846,-0.0895996,0.242798,64014,61054,62297,5601,-30418
90,244115,4.43105,8.88603,0.942676,82.1228,-26.4331,14.5129,13.1226,-19.2261,-3.23486,0.709534,0.655487,-0.0899353,0.242249,64008,61035,62302,5601,-30418
96,244121,4.33057,8.77119,0.947461,82.2272,-26.4276,14.4196,12.8174,-17.8833,-3.2959,0.709137,0.656097,-0.0902405,0.241699,64005,61017,62307,5601,-30418
102,244127,4.55547,8.87168,0.92832,82.337,-26.4221,14.3317,13.3057,-17.4561,-3.479,0.70871,0.656677,-0.0904846,0.24118,64004,61000,62208,5601,-30418
108,244133,3.72285,8.69941,1.00967,82.4524,-26.4001,14.2273,13.855,-20.0195,-7.14111,0.708313,0.657288,-0.0907288,0.240692,64004,60985,62316,5601,-30418
114,244139,4.30186,8.79033,1.03838,82.5677,-26.4001,14.1284,13.4277,-19.7144,-2.19727,0.707458,0.658569,-0.0912781,0.239502,64004,60959,62326,5601,-30418
120,244145,4.34971,8.7999,1.0958,82.793,-26.4001,13.9307,13.9771,-19.6533,-2.13623,0.707001,0.65918,-0.0916138,0.238983,64004,60948,62330,5601,-30418
126,244151,4.29229,8.78076,0.952246,82.9138,-26.4001,13.8318,14.7705,-19.8975,-2.01416,0.706543,0.659821,-0.0919189,0.238495,64004,60941,62336,5601,-30418
132,244157,4.2875,8.84297,0.77041,83.0402,-26.4056,13.7384,15.4419,-19.8975,-1.83105,0.706055,0.660461,-0.0922546,0.237976,64006,60936,62341,5601,-30418
138,244163,4.29229,8.83818,0.617285,83.161,-26.4056,13.6395,15.564,-19.9585,-1.58691,0.705566,0.661133,-0.0925903,0.237488,64009,60930,62346,5601,-30418
144,244169,4.4167,8.9626,0.732129,83.2819,-26.4111,13.5406,14.2822,-18.4937,-1.09863,0.704529,0.662506,-0.0932312,0.236511,64015,60921,62358,5601,-30418
150,244175,4.53154,8.90518,0.679492,83.5071,-26.4166,13.3649,13.7329,-17.6392,-1.2207,0.704041,0.663116,-0.0935364,0.236084,64017,60917,62365,5601,-30418
156,244181,4.64639,9.03438,0.507227,83.6169,-26.3947,13.2825,13.6719,-16.7847,-5.98145,0.703583,0.663727,-0.0938416,0.235687,64019,60916,62373,5601,-30418
162,244187,4.34971,8.88603,0.46416,83.7213,-26.4001,13.2111,13.1836,-15.9912,-1.28174,0.703156,0.664337,-0.0939636,0.235138,64020,60914,62379,5601,-30418
168,244193,4.5124,9.02002,0.626855,83.8092,-26.3947,13.1506,11.7798,-13.1836,-1.52588,0.702698,0.664917,-0.0941772,0.234772,64023,60910,62385,5601,-30418
174,244199,4.34014,8.94824,0.923535,83.8861,-26.3947,13.1012,9.15527,-10.3149,-1.58691,0.701965,0.665863,-0.0944519,0.234222,64028,60903,62396,5601,-30418
180,244205,4.17266,8.71855,0.913965,84.0234,-26.3892,13.0133,8.60596,-10.0098,-1.70898,0.70166,0.666229,-0.0945435,0.233978,64030,60900,62403,5601,-30418
186,244211,4.22051,8.64199,0.894824,84.0948,-26.3837,12.9694,9.58252,-10.6812,-1.64795,0.701355,0.666626,-0.094635,0.233765,64032,60901,62408,5601,-30418
192,244217,4.40234,8.76162,0.933105,84.1827,-26.3727,12.9144,11.5967,-11.8408,-2.99072,0.70105,0.667023,-0.0947266,0.233521,64035,60904,62415,5601,-30418
198,244223,3.79941,8.58936,0.813477,84.2816,-26.3672,12.8485,13.4277,-14.7705,-2.99072,0.700684,0.667511,-0.0947876,0.233215,64038,60904,62420,5601,-30418
204,244229,4.35449,8.97217,0.564648,84.386,-26.3617,12.7826,15.0757,-15.0146,-1.34277,0.699768,0.668671,-0.0950928,0.232513,64046,60901,62428,5601,-30418
210,244235,4.3832,9.05352,0.368457,84.6057,-26.3617,12.6453,14.8315,-14.4653,-1.58691,0.699249,0.669281,-0.0952759,0.232178,64049,60900,62431,5601,-30418
216,244241,4.41191,9.14922,0.258398,84.6991,-26.3617,12.5903,12.5732,-12.8174,-0.915527,0.698761,0.669891,-0.0954285,0.231842,64053,60900,62433,5601,-30418
222,244247,4.40234,9.18272,0.301465,84.7815,-26.3617,12.5354,10.8032,-11.7188,-0.915527,0.698334,0.67041,-0.0955811,0.231567,64055,60904,62436,5601,-30418
228,244253,4.43584,9.08223,0.344531,84.8529,-26.3617,12.4915,9.0332,-10.437,-0.793457,0.697968,0.670868,-0.0957031,0.231323,64057,60909,62439,5601,-30418
234,244259,4.18701,8.89561,0.559863,84.9133,-26.3617,12.453,8.05664,-8.72803,-0.12207,0.697357,0.6716,-0.0959167,0.230957,64063,60915,62448,5601,-30418
240,244265,4.16309,8.85254,0.535937,85.0397,-26.3617,12.3816,7.99561,-9.27734,-0.244141,0.697052,0.671967,-0.0960083,0.230804,64065,60916,62454,5601,-30418
246,244271,4.18701,8.87646,0.579004,85.1001,-26.3672,12.3431,7.93457,-9.70459,0.12207,0.696747,0.672302,-0.0960999,0.230621,64069,60913,62458,5601,-30418
252,244277,4.26836,8.86689,0.545508,85.166,-26.3672,12.2992,8.54492,-9.94873,-0.12207,0.696472,0.672638,-0.0962219,0.230438,64072,60912,62464,5601,-30418
258,244283,4.24443,8.91475,0.497656,85.2319,-26.3672,12.2607,8.54492,-9.82666,-0.244141,0.696167,0.673004,-0.096344,0.230286,64076,60907,62470,5601,-30418
264,244289,4.23965,8.95781,0.488086,85.2924,-26.3727,12.2278,7.87354,-9.15527,0.549316,0.695557,0.673706,-0.0965881,0.22995,64084,60904,62477,5601,-30418
270,244295,4.18223,8.85732,0.478516,85.4242,-26.3837,12.1399,7.93457,-10.498,0.671387,0.695251,0.674072,-0.0967102,0.229797,64087,60907,62479,5601,-30418
276,244301,4.22051,8.7999,0.526367,85.4901,-26.3947,12.0959,8.11768,-11.1694,1.0376,0.694946,0.674408,-0.0968933,0.229614,64090,60912,62483,5601,-30418
282,244307,4.24443,8.75205,0.579004,85.556,-26.4001,12.0465,8.23975,-11.0474,1.09863,0.694611,0.674774,-0.0970764,0.229431,64092,60915,62486,5601,-30418
288,244313,4.33057,8.77119,0.655566,85.6329,-26.4056,11.9971,9.33838,-11.6577,0.915527,0.694305,0.67514,-0.0972595,0.229248,64093,60919,62488,5601,-30418
294,244319,4.26357,8.78555,0.660352,85.7043,-26.4166,11.9531,9.46045,-11.1084,0.793457,0.693604,0.675964,-0.0976257,0.228851,64101,60919,62496,5601,-30418
300,244325,4.23486,8.82861,0.574219,85.8527,-26.4276,11.8542,9.46045,-10.437,1.2207,0.693237,0.676361,-0.0978088,0.228668,64055,60920,62499,5601,-30418
306,244331,4.25879,8.81904,0.588574,85.9241,-26.4331,11.8103,9.64355,-10.2539,0.915527,0.692902,0.676758,-0.0979919,0.228485,64014,60920,62502,5601,-30418
312,244337,4.22051,8.81426,0.488086,85.9955,-26.4441,11.7554,9.46045,-10.3149,1.15967,0.692535,0.677124,-0.098175,0.228302,63977,60921,62505,5601,-30418
318,244343,4.2875,8.79512,0.449805,86.0669,-26.4496,11.7059,9.33838,-10.0708,1.28174,0.6922,0.677521,-0.0983582,0.228088,63944,60918,62509,5601,-30418
324,244349,4.29229,8.83818,0.440234,86.1383,-26.4551,11.6565,9.58252,-10.3149,1.15967,0.691559,0.678284,-0.0987854,0.227661,63885,60912,62515,5601,-30418
330,244355,4.21572,8.79033,0.47373,86.2811,-26.4716,11.5411,9.46045,-10.498,1.2207,0.691223,0.67865,-0.0990295,0.227448,63860,60911,62519,5601,-30418
336,244361,4.29229,8.78555,0.545508,86.3525,-26.4771,11.4862,9.39941,-10.2539,1.40381,0.690887,0.679047,-0.0992432,0.227203,63838,60914,62524,5601,-30418
342,244367,4.29229,8.69463,0.483301,86.4294,-26.488,11.4258,10.2539,-10.9863,0.976563,0.690552,0.679413,-0.0994873,0.226959,63818,60917,62529,5601,-30418
348,244373,4.30664,8.71377,0.44502,86.5118,-26.4935,11.3654,10.9253,-10.9253,1.09863,0.690216,0.67981,-0.099762,0.226715,63801,60922,62533,5601,-30418
354,244379,4.36885,8.80469,0.0813477,86.5997,-26.4935,11.2939,12.207,-11.9629,0.305176,0.689453,0.680725,-0.10025,0.226135,63773,60938,62538,5601,-30418
360,244385,4.44541,9.02002,0.090918,86.781,-26.499,11.1566,12.6953,-11.5356,0,0.689026,0.681213,-0.100494,0.2258,63762,60945,62540,5601,-30418
366,244391,4.36885,9.04873,-0.0526367,86.8634,-26.499,11.0962,10.8643,-10.7422,0.0610352,0.688629,0.681702,-0.100739,0.225494,63753,60911,62543,5601,-30418
372,244397,4.55068,9.14922,-0.00478516,86.9293,-26.5045,11.0468,8.91113,-9.09424,0.244141,0.688263,0.682129,-0.100952,0.225189,63744,60881,62547,5601,-30418
378,244403,4.50283,9.08223,-0.0430664,86.9843,-26.5045,11.0028,7.38525,-7.50732,0.12207,0.687958,0.682465,-0.101135,0.224945,63738,60855,62550,5601,-30418
384,244409,4.37363,9.02481,0.153125,87.0337,-26.5045,10.9644,6.28662,-6.5918,-0.244141,0.6875,0.683014,-0.10144,0.224548,63726,60809,62555,5601,-30418
390,244415,4.33535,8.96738,0.114844,87.1051,-26.5045,10.8984,4.63867,-5.00488,0.366211,0.687347,0.683228,-0.101563,0.224396,63721,60829,62558,5601,-30418
396,244421,4.2875,8.93389,0.196191,87.1436,-26.5045,10.871,4.45557,-4.39453,0.427246,0.687164,0.683411,-0.101685,0.224243,63716,60848,62559,5601,-30418
402,244427,4.06738,8.81426,0.181836,87.182,-26.5045,10.838,4.88281,-5.18799,0.0610352,0.687042,0.683594,-0.101776,0.224121,63714,60865,62557,5601,-30418
408,244433,4.23008,8.87646,0.291895,87.215,-26.51,10.8051,4.27246,-5.18799,0.854492,0.686859,0.683777,-0.101898,0.223938,63712,60840,62558,5601,-30418
414,244439,4.26357,8.7999,0.234473,87.2534,-26.51,10.7666,5.12695,-5.79834,0.610352,0.686523,0.684174,-0.102203,0.223633,63710,60838,62562,5601,-30418
420,244445,4.13438,8.72813,0.0430664,87.3468,-26.5155,10.6897,6.04248,-6.46973,0.610352,0.68634,0.684387,-0.102356,0.22348,63708,60815,62564,5601,-30418
426,244451,4.36406,8.9291,0.14834,87.3907,-26.521,10.6512,5.85938,-6.16455,0.732422,0.686127,0.684631,-0.102509,0.223297,63705,60836,62567,5601,-30418
432,244457,4.38799,8.93867,0.0669922,87.4347,-26.521,10.6128,5.00488,-5.7373,0.427246,0.685944,0.684875,-0.102692,0.223114,63703,60852,62569,5601,-30418
438,244463,4.33057,8.93389,0.16748,87.4731,-26.521,10.5743,4.88281,-5.79834,0.427246,0.68576,0.685089,-0.102844,0.222931,63701,60868,62572,5601,-30418
444,244469,4.40234,8.86211,0.13877,87.5006,-26.5265,10.5469,3.72314,-4.39453,0.915527,0.685455,0.685455,-0.103149,0.222626,63699,60892,62580,5601,-30418
450,244475,4.35928,8.80469,0.14834,87.561,-26.532,10.4919,3.78418,-3.41797,0.427246,0.685333,0.685608,-0.103271,0.222473,63700,60903,62584,5601,-30418
456,244481,4.33057,8.87168,0.14834,87.594,-26.532,10.4645,3.78418,-3.23486,0.427246,0.685211,0.68576,-0.103363,0.222351,63700,60914,62588,5601,-30418
462,244487,4.24443,8.90518,0.0861328,87.6215,-26.532,10.437,3.84521,-3.66211,0.305176,0.685059,0.685913,-0.103485,0.222229,63701,60923,62591,5601,-30418
468,244493,3.91904,8.74727,0.153125,87.6599,-26.532,10.3986,4.02832,-5.7373,0.0610352,0.684937,0.686066,-0.103577,0.222107,63702,60931,62594,5601,-30418
474,244499,4.48848,8.81426,0.30625,87.6929,-26.532,10.3656,3.2959,-5.67627,0.854492,0.684662,0.686401,-0.103912,0.221741,63702,60870,62595,5601,-30418
480,244505,4.41191,8.7377,0.253613,87.7533,-26.5375,10.3052,3.78418,-4.02832,0.244141,0.68454,0.686554,-0.104065,0.221588,63702,60844,62595,5601,-30418
486,244511,4.30664,8.76641,0.287109,87.7863,-26.5375,10.2832,4.21143,-3.11279,0.244141,0.684387,0.686737,-0.104156,0.221436,63701,60821,62595,5601,-30418
492,244517,4.18223,8.78076,0.277539,87.8302,-26.532,10.2502,5.61523,-5.67627,-0.366211,0.684265,0.68689,-0.104218,0.221344,63703,60802,62594,5601,-30418
498,244523,4.07695,8.7042,0.186621,87.8741,-26.5375,10.2173,5.61523,-5.85938,0.610352,0.684082,0.687103,-0.10434,0.221191,63705,60784,62594,5601,-30418
504,244529,4.35449,8.80947,0.181836,87.9236,-26.5375,10.1733,6.71387,-7.38525,0.183105,0.683624,0.687622,-0.104614,0.220825,63709,60756,62598,5601,-30418
510,244535,4.29707,8.89561,0.234473,88.028,-26.5375,10.1019,7.08008,-6.04248,0.305176,0.68338,0.687897,-0.104736,0.220642,63711,60743,62600,5601,-30418
516,244541,4.10088,8.74248,-0.0287109,88.0829,-26.5375,10.0635,7.32422,-6.71387,0,0.683136,0.688171,-0.104858,0.22049,63711,60732,62603,5601,-30418
522,244547,4.3832,8.90039,-0.133984,88.1378,-26.5375,10.0305,7.08008,-6.46973,0.0610352,0.682892,0.688477,-0.10498,0.220337,63712,60721,62607,5601,-30418
528,244553,4.45498,8.99609,-0.258398,88.1818,-26.5375,9.99756,6.10352,-5.49316,0.244141,0.682648,0.688751,-0.105072,0.220154,63715,60710,62611,5601,-30418
534,244559,4.34971,9.08701,-0.105273,88.2147,-26.5375,9.97559,4.63867,-4.15039,0.183105,0.682251,0.689178,-0.105255,0.21991,63723,60694,62618,5601,-30418
540,244565,4.33057,9.00566,0.0526367,88.2532,-26.5375,9.95911,1.2207,-1.09863,0.488281,0.682159,0.689301,-0.105286,0.219849,63727,60688,62620,5601,-30418
546,244571,4.23486,8.87168,0.14834,88.2587,-26.5375,9.95361,0.976563,-0.854492,0.366211,0.682098,0.689362,-0.105286,0.219818,63730,60683,62621,5601,-30418
552,244577,4.23486,8.74248,0.220117,88.2697,-26.5375,9.94812,1.28174,-1.28174,0.244141,0.682037,0.689423,-0.105286,0.219818,63733,60679,62621,5601,-30418
558,244583,4.1583,8.69941,0.177051,88.2916,-26.532,9.93713,2.50244,-1.89209,0.244141,0.681976,0.689484,-0.105286,0.219788,63734,60672,62620,5601,-30418
564,244589,4.15352,8.82383,0.124414,88.3136,-26.532,9.92615,3.17383,-2.62451,0.183105,0.681763,0.689728,-0.105347,0.219696,63734,60665,62616,5601,-30418
570,244595,4.24922,8.82383,0.0382813,88.3795,-26.532,9.8877,3.96729,-4.15039,0.427246,0.68161,0.68988,-0.105377,0.219604,63734,60662,62616,5601,-30418
576,244601,4.33057,8.88125,0.0861328,88.4235,-26.532,9.85474,5.5542,-6.28662,0.305176,0.681458,0.690063,-0.105469,0.219513,63734,60661,62616,5601,-30418
582,244607,4.14395,8.74248,-0.153125,88.4619,-26.5375,9.82178,4.82178,-6.16455,1.0376,0.681274,0.690308,-0.105591,0.21936,63733,60657,62617,5593,-30417
588,244613,4.42148,8.9291,-0.0239258,88.5059,-26.5375,9.78882,4.69971,-5.92041,0.549316,0.681061,0.690521,-0.105713,0.219238,63732,60653,62618,5593,-30417
594,244619,4.42627,8.90518,0.13877,88.5443,-26.5375,9.76135,4.39453,-5.7373,0.0610352,0.680725,0.690918,-0.105927,0.218933,63732,60646,62618,5593,-30417
600,244625,4.41191,8.82383,0.119629,88.5883,-26.5375,9.72839,2.74658,-2.56348,0.244141,0.680603,0.69104,-0.106018,0.218842,63733,60645,62617,5593,-30417
606,244631,4.26836,8.73291,0.133984,88.6102,-26.5375,9.7229,2.99072,-1.89209,0.183105,0.680481,0.691162,-0.106018,0.218811,63734,60648,62618,5593,-30417
612,244637,4.16787,8.72813,0.119629,88.6377,-26.5375,9.70642,3.72314,-2.56348,0,0.680359,0.691284,-0.106049,0.21875,63734,60649,62620,5593,-30417
618,244643,3.82813,8.57979,0.0526367,88.6761,-26.532,9.67896,4.94385,-5.18799,-0.427246,0.680237,0.691437,-0.106049,0.218719,63734,60650,62623,5593,-30417
624,244649,4.30664,8.81426,-0.0478516,88.7256,-26.5265,9.646,5.61523,-6.53076,-0.244141,0.67984,0.691895,-0.106201,0.218384,63732,60643,62628,5593,-30417
630,244655,4.34492,8.90039,-0.186621,88.8354,-26.521,9.5636,6.46973,-7.32422,0,0.679596,0.6922,-0.106323,0.21817,63735,60641,62630,5593,-30417
636,244661,4.48369,9.03438,-0.200977,88.8794,-26.521,9.53064,6.04248,-6.46973,-0.244141,0.679352,0.692474,-0.106476,0.217957,63737,60641,62631,5593,-30417
642,244667,4.35928,9.02481,-0.244043,88.9233,-26.5155,9.50317,4.94385,-5.37109,-0.488281,0.679138,0.692749,-0.106567,0.217804,63739,60642,62630,5593,-30417
648,244673,4.43584,9.03916,-0.220117,88.9508,-26.5155,9.48669,3.2959,-3.60107,-0.183105,0.678955,0.692963,-0.106628,0.217651,63741,60648,62629,5593,-30417
654,244679,4.30664,8.90039,-0.248828,88.9728,-26.51,9.47571,2.62451,-2.68555,0,0.678711,0.693237,-0.106689,0.217499,63746,60653,62627,5593,-30417
660,244685,4.254,8.90996,-0.133984,89.0057,-26.51,9.45923,1.46484,-1.89209,0.183105,0.678619,0.693329,-0.106689,0.217438,63749,60653,62629,5593,-30417
666,244691,4.24443,8.84297,-0.100488,89.0167,-26.51,9.44824,1.28174,-1.83105,0.305176,0.678558,0.69339,-0.10672,0.217407,63751,60652,62629,5593,-30417
672,244697,4.23008,8.81904,-0.062207,89.0332,-26.51,9.44275,1.34277,-1.70898,0.366211,0.678497,0.693481,-0.10672,0.217377,63752,60652,62634,5593,-30417
678,244703,4.23965,8.82383,0.00478516,89.0497,-26.51,9.43176,1.64795,-1.95313,0.427246,0.678406,0.693542,-0.10675,0.217346,63752,60656,62639,5593,-30417
684,244709,4.20615,8.79512,-0.14834,89.0717,-26.51,9.41528,2.74658,-3.479,0.244141,0.678223,0.693756,-0.106812,0.217224,63750,60667,62645,5593,-30417
690,244715,4.36406,8.88603,-0.143555,89.1266,-26.5155,9.37683,2.92969,-3.90625,0.671387,0.678101,0.693909,-0.106903,0.217133,63750,60670,62646,5593,-30417
696,244721,4.39756,8.9626,-0.196191,89.1486,-26.5155,9.36035,2.56348,-3.23486,0.427246,0.677948,0.694031,-0.106995,0.217072,63749,60673,62646,5593,-30417
702,244727,4.35449,8.9626,-0.200977,89.1705,-26.5155,9.34937,1.89209,-2.38037,0.427246,0.677856,0.694183,-0.107056,0.21698,63749,60674,62645,5593,-30417
708,244733,4.33057,8.91475,-0.153125,89.1815,-26.5155,9.34387,1.15967,-1.40381,0.549316,0.677765,0.694275,-0.107086,0.216949,63749,60676,62645,5593,-30417
714,244739,4.20137,8.75205,0,89.1925,-26.5155,9.33838,0.793457,-1.0376,0.244141,0.677643,0.694397,-0.107117,0.216888,63752,60677,62645,5593,-30417
720,244745,4.19658,8.7377,0.0287109,89.22,-26.5155,9.32739,1.95313,-1.58691,0.488281,0.677582,0.694458,-0.107117,0.216888,63751,60677,62645,5593,-30417
726,244751,4.18223,8.79512,-0.0191406,89.2419,-26.5155,9.31641,2.68555,-2.19727,0.427246,0.67749,0.69455,-0.107117,0.216858,63751,60675,62645,5593,-30417
732,244757,4.1918,8.84297,-0.0382813,89.2639,-26.5155,9.29993,2.86865,-2.56348,0.549316,0.677368,0.694672,-0.107147,0.216797,63750,60674,62644,5593,-30417
738,244763,4.21094,8.85254,-0.0334961,89.2859,-26.5155,9.28894,2.80762,-2.86865,0.427246,0.677277,0.694794,-0.107178,0.216766,63750,60675,62646,5593,-30417
744,244769,4.27793,8.7999,-0.0526367,89.3134,-26.5155,9.27246,2.68555,-2.86865,0.732422,0.677032,0.695038,-0.1073,0.216644,63749,60678,62649,5593,-30417
750,244775,4.23008,8.79512,-0.062207,89.3628,-26.521,9.245,3.41797,-2.62451,0.671387,0.67691,0.69516,-0.10733,0.216583,63749,60679,62651,5593,-30417
756,244781,4.20137,8.86211,-0.062207,89.3903,-26.521,9.22852,3.66211,-2.92969,0.732422,0.676758,0.695313,-0.107391,0.216522,63749,60679,62650,5593,-30417
762,244787,3.99561,8.71855,-0.0861328,89.4232,-26.521,9.20654,4.15039,-3.96729,0.854492,0.676605,0.695465,-0.107422,0.216492,63748,60680,62651,5593,-30417
768,244793,4.17744,8.77598,-0.0478516,89.4617,-26.5265,9.19006,4.76074,-3.479,0.976563,0.676453,0.695648,-0.107513,0.2164,63748,60681,62655,5593,-30417
774,244799,4.13916,8.87168,0.129199,89.4891,-26.5265,9.17358,4.57764,-2.56348,0.915527,0.676117,0.695984,-0.107605,0.216309,63750,60683,62665,5593,-30417
780,244805,4.19658,8.71377,-0.0239258,89.5551,-26.5375,9.15161,5.43213,-2.56348,1.46484,0.675934,0.696167,-0.107635,0.216278,63751,60681,62670,5593,-30417
786,244811,4.16787,8.66113,-0.062207,89.5935,-26.543,9.13513,5.92041,-2.86865,1.58691,0.67572,0.69635,-0.107666,0.216278,63754,60677,62674,5593,-30417
792,244817,4.06738,8.73291,0.220117,89.6375,-26.543,9.11865,6.46973,-3.78418,1.52588,0.675507,0.696564,-0.107727,0.216248,63756,60676,62678,5593,-30417
798,244823,4.09131,8.64199,0.272754,89.6869,-26.5485,9.09119,7.01904,-4.94385,1.64795,0.675293,0.696808,-0.107788,0.216217,63758,60676,62679,5593,-30417
804,244829,4.2875,8.53193,-0.0430664,89.7473,-26.5594,9.06372,8.54492,-6.10352,1.70898,0.674713,0.697357,-0.108002,0.216034,63765,60677,62678,5593,-30417
810,244835,4.321,8.74248,-0.205762,89.9011,-26.5649,8.98682,12.5732,-7.69043,1.40381,0.674347,0.697754,-0.108093,0.215942,63768,60680,62678,5593,-30417
816,244841,4.40713,8.95303,-0.421094,89.9835,-26.5704,8.94836,12.4512,-7.75146,1.15967,0.673889,0.698181,-0.108215,0.21579,63772,60681,62677,5593,-30417
822,244847,4.47412,9.04873,-0.665137,90.0549,-26.5704,8.90991,10.9863,-6.89697,1.0376,0.673462,0.698639,-0.108337,0.215668,63775,60682,62676,5593,-30417
828,244853,4.44063,9.17793,-0.669922,90.1154,-26.5759,8.88794,9.0332,-5.00488,1.09863,0.673065,0.699036,-0.108429,0.215546,63777,60683,62677,5593,-30417
834,244859,4.3832,8.92432,-0.220117,90.1538,-26.5814,8.87146,6.46973,-3.2959,1.2207,0.672516,0.699585,-0.108521,0.215454,63774,60688,62680,5593,-30417
840,244865,4.2875,8.65635,-0.00478516,90.2087,-26.5869,8.86597,4.57764,-0.671387,1.52588,0.672363,0.699738,-0.108521,0.215454,63773,60693,62682,5593,-30417
846,244871,4.21572,8.54629,0.0430664,90.2417,-26.5924,8.86047,5.98145,-0.915527,1.2207,0.67218,0.69986,-0.108521,0.215515,63772,60696,62683,5593,-30417
852,244877,4.13916,8.55586,-0.0957031,90.2911,-26.5924,8.84949,8.48389,-2.92969,0.793457,0.671997,0.700073,-0.10849,0.215546,63772,60699,62683,5593,-30417
858,244883,4.1248,8.69463,-0.339746,90.3571,-26.5924,8.82202,9.94873,-5.12695,0.732422,0.671692,0.700348,-0.10849,0.215515,63774,60699,62683,5593,-30417
864,244889,4.33535,9.06309,-0.732129,90.4285,-26.5979,8.78906,10.1929,-6.53076,0.793457,0.67099,0.70105,-0.108612,0.215302,63777,60702,62685,5593,-30417
870,244895,4.56025,9.17314,-0.823047,90.5493,-26.6034,8.71765,7.38525,-6.65283,1.09863,0.670654,0.701416,-0.108734,0.215179,63780,60705,62687,5593,-30417
876,244901,4.67031,9.13965,-0.90918,90.5878,-26.6034,8.69019,5.12695,-4.82178,0.854492,0.67038,0.701691,-0.108856,0.215027,63782,60707,62686,5593,-30417
882,244907,4.6751,9.14443,-0.789551,90.6097,-26.6034,8.68469,2.74658,-1.58691,0.854492,0.670166,0.701904,-0.108948,0.214935,63784,60711,62685,5593,-30417
888,244913,4.59854,9.12529,-0.564648,90.6152,-26.6089,8.69568,0.732422,1.09863,0.732422,0.670044,0.702026,-0.108948,0.214935,63787,60715,62685,5593,-30417
894,244919,4.29707,8.77119,-0.392383,90.6097,-26.6089,8.71216,-0.427246,2.50244,0.671387,0.670013,0.702057,-0.108826,0.215088,63792,60720,62687,5593,-30417
900,244925,4.16309,8.74727,-0.29668,90.5988,-26.6089,8.73962,-0.0610352,1.83105,0.488281,0.670013,0.702026,-0.108734,0.215179,63796,60722,62688,5593,-30417
906,244931,4.16787,8.76641,-0.253613,90.6042,-26.6089,8.74512,0.427246,0.854492,0.610352,0.669983,0.702026,-0.108673,0.215271,63798,60722,62692,5593,-30417
912,244937,4.24443,8.77119,-0.320605,90.6152,-26.6144,8.74512,0.610352,-0.244141,0.793457,0.669952,0.702057,-0.108612,0.215332,63799,60723,62693,5593,-30417
918,244943,4.33535,8.79033,-0.344531,90.6207,-26.6144,8.74512,1.09863,-0.488281,0.671387,0.669891,0.702087,-0.108612,0.215332,63799,60723,62693,5593,-30417
924,244949,4.36406,8.87646,-0.416309,90.6317,-26.6144,8.74512,0.976563,-0.427246,0.366211,0.669769,0.702209,-0.108582,0.215363,63798,60720,62698,5593,-30417
930,244955,4.37842,8.88125,-0.435449,90.6427,-26.6144,8.75061,-0.244141,-0.183105,0.305176,0.669739,0.702271,-0.108582,0.215363,63796,60719,62701,5593,-30417
936,244961,4.34971,8.86689,-0.435449,90.6427,-26.6144,8.75061,-0.671387,0.0610352,0.244141,0.669708,0.702271,-0.108551,0.215393,63796,60718,62704,5584,-30416
942,244967,4.31621,8.83818,-0.358887,90.6427,-26.6089,8.75061,-0.854492,0.0610352,0.0610352,0.669708,0.702301,-0.108551,0.215393,63795,60720,62705,5584,-30416
948,244973,4.254,8.82861,-0.349316,90.6427,-26.6089,8.7561,-0.854492,-0.0610352,0.12207,0.669708,0.702301,-0.108521,0.215393,63797,60723,62705,5584,-30416
954,244979,4.26357,8.82383,-0.334961,90.6427,-26.6089,8.7561,-0.793457,-0.183105,0,0.669708,0.702301,-0.10849,0.215393,63799,60726,62712,5584,-30416
960,244985,4.30186,8.83818,-0.358887,90.6482,-26.6034,8.75061,-0.549316,-0.854492,-0.244141,0.669708,0.702332,-0.108459,0.215363,63800,60726,62714,5584,-30416
966,244991,4.30664,8.88125,-0.363672,90.6537,-26.5979,8.74512,-0.793457,-0.793457,0,0.669678,0.702332,-0.108459,0.215332,63799,60726,62717,5584,-30416
972,244997,4.30664,8.88603,-0.344531,90.6537,-26.5979,8.74512,-0.915527,-0.366211,-0.183105,0.669678,0.702362,-0.108459,0.215302,63797,60725,62716,5584,-30416
978,245003,4.26357,8.82383,-0.30625,90.6537,-26.5924,8.75061,-1.28174,-0.0610352,-0.244141,0.669678,0.702362,-0.108429,0.215302,63797,60727,62714,5584,-30416
984,245009,4.16787,8.75684,-0.220117,90.6482,-26.5924,8.75061,-1.34277,-0.0610352,0.244141,0.669708,0.702332,-0.108398,0.215271,63796,60724,62709,5584,-30416
990,245015,4.16309,8.7042,-0.172266,90.6537,-26.5869,8.74512,-0.488281,-1.0376,-0.0610352,0.669708,0.702332,-0.108398,0.215271,63796,60723,62708,5584,-30416
996,245021,4.20137,8.70898,-0.215332,90.6647,-26.5869,8.73962,0.183105,-1.46484,0,0.669708,0.702362,-0.108398,0.21521,63795,60726,62706,5584,-30416
1002,245027,4.22529,8.73291,-0.263184,90.6757,-26.5814,8.72864,0.854492,-2.0752,-0.183105,0.669678,0.702423,-0.108398,0.215179,63795,60729,62705,5584,-30416
1008,245033,4.27793,8.80947,-0.31582,90.6921,-26.5814,8.71765,1.09863,-2.44141,-0.12207,0.669617,0.702484,-0.108429,0.215118,63794,60731,62704,5584,-30416
1014,245039,4.24922,8.81904,-0.349316,90.7031,-26.5759,8.70667,0.854492,-2.50244,-0.427246,0.669495,0.702637,-0.10849,0.214966,63795,60730,62704,5584,-30416
1020,245045,4.30186,8.8334,-0.406738,90.7306,-26.5649,8.6792,0.488281,-2.80762,-0.427246,0.669434,0.702728,-0.108521,0.214874,63794,60729,62702,5584,-30416
1026,245051,4.29707,8.84775,-0.416309,90.7471,-26.5594,8.66272,0.488281,-2.68555,-0.610352,0.669373,0.702789,-0.108551,0.214783,63794,60726,62701,5584,-30416
1032,245057,4.27793,8.87646,-0.406738,90.7581,-26.554,8.65173,0.549316,-2.74658,-0.366211,0.669342,0.70285,-0.108582,0.214661,63796,60728,62699,5584,-30416
1038,245063,4.25879,8.87168,-0.401953,90.7745,-26.554,8.63525,0.427246,-2.56348,-0.244141,0.669281,0.702911,-0.108612,0.214569,63798,60727,62697,5584,-30416
1044,245069,4.25879,8.77119,-0.325391,90.7855,-26.5485,8.62427,0.305176,-2.68555,-0.244141,0.669189,0.703064,-0.108673,0.214417,63802,60724,62695,5584,-30416
1050,245075,4.23486,8.78555,-0.29668,90.8075,-26.543,8.5968,0.427246,-2.62451,-0.305176,0.669159,0.703125,-0.108704,0.214325,63805,60724,62696,5584,-30416
1056,245081,4.1918,8.74727,-0.287109,90.824,-26.5375,8.58582,0.671387,-3.05176,-0.549316,0.669098,0.703186,-0.108734,0.214233,63807,60726,62698,5584,-30416
1062,245087,4.24922,8.7377,-0.311035,90.8405,-26.532,8.56384,1.09863,-3.66211,-0.610352,0.669067,0.703247,-0.108765,0.214142,63809,60727,62699,5584,-30416
1068,245093,4.27793,8.74727,-0.382813,90.8624,-26.5265,8.54736,1.46484,-4.02832,-0.732422,0.668976,0.703339,-0.108826,0.21402,63809,60731,62698,5584,-30416
1074,245099,4.36885,8.83818,-0.488086,90.8844,-26.521,8.5199,1.46484,-4.5166,-0.854492,0.668823,0.703583,-0.108917,0.213715,63808,60739,62697,5584,-30416
1080,245105,4.35928,8.88603,-0.512012,90.9283,-26.5045,8.48145,1.09863,-3.66211,-1.0376,0.668732,0.703705,-0.108978,0.213562,63809,60741,62696,5584,-30416
1086,245111,4.34971,8.94824,-0.449805,90.9393,-26.4935,8.46497,0.488281,-3.05176,-1.15967,0.668671,0.703796,-0.109009,0.21344,63810,60742,62697,5584,-30416
1092,245117,4.2875,8.92432,-0.387598,90.9503,-26.488,8.45398,-0.305176,-2.13623,-0.976563,0.66864,0.703857,-0.109009,0.213318,63812,60740,62698,5584,-30416
1098,245123,4.20615,8.86211,-0.31582,90.9558,-26.4825,8.44849,-0.549316,-2.0752,-1.0376,0.66861,0.703918,-0.109039,0.213226,63812,60735,62699,5584,-30416
1104,245129,4.15352,8.72813,-0.196191,90.9613,-26.4716,8.4375,-0.244141,-2.2583,-0.976563,0.668579,0.703979,-0.109039,0.213043,63810,60721,62702,5584,-30416
1110,245135,4.11523,8.73291,-0.205762,90.9998,-26.4606,8.40454,1.58691,-3.78418,-0.610352,0.668549,0.704071,-0.109039,0.212952,63810,60715,62702,5584,-30416
1116,245141,4.15352,8.77119,-0.229688,91.0217,-26.4551,8.38257,2.01416,-4.69971,-0.793457,0.668457,0.704163,-0.1091,0.21283,63811,60713,62703,5584,-30416
1122,245147,3.88076,8.53672,-0.344531,91.0602,-26.4496,8.3551,3.35693,-5.7373,-1.0376,0.668365,0.704315,-0.109131,0.212677,63813,60714,62703,5584,-30416
1128,245153,4.21094,8.86211,-0.301465,91.0931,-26.4386,8.32214,3.54004,-6.46973,-0.915527,0.668213,0.704498,-0.109222,0.212494,63815,60716,62701,5584,-30416
1134,245159,4.23486,8.82861,-0.502441,91.1261,-26.4331,8.28918,3.17383,-5.98145,-0.732422,0.667908,0.704865,-0.109375,0.212097,63816,60719,62699,5584,-30416
1140,245165,4.25879,8.9291,-0.44502,91.1865,-26.4166,8.23975,2.31934,-4.88281,-0.915527,0.667786,0.705017,-0.109436,0.211945,63814,60720,62697,5584,-30416
1146,245171,4.27793,8.83818,-0.449805,91.2085,-26.4111,8.21777,2.0752,-4.39453,-0.793457,0.667694,0.705139,-0.109497,0.211792,63813,60723,62699,5584,-30416
1152,245177,4.18701,8.72813,-0.502441,91.236,-26.4056,8.1958,2.31934,-4.45557,-0.793457,0.667603,0.705261,-0.109558,0.211639,63812,60725,62701,5584,-30416
1158,245183,4.19658,8.86689,-0.373242,91.2634,-26.4001,8.17383,2.50244,-4.69971,-0.915527,0.66748,0.705414,-0.109619,0.211487,63812,60729,62705,5584,-30416
1164,245189,4.18223,8.80947,-0.559863,91.2909,-26.3947,8.14636,2.92969,-4.63867,-0.793457,0.667267,0.705719,-0.109711,0.211182,63815,60739,62713,5584,-30416
1170,245195,4.20137,8.94824,-0.46416,91.3513,-26.3782,8.10242,2.62451,-4.57764,-0.671387,0.667114,0.705872,-0.109772,0.21106,63817,60741,62716,5584,-30416
1176,245201,4.22529,8.90518,-0.545508,91.3733,-26.3782,8.08044,2.01416,-4.15039,-0.183105,0.666992,0.706024,-0.109802,0.210907,63819,60743,62720,5584,-30416
1182,245207,4.25879,8.84297,-0.507227,91.3953,-26.3727,8.05847,1.83105,-3.96729,-0.305176,0.666901,0.706146,-0.109894,0.210785,63818,60746,62721,5584,-30416
1188,245213,4.22051,8.80947,-0.440234,91.4172,-26.3672,8.04199,1.70898,-3.84521,-0.366211,0.666809,0.706268,-0.109924,0.210663,63817,60748,62721,5584,-30416
1194,245219,4.24922,8.7999,-0.47373,91.4392,-26.3617,8.02002,1.83105,-4.08936,-0.488281,0.666626,0.706482,-0.110046,0.210419,63813,60756,62725,5584,-30416
1200,245225,4.29707,8.84775,-0.559863,91.4941,-26.3507,7.97058,2.56348,-4.69971,-0.549316,0.666534,0.706604,-0.110107,0.210266,63814,60758,62725,5584,-30416
1206,245231,4.19658,8.82383,-0.665137,91.5216,-26.3452,7.94861,2.80762,-4.63867,-1.09863,0.666412,0.706757,-0.110168,0.210114,63816,60758,62727,5584,-30416
1212,245237,4.33057,9.01045,-0.521582,91.5436,-26.3397,7.92664,1.83105,-4.02832,-0.671387,0.66629,0.706909,-0.110229,0.209961,63819,60756,62727,5584,-30416
1218,245243,4.32578,8.99609,-0.698633,91.5656,-26.3342,7.91016,1.09863,-3.41797,-0.488281,0.666199,0.707031,-0.11026,0.209839,63822,60755,62726,5584,-30416
1224,245249,4.22051,8.88603,-0.411523,91.571,-26.3287,7.89917,-0.244141,-2.19727,-0.671387,0.666107,0.707153,-0.110321,0.209625,63828,60754,62728,5584,-30416
1230,245255,4.20615,8.73291,-0.368457,91.5765,-26.3177,7.88818,-0.488281,-1.40381,-0.366211,0.666107,0.707184,-0.110321,0.209564,63832,60756,62730,5584,-30416
1236,245261,4.13916,8.6707,-0.411523,91.5875,-26.3123,7.88269,0.427246,-2.01416,-0.366211,0.666077,0.707214,-0.110321,0.209503,63834,60754,62734,5584,-30416
1242,245267,4.13916,8.76162,-0.425879,91.6095,-26.3068,7.8717,1.70898,-2.56348,-0.549316,0.666046,0.707275,-0.110321,0.209442,63834,60752,62737,5584,-30416
1248,245273,4.11523,8.79033,-0.540723,91.6315,-26.3013,7.85522,1.70898,-3.2959,-0.305176,0.665955,0.707367,-0.110321,0.209381,63835,60750,62741,5584,-30416
1254,245279,4.32578,8.88125,-0.645996,91.6479,-26.2958,7.83325,1.09863,-3.90625,-0.549316,0.665802,0.707581,-0.110413,0.209137,63834,60750,62746,5584,-30416
1260,245285,4.38799,8.86211,-0.641211,91.6754,-26.2848,7.80029,0.12207,-3.35693,-0.915527,0.665741,0.707642,-0.110474,0.209015,63833,60751,62749,5584,-30416
1266,245291,4.321,8.90996,-0.631641,91.6864,-26.2793,7.78931,-0.244141,-2.80762,-1.0376,0.66571,0.707703,-0.110504,0.208893,63832,60752,62751,5584,-30416
1272,245297,4.27793,8.89082,-0.598145,91.6919,-26.2683,7.77832,-0.732422,-1.89209,-0.976563,0.66568,0.707764,-0.110504,0.208801,63831,60754,62753,5584,-30416
1278,245303,4.22051,8.89082,-0.507227,91.6919,-26.2628,7.77283,-1.70898,-1.46484,-1.2207,0.66568,0.707794,-0.110504,0.20871,63828,60753,62756,5584,-30416
1284,245309,4.14395,8.7377,-0.31582,91.6864,-26.2573,7.76733,-1.89209,-1.40381,-0.915527,0.665741,0.707794,-0.110504,0.208557,63826,60753,62761,5584,-30416
1290,245315,4.13438,8.71377,-0.287109,91.6974,-26.2408,7.75085,-0.732422,-2.19727,-0.793457,0.665771,0.707794,-0.110504,0.208466,63827,60753,62760,5584,-30416
1296,245321,4.23008,8.68984,-0.392383,91.7139,-26.2354,7.73987,1.09863,-3.17383,-1.2207,0.665771,0.707825,-0.110504,0.208374,63828,60755,62757,5584,-30416
1302,245327,4.17266,8.82383,-0.334961,91.7303,-26.2244,7.72339,1.15967,-3.2959,-0.732422,0.66571,0.707916,-0.110504,0.208252,63829,60758,62755,5584,-30416
1308,245333,4.16309,8.83818,-0.526367,91.7523,-26.2189,7.70142,1.58691,-4.5166,-0.732422,0.665619,0.708008,-0.110535,0.20813,63827,60762,62752,5584,-30416
1314,245339,4.23008,8.91953,-0.574219,91.7743,-26.2134,7.67395,1.64795,-4.63867,-0.854492,0.665466,0.708252,-0.110657,0.207825,63824,60771,62751,5584,-30416
1320,245345,4.27314,8.88603,-0.497656,91.8127,-26.2024,7.6355,0.610352,-3.60107,-0.549316,0.665375,0.708344,-0.110718,0.207703,63824,60771,62751,5584,-30416
1326,245351,4.21094,8.80469,-0.46416,91.8237,-26.1969,7.61902,0.427246,-2.99072,-0.610352,0.665314,0.708435,-0.110779,0.207581,63825,60770,62749,5584,-30416
1332,245357,4.17744,8.76162,-0.459375,91.8402,-26.1914,7.60803,0.732422,-3.05176,-0.732422,0.665283,0.708496,-0.110809,0.207458,63826,60768,62748,5584,-30416
1338,245363,4.12959,8.77119,-0.406738,91.8567,-26.1859,7.59155,1.34277,-3.23486,-0.488281,0.665222,0.708588,-0.11084,0.207367,63828,60765,62746,5584,-30416
1344,245369,4.17266,8.79033,-0.492871,91.8787,-26.1804,7.56958,2.0752,-3.96729,-0.427246,0.665039,0.708801,-0.110931,0.207123,63832,60762,62750,5584,-30416
1350,245375,4.14395,8.8334,-0.564648,91.9336,-26.1694,7.53113,2.74658,-4.39453,-0.427246,0.664917,0.708923,-0.110962,0.207031,63834,60764,62755,5584,-30416
1356,245381,4.21094,8.91475,-0.598145,91.9611,-26.1694,7.50916,2.31934,-4.39453,-0.244141,0.664795,0.709076,-0.111023,0.206879,63835,60763,62759,5584,-30416
1362,245387,4.24443,8.85732,-0.660352,91.983,-26.1639,7.48718,2.0752,-4.02832,-0.366211,0.664673,0.709229,-0.111084,0.206757,63836,60763,62762,5584,-30416
1368,245393,4.26357,8.86689,-0.650781,92.0105,-26.1584,7.4707,2.0752,-3.84521,-0.183105,0.664581,0.709351,-0.111145,0.206635,63836,60763,62764,5584,-30416
1374,245399,4.21572,8.90039,-0.665137,92.0325,-26.153,7.45422,1.95313,-3.479,-0.12207,0.664368,0.709564,-0.111237,0.206451,63840,60765,62765,5584,-30416
1380,245405,4.23486,8.88603,-0.62207,92.0654,-26.1475,7.42676,1.2207,-2.99072,-0.366211,0.664307,0.709686,-0.111267,0.20636,63841,60767,62763,5584,-30416
1386,245411,4.23965,8.87168,-0.607715,92.0874,-26.142,7.41028,1.34277,-2.92969,-0.366211,0.664215,0.709778,-0.111298,0.206268,63843,60770,62759,5584,-30416
1392,245417,4.21094,8.87646,-0.564648,92.1039,-26.142,7.39929,1.2207,-2.99072,-0.0610352,0.664154,0.709869,-0.111328,0.206177,63844,60771,62754,5584,-30416
1398,245423,4.22051,8.88603,-0.60293,92.1204,-26.1365,7.38831,1.2207,-2.56348,-0.12207,0.664063,0.709961,-0.111359,0.206085,63846,60771,62753,5584,-30416
1404,245429,4.20615,8.90039,-0.636426,92.1313,-26.1365,7.37183,1.09863,-2.44141,0.0610352,0.66391,0.710114,-0.111389,0.205963,63846,60775,62755,5576,-30415
1410,245435,4.1918,8.89561,-0.617285,92.1643,-26.131,7.35535,0.732422,-2.0752,0,0.663849,0.710205,-0.11142,0.205902,63846,60776,62755,5576,-30415
1416,245441,4.1918,8.87646,-0.631641,92.1753,-26.1255,7.34985,0.549316,-1.70898,0.12207,0.663788,0.710266,-0.11145,0.205841,63847,60775,62754,5576,-30415
1422,245447,4.18701,8.87168,-0.598145,92.1863,-26.1255,7.33887,0.427246,-2.01416,0.12207,0.663727,0.710327,-0.11145,0.205811,63849,60775,62751,5576,-30415
1428,245453,4.21094,8.81426,-0.617285,92.1973,-26.1255,7.33337,0.305176,-1.89209,0.244141,0.663696,0.710388,-0.111481,0.20575,63850,60774,62749,5576,-30415
1434,245459,4.27793,8.87646,-0.655566,92.2083,-26.12,7.32239,0.488281,-2.0752,-0.12207,0.663605,0.71051,-0.111511,0.205658,63852,60776,62753,5576,-30415
1440,245465,4.2875,8.93867,-0.727344,92.2302,-26.1145,7.30591,0.12207,-1.70898,-0.244141,0.663544,0.710571,-0.111542,0.205597,63852,60778,62753,5576,-30415
1446,245471,4.254,8.95303,-0.741699,92.2357,-26.109,7.30042,-0.366211,-1.0376,-0.244141,0.663483,0.710632,-0.111542,0.205536,63851,60777,62754,5576,-30415
1452,245477,4.254,8.90518,-0.655566,92.2357,-26.109,7.30042,-1.15967,-0.671387,-0.183105,0.663483,0.710663,-0.111542,0.205505,63849,60777,62752,5576,-30415
1458,245483,4.20615,8.84297,-0.593359,92.2302,-26.1035,7.30042,-1.64795,-0.305176,-0.183105,0.663483,0.710663,-0.111511,0.205475,63847,60777,62751,5576,-30415
1464,245489,4.1918,8.76162,-0.516797,92.2302,-26.1035,7.30042,-1.58691,-0.305176,0.12207,0.663513,0.710632,-0.111511,0.205444,63844,60776,62751,5576,-30415
1470,245495,4.16309,8.81904,-0.531152,92.2302,-26.098,7.30042,-0.610352,-0.793457,-0.244141,0.663544,0.710632,-0.111481,0.205414,63844,60778,62754,5576,-30415
1476,245501,4.17266,8.86689,-0.598145,92.2357,-26.0925,7.29492,-0.488281,-1.0376,-0.183105,0.663513,0.710663,-0.111481,0.205383,63845,60780,62755,5576,-30415
1482,245507,4.1583,8.90039,-0.6125,92.2412,-26.0925,7.29492,-0.732422,-0.915527,0.244141,0.663513,0.710663,-0.11145,0.205353,63845,60742,62757,5576,-30415
1488,245513,4.19658,8.86211,-0.593359,92.2412,-26.0925,7.29492,-0.854492,-0.732422,0.12207,0.663483,0.710693,-0.11145,0.205353,63846,60708,62758,5576,-30415
1494,245519,4.23965,8.85732,-0.6125,92.2412,-26.087,7.29492,-0.915527,-0.793457,0.12207,0.663452,0.710724,-0.11142,0.205322,63847,60650,62756,5576,-30415
1500,245525,4.20137,8.85732,-0.617285,92.2467,-26.087,7.29492,-0.610352,-0.549316,0,0.663452,0.710754,-0.11142,0.205322,63848,60666,62755,5576,-30415
1506,245531,4.19658,8.89082,-0.593359,92.2522,-26.0815,7.29492,-0.793457,-0.427246,0.12207,0.663422,0.710754,-0.111389,0.205322,63848,60678,62751,5576,-30415
1512,245537,4.1918,8.84297,-0.617285,92.2522,-26.0815,7.30042,-0.976563,-0.183105,0.12207,0.663422,0.710785,-0.111359,0.205322,63845,60689,62749,5576,-30415
1518,245543,4.16309,8.82861,-0.588574,92.2522,-26.0815,7.30042,-1.0376,-0.183105,0.12207,0.663422,0.710785,-0.111328,0.205322,63844,60699,62750,5576,-30415
1524,245549,4.15352,8.76641,-0.564648,92.2522,-26.076,7.30591,-1.0376,-0.12207,0.183105,0.663422,0.710785,-0.111298,0.205322,63845,60717,62751,5576,-30415
1530,245555,4.14395,8.82861,-0.583789,92.2577,-26.076,7.30591,-0.427246,-0.610352,0.183105,0.663422,0.710785,-0.111267,0.205322,63848,60724,62753,5576,-30415
1536,245561,4.21094,8.84297,-0.626855,92.2632,-26.076,7.30042,-0.366211,-0.793457,0.366211,0.663391,0.710815,-0.111267,0.205322,63850,60730,62756,5576,-30415
1542,245567,4.23486,8.89082,-0.669922,92.2632,-26.076,7.30042,-0.549316,-0.488281,0.366211,0.663361,0.710846,-0.111267,0.205322,63848,60734,62756,5576,-30415
1548,245573,4.20137,8.88125,-0.674707,92.2632,-26.076,7.30591,-1.0376,-0.12207,0.427246,0.66333,0.710876,-0.111267,0.205322,63847,60736,62756,5576,-30415
1554,245579,4.14395,8.80469,-0.60293,92.2632,-26.076,7.30591,-1.28174,0.244141,0.366211,0.663361,0.710846,-0.111237,0.205353,63848,60738,62756,5576,-30415
1560,245585,4.16787,8.75205,-0.574219,92.2577,-26.076,7.31689,-1.0376,0,0.366211,0.663361,0.710846,-0.111206,0.205353,63848,60740,62756,5576,-30415
1566,245591,4.1918,8.78555,-0.617285,92.2632,-26.0706,7.3114,-0.549316,-0.549316,0.183105,0.663361,0.710846,-0.111206,0.205383,63849,60742,62757,5576,-30415
1572,245597,4.22529,8.83818,-0.626855,92.2687,-26.0706,7.3114,-0.427246,-0.549316,0.12207,0.66333,0.710876,-0.111176,0.205353,63850,60747,62758,5576,-30415
1578,245603,4.23965,8.94346,-0.636426,92.2687,-26.0706,7.3114,-0.732422,-0.366211,0.12207,0.66333,0.710907,-0.111176,0.205353,63851,60751,62757,5576,-30415
1584,245609,4.18223,8.87646,-0.574219,92.2687,-26.0651,7.31689,-1.0376,0.12207,0.12207,0.6633,0.710907,-0.111115,0.205353,63852,60759,62750,5576,-30415
1590,245615,4.13916,8.81426,-0.512012,92.2632,-26.0651,7.32239,-1.40381,0.244141,0.244141,0.66333,0.710907,-0.111115,0.205353,63853,60760,62745,5576,-30415
1596,245621,4.11045,8.75684,-0.449805,92.2632,-26.0651,7.32239,-0.793457,-0.183105,0.427246,0.66333,0.710876,-0.111084,0.205383,63852,60757,62743,5576,-30415
1602,245627,4.10566,8.75684,-0.492871,92.2687,-26.0651,7.32239,-0.0610352,-0.610352,0.427246,0.66333,0.710876,-0.111084,0.205383,63850,60755,62741,5576,-30415
1608,245633,4.11045,8.81904,-0.516797,92.2797,-26.0651,7.32239,0.305176,-0.793457,0.244141,0.6633,0.710907,-0.111084,0.205383,63851,60754,62743,5576,-30415
1614,245639,4.20137,8.89561,-0.655566,92.2852,-26.0596,7.31689,0.488281,-1.2207,0.183105,0.663208,0.711029,-0.111053,0.205322,63853,60759,62750,5576,-30415
1620,245645,4.23965,8.90039,-0.641211,92.3016,-26.0596,7.30591,0.0610352,-1.15967,0.244141,0.663177,0.71106,-0.111084,0.205322,63853,60724,62754,5576,-30415
1626,245651,4.26357,8.89561,-0.689063,92.3071,-26.0596,7.30591,-0.0610352,-0.976563,0.305176,0.663116,0.711121,-0.111084,0.205292,63854,60732,62759,5576,-30415
1632,245657,4.24443,8.90996,-0.645996,92.3126,-26.0596,7.30042,-0.244141,-0.671387,0.244141,0.663086,0.711151,-0.111084,0.205261,63852,60739,62764,5576,-30415
1638,245663,4.21572,8.91953,-0.655566,92.3181,-26.0541,7.30591,-0.610352,-0.244141,0.305176,0.663055,0.711182,-0.111084,0.205261,63850,60744,62764,5576,-30415
1644,245669,4.1583,8.87646,-0.574219,92.3181,-26.0596,7.30591,-0.854492,-0.0610352,0.549316,0.663055,0.711182,-0.111053,0.205261,63848,60750,62763,5576,-30415
1650,245675,4.13916,8.79033,-0.588574,92.3181,-26.0541,7.30591,-0.732422,-0.427246,0.305176,0.663055,0.711182,-0.111023,0.205261,63849,60753,62761,5576,-30415
1656,245681,4.1583,8.79033,-0.531152,92.3236,-26.0541,7.30591,-0.427246,-0.549316,0.305176,0.663025,0.711212,-0.111023,0.205261,63851,60758,62760,5576,-30415
1662,245687,4.16309,8.82861,-0.574219,92.3291,-26.0541,7.30042,0.0610352,-0.793457,0.305176,0.663025,0.711243,-0.111023,0.205261,63851,60762,62760,5576,-30415
1668,245693,4.1583,8.85254,-0.636426,92.3346,-26.0541,7.30042,0.0610352,-0.854492,0.244141,0.662964,0.711273,-0.111023,0.205231,63850,60726,62761,5576,-30415
1674,245699,4.1918,8.85254,-0.598145,92.3456,-26.0486,7.30042,-0.0610352,-0.976563,0.183105,0.662903,0.711334,-0.110992,0.2052,63848,60702,62762,5576,-30415
1680,245705,4.17744,8.78555,-0.564648,92.3566,-26.0486,7.28943,-0.366211,-1.09863,0.12207,0.662872,0.711365,-0.110992,0.2052,63849,60710,62759,5576,-30415
1686,245711,4.18223,8.78076,-0.545508,92.3621,-26.0431,7.28943,0.0610352,-1.15967,-0.0610352,0.662842,0.711395,-0.110992,0.20517,63849,60716,62760,5576,-30415
1692,245717,4.16787,8.79512,-0.516797,92.373,-26.0431,7.28394,0.610352,-1.34277,0.0610352,0.662811,0.711456,-0.110992,0.205139,63850,60720,62760,5576,-30415
1698,245723,4.1583,8.79033,-0.579004,92.384,-26.0376,7.27844,0.976563,-1.58691,-0.0610352,0.66275,0.711517,-0.110992,0.205109,63850,60727,62761,5576,-30415
1704,245729,4.19658,8.81904,-0.617285,92.4005,-26.0376,7.26746,0.915527,-2.19727,-0.0610352,0.662628,0.71167,-0.110992,0.205017,63851,60738,62767,5576,-30415
1710,245735,4.23486,8.83818,-0.693848,92.4335,-26.0266,7.24548,1.09863,-2.44141,-0.183105,0.662567,0.711731,-0.111023,0.204926,63850,60743,62772,5576,-30415
1716,245741,4.22529,8.87168,-0.674707,92.4445,-26.0266,7.2345,0.854492,-2.13623,-0.12207,0.662476,0.711823,-0.111053,0.204865,63850,60748,62777,5576,-30415
1722,245747,4.22051,8.84297,-0.641211,92.4554,-26.0211,7.229,0.610352,-1.70898,-0.0610352,0.662415,0.711914,-0.111053,0.204803,63850,60752,62780,5576,-30415
1728,245753,4.19658,8.81426,-0.655566,92.4664,-26.0156,7.22351,0.305176,-1.83105,-0.305176,0.662384,0.711975,-0.111053,0.204742,63850,60754,62783,5576,-30415
1734,245759,4.16309,8.7999,-0.60293,92.4774,-26.0156,7.21252,0.427246,-1.95313,-0.244141,0.662292,0.712067,-0.111084,0.204651,63853,60757,62793,5576,-30415
1740,245765,4.1583,8.80469,-0.617285,92.5049,-26.0046,7.19055,0.915527,-2.56348,-0.671387,0.662231,0.712158,-0.111084,0.204559,63854,60761,62795,5576,-30415
1746,245771,4.16787,8.82383,-0.645996,92.5214,-25.9991,7.17957,0.976563,-2.74658,-0.427246,0.66217,0.71225,-0.111084,0.204468,63853,60764,62794,5576,-30415
1752,245777,4.18223,8.83818,-0.626855,92.5378,-25.9937,7.16309,0.854492,-2.80762,-0.488281,0.662109,0.712311,-0.111115,0.204376,63852,60769,62790,5576,-30415
1758,245783,4.1918,8.84297,-0.674707,92.5543,-25.9882,7.1521,1.0376,-2.86865,-0.427246,0.662018,0.712402,-0.111145,0.204285,63851,60772,62785,5576,-30415
1764,245789,4.18223,8.88125,-0.708203,92.5708,-25.9827,7.13562,1.0376,-2.86865,-0.366211,0.661896,0.712585,-0.111206,0.204102,63851,60777,62778,5576,-30415
1770,245795,4.20615,8.90039,-0.717773,92.6038,-25.9772,7.11365,1.0376,-2.50244,-0.427246,0.661835,0.712646,-0.111237,0.20401,63852,60780,62773,5576,-30415
1776,245801,4.18223,8.89561,-0.732129,92.6147,-25.9717,7.10266,0.671387,-2.44141,-0.305176,0.661774,0.712738,-0.111237,0.203949,63852,60782,62771,5576,-30415
1782,245807,4.16787,8.9291,-0.76084,92.6257,-25.9662,7.09167,0.488281,-2.0752,-0.366211,0.661713,0.712799,-0.111267,0.203857,63853,60784,62771,5576,-30415
1788,245813,4.18223,8.92432,-0.76084,92.6367,-25.9607,7.08069,0.183105,-1.70898,-0.305176,0.661652,0.71286,-0.111267,0.203796,63854,60785,62771,5576,-30415
1794,245819,4.14395,8.84297,-0.665137,92.6422,-25.9607,7.0752,-0.244141,-1.46484,-0.183105,0.661591,0.712952,-0.111298,0.203674,63855,60783,62776,5576,-30415
1800,245825,4.11045,8.79512,-0.583789,92.6532,-25.9497,7.06421,-0.671387,-1.28174,-0.183105,0.661591,0.712982,-0.111298,0.203613,63856,60781,62779,5576,-30415
1806,245831,4.10088,8.77119,-0.550293,92.6587,-25.9497,7.05872,-0.12207,-1.58691,-0.305176,0.66156,0.713013,-0.111298,0.203583,63855,60778,62781,5576,-30415
1812,245837,4.09609,8.74248,-0.540723,92.6752,-25.9442,7.04773,0.671387,-2.44141,-0.305176,0.66153,0.713043,-0.111328,0.203522,63855,60776,62783,5576,-30415
1818,245843,4.09609,8.78076,-0.555078,92.6917,-25.9387,7.03125,1.2207,-3.05176,-0.183105,0.661469,0.713135,-0.111328,0.20343,63856,60778,62782,5576,-30415
1824,245849,4.18223,8.84775,-0.583789,92.7136,-25.9332,7.01477,1.77002,-3.2959,-0.427246,0.661316,0.713318,-0.111389,0.203247,63857,60742,62779,5576,-30415
1830,245855,3.82334,8.61328,-0.746484,92.7576,-25.9222,6.9873,2.19727,-3.479,-0.732422,0.661224,0.71344,-0.11142,0.203156,63856,60710,62777,5576,-30415
1836,245861,4.07695,8.91953,-0.669922,92.785,-25.9167,6.96533,2.19727,-4.27246,-0.488281,0.661102,0.713562,-0.11145,0.203033,63856,60719,62775,5576,-30415
1842,245867,4.16787,8.82383,-0.75127,92.807,-25.9113,6.94336,1.89209,-3.96729,-0.366211,0.661011,0.713684,-0.111511,0.202911,63855,60686,62775,5576,-30415
1848,245873,4.22051,8.88125,-0.765625,92.829,-25.9058,6.92688,1.95313,-3.78418,-0.305176,0.660889,0.713806,-0.111542,0.202789,63854,60697,62776,5576,-30415
1854,245879,4.21572,8.90518,-0.803906,92.851,-25.9003,6.91589,1.83105,-3.23486,-0.549316,0.660706,0.71405,-0.111603,0.202576,63855,60714,62779,5576,-30415
1860,245885,4.22529,8.92432,-0.842188,92.8839,-25.8893,6.88293,0.976563,-3.05176,-0.671387,0.660614,0.714142,-0.111633,0.202484,63856,60721,62784,5576,-30415
1866,245891,4.21094,8.91953,-0.837402,92.9004,-25.8838,6.87195,0.732422,-2.62451,-0.366211,0.660553,0.714233,-0.111633,0.202393,63858,60728,62788,5576,-30415
1872,245897,4.19658,8.89561,-0.76084,92.9114,-25.8783,6.86646,0.366211,-2.2583,-0.488281,0.660492,0.714325,-0.111664,0.202301,63859,60736,62789,5576,-30415
1878,245903,4.16309,8.88603,-0.808691,92.9224,-25.8728,6.85547,0.12207,-2.01416,-0.244141,0.660431,0.714386,-0.111664,0.202209,63859,60702,62791,5576,-30415
1884,245909,4.13916,8.84775,-0.708203,92.9279,-25.8728,6.84998,0.12207,-1.64795,-0.244141,0.66037,0.714478,-0.111664,0.202118,63856,60721,62791,5576,-30415
1890,245915,4.11045,8.82861,-0.689063,92.9498,-25.8618,6.83899,0.305176,-1.70898,0,0.660309,0.714539,-0.111664,0.202057,63854,60728,62791,5576,-30415
1896,245921,4.11045,8.81426,-0.703418,92.9608,-25.8618,6.8335,0.610352,-1.70898,-0.0610352,0.660278,0.7146,-0.111664,0.202026,63853,60695,62793,5576,-30415
1902,245927,4.13438,8.83818,-0.703418,92.9773,-25.8563,6.828,0.854492,-1.89209,0.183105,0.660217,0.714661,-0.111664,0.201965,63852,60666,62793,5576,-30415
1908,245933,4.15352,8.85732,-0.794336,92.9883,-25.8563,6.82251,1.0376,-1.95313,0.305176,0.660156,0.714722,-0.111664,0.201935,63852,60639,62795,5576,-30415
1914,245939,4.23008,8.91475,-0.880469,93.0048,-25.8563,6.81152,0.976563,-2.01416,0.183105,0.660004,0.714905,-0.111664,0.201874,63853,60594,62798,5576,-30415
1920,245945,4.254,8.93867,-0.90918,93.0212,-25.8508,6.81152,-0.12207,-0.854492,0.305176,0.659943,0.714966,-0.111664,0.201874,63853,60574,62795,5576,-30415
1926,245951,4.22529,8.92432,-0.823047,93.0212,-25.8508,6.81702,-0.793457,-0.305176,0.305176,0.659882,0.714996,-0.111633,0.201874,63853,60557,62792,5576,-30415
1932,245957,4.18223,8.87168,-0.794336,93.0212,-25.8508,6.82251,-1.2207,0.0610352,0.244141,0.659882,0.714996,-0.111603,0.201904,63852,60541,62788,5576,-30415
1938,245963,4.15352,8.82861,-0.736914,93.0212,-25.8508,6.8335,-1.15967,0,0.244141,0.659882,0.714996,-0.111542,0.201935,63851,60528,62787,5576,-30415
1944,245969,4.14873,8.82383,-0.746484,93.0212,-25.8453,6.83899,-0.915527,-0.244141,0.183105,0.659851,0.715027,-0.11145,0.201996,63852,60507,62789,5576,-30415
1950,245975,4.14873,8.86211,-0.727344,93.0212,-25.8453,6.84448,-0.915527,-0.244141,0.305176,0.659851,0.715027,-0.11142,0.202026,63853,60537,62790,5576,-30415
1956,245981,4.13916,8.87646,-0.717773,93.0267,-25.8453,6.84998,-0.915527,-0.305176,0.488281,0.659821,0.715057,-0.111389,0.202026,63854,60562,62791,5576,-30415
1962,245987,4.16787,8.86689,-0.756055,93.0267,-25.8453,6.85547,-0.976563,-0.0610352,0.366211,0.659821,0.715057,-0.111359,0.202057,63854,60583,62790,5576,-30415
1968,245993,4.16787,8.85732,-0.727344,93.0267,-25.8453,6.85547,-1.0376,0,0.427246,0.65979,0.715057,-0.111328,0.202087,63855,60601,62789,5576,-30415
1974,245999,4.14873,8.85254,-0.746484,93.0267,-25.8453,6.86096,-1.0376,0,0.366211,0.65979,0.715088,-0.111298,0.202118,63858,60636,62789,5576,-30415
1980,246005,4.12959,8.85254,-0.717773,93.0267,-25.8453,6.86096,-1.2207,0.0610352,0.244141,0.65979,0.715088,-0.111267,0.202118,63810,60650,62787,5576,-30415
1986,246011,4.14873,8.83818,-0.732129,93.0212,-25.8398,6.86096,-1.46484,-0.0610352,0.305176,0.65979,0.715057,-0.111267,0.202118,63768,60661,62787,5576,-30415
1992,246017,4.13916,8.82383,-0.698633,93.0212,-25.8398,6.86096,-1.34277,-0.12207,0.183105,0.659821,0.715057,-0.111267,0.202087,63779,60674,62787,5576,-30415
1998,246023,4.18223,8.83818,-0.732129,93.0212,-25.8398,6.86096,-1.15967,-0.244141,0.12207,0.659821,0.715057,-0.111267,0.202087,63789,60685,62785,5576,-30415
2004,246029,4.16787,8.85732,-0.765625,93.0212,-25.8398,6.86096,-1.15967,-0.183105,0.183105,0.659851,0.715057,-0.111267,0.202057,63802,60669,62782,5576,-30415
2010,246035,4.13438,8.88603,-0.75127,93.0212,-25.8344,6.86096,-1.2207,0.0610352,0.183105,0.659851,0.715057,-0.111237,0.202057,63807,60644,62782,5576,-30415
2016,246041,4.1248,8.87646,-0.741699,93.0157,-25.8344,6.86646,-1.52588,0.244141,0.305176,0.659851,0.715057,-0.111237,0.202057,63812,60621,62782,5576,-30415
2022,246047,4.10566,8.84297,-0.703418,93.0103,-25.8344,6.87195,-1.46484,0.305176,0.366211,0.659851,0.715027,-0.111206,0.202057,63817,60640,62785,5576,-30415
2028,246053,4.10566,8.81426,-0.684277,93.0103,-25.8344,6.87195,-1.34277,0,0.427246,0.659882,0.715027,-0.111176,0.202087,63821,60655,62786,5576,-30415
2034,246059,4.1248,8.81426,-0.698633,93.0103,-25.8344,6.87195,-1.15967,-0.0610352,0.366211,0.659882,0.714996,-0.111176,0.202087,63827,60681,62789,5576,-30415
2040,246065,4.16309,8.85254,-0.794336,93.0157,-25.8344,6.87195,-0.610352,-0.488281,0.427246,0.659851,0.715027,-0.111176,0.202087,63830,60693,62791,5576,-30415
2046,246071,4.1918,8.91953,-0.808691,93.0212,-25.8289,6.86646,-0.976563,-0.366211,0.366211,0.659851,0.715057,-0.111176,0.202087,63834,60705,62795,5576,-30415
2052,246077,4.23008,8.9291,-0.77998,93.0157,-25.8344,6.87195,-1.52588,0.0610352,0.610352,0.659851,0.715057,-0.111176,0.202057,63838,60715,62793,5576,-30415
2058,246083,4.19658,8.89561,-0.741699,93.0103,-25.8344,6.87744,-1.83105,0.488281,0.488281,0.659851,0.715057,-0.111176,0.202087,63842,60684,62791,5576,-30415
2064,246089,4.10088,8.81426,-0.727344,93.0048,-25.8344,6.88293,-1.77002,0.671387,0.366211,0.659912,0.714996,-0.111115,0.202118,63845,60702,62784,5576,-30415
2070,246095,4.09609,8.81904,-0.693848,93.0048,-25.8289,6.88843,-1.0376,0.366211,0.366211,0.659912,0.714996,-0.111084,0.202148,63845,60712,62783,5576,-30415
2076,246101,4.08174,8.87646,-0.712988,92.9993,-25.8289,6.88843,-1.15967,0,0.488281,0.659912,0.714996,-0.111084,0.202148,63844,60720,62782,5576,-30415
2082,246107,4.12002,8.8334,-0.693848,92.9993,-25.8289,6.88843,-1.40381,-0.0610352,0.488281,0.659912,0.714966,-0.111084,0.202179,63847,60729,62783,5576,-30415
2088,246113,4.15352,8.80947,-0.660352,92.9993,-25.8344,6.88843,-0.915527,-0.0610352,0.671387,0.659912,0.714966,-0.111084,0.202179,63848,60737,62783,5576,-30415
2094,246119,4.1583,8.82383,-0.741699,93.0048,-25.8344,6.89392,-0.732422,-0.0610352,0.488281,0.659912,0.714996,-0.111053,0.202179,63853,60710,62788,5576,-30415
2100,246125,4.15352,8.87646,-0.803906,93.0048,-25.8344,6.89392,-0.549316,-0.0610352,0.488281,0.659882,0.714996,-0.111053,0.202209,63855,60681,62790,5576,-30415
2106,246131,4.17744,8.89561,-0.794336,93.0103,-25.8344,6.89941,-0.732422,-0.305176,0.488281,0.659851,0.715027,-0.111023,0.202209,63857,60654,62792,5576,-30415
2112,246137,4.1918,8.89082,-0.784766,93.0103,-25.8344,6.89941,-1.09863,-0.183105,0.488281,0.659851,0.715027,-0.110992,0.20224,63858,60629,62793,5576,-30415
2118,246143,4.16787,8.8334,-0.75127,93.0103,-25.8344,6.90491,-1.28174,0.244141,0.610352,0.659851,0.715027,-0.110992,0.20224,63859,60608,62792,5576,-30415
2124,246149,4.13916,8.80947,-0.717773,93.0048,-25.8344,6.9104,-1.15967,0.12207,0.366211,0.659851,0.715027,-0.110931,0.202301,63859,60605,62794,5576,-30415
2130,246155,4.14873,8.83818,-0.77041,93.0103,-25.8289,6.92139,-0.915527,0.0610352,0.305176,0.659821,0.715027,-0.110901,0.202332,63857,60584,62791,5576,-30415
2136,246161,4.12002,8.84775,-0.75127,93.0103,-25.8289,6.92688,-0.549316,-0.12207,0.427246,0.659821,0.715057,-0.11084,0.202362,63856,60566,62788,5576,-30415
2142,246167,4.1583,8.87168,-0.75127,93.0103,-25.8289,6.93237,-1.0376,-0.244141,0.427246,0.65979,0.715057,-0.110809,0.202393,63855,60552,62785,5576,-30415
2148,246173,4.17744,8.86211,-0.76084,93.0103,-25.8289,6.93787,-1.0376,-0.12207,0.427246,0.65979,0.715088,-0.110779,0.202423,63855,60538,62781,5576,-30415
2154,246179,4.14395,8.87168,-0.708203,93.0103,-25.8289,6.94336,-1.2207,-0.0610352,0.427246,0.65976,0.715088,-0.110718,0.202484,63856,60513,62774,5576,-30415
2160,246185,4.12959,8.82383,-0.732129,93.0103,-25.8289,6.95435,-1.0376,0.0610352,0.366211,0.65976,0.715088,-0.110657,0.202515,63857,60542,62772,5576,-30415
2166,246191,4.11045,8.8334,-0.736914,93.0103,-25.8289,6.95984,-0.915527,-0.244141,0.305176,0.65976,0.715088,-0.110626,0.202545,63857,60568,62771,5576,-30415
2172,246197,4.15352,8.85254,-0.722559,93.0103,-25.8289,6.95984,-0.854492,-0.244141,0.366211,0.659729,0.715088,-0.110596,0.202545,63857,60589,62769,5576,-30415
2178,246203,4.15352,8.80947,-0.727344,93.0157,-25.8289,6.95984,-0.854492,-0.427246,0.488281,0.659729,0.715118,-0.110596,0.202576,63856,60609,62770,5576,-30415
2184,246209,4.16309,8.86211,-0.75127,93.0212,-25.8289,6.95984,-0.488281,-0.427246,0.488281,0.659698,0.715149,-0.110565,0.202576,63856,60645,62774,5576,-30415
2190,246215,4.14873,8.91475,-0.76084,93.0212,-25.8234,6.97083,-0.732422,-0.12207,0.366211,0.659668,0.715179,-0.110535,0.202606,63855,60620,62777,5576,-30415
2196,246221,4.1583,8.87646,-0.77998,93.0267,-25.8234,6.97083,-0.915527,-0.0610352,0.488281,0.659637,0.715179,-0.110504,0.202606,63854,60598,62778,5576,-30415
2202,246227,4.13916,8.86689,-0.722559,93.0212,-25.8289,6.97632,-1.28174,-0.0610352,0.610352,0.659637,0.715179,-0.110474,0.202637,63855,60619,62778,5576,-30415
2208,246233,4.15352,8.84775,-0.722559,93.0212,-25.8234,6.97632,-1.15967,0,0.366211,0.659637,0.715179,-0.110474,0.202637,63855,60637,62779,5576,-30415
2214,246239,4.16787,8.82861,-0.722559,93.0212,-25.8234,6.98181,-1.0376,-0.183105,0.488281,0.659637,0.71521,-0.110443,0.202698,63852,60594,62781,5576,-30415
2220,246245,4.18223,8.88125,-0.775195,93.0267,-25.8234,6.9873,-0.915527,-0.366211,0.549316,0.659607,0.71521,-0.110413,0.202698,63851,60576,62783,5576,-30415
2226,246251,4.19658,8.88603,-0.789551,93.0267,-25.8234,6.9928,-1.0376,-0.305176,0.305176,0.659576,0.71521,-0.110382,0.202728,63848,60561,62782,5576,-30415
2232,246257,4.18223,8.90518,-0.75127,93.0267,-25.8234,6.99829,-1.28174,0.0610352,0.488281,0.659576,0.71524,-0.110352,0.202728,63847,60545,62779,5576,-30415
2238,246263,4.18223,8.88125,-0.722559,93.0212,-25.8234,7.00378,-1.52588,0.366211,0.427246,0.659576,0.71524,-0.110321,0.202759,63846,60531,62777,5576,-30415
2244,246269,4.09131,8.79512,-0.655566,93.0212,-25.8234,7.00928,-1.46484,0.610352,0.488281,0.659607,0.71521,-0.110229,0.20285,63845,60506,62772,5576,-30415
2250,246275,4.08174,8.7999,-0.650781,93.0157,-25.8234,7.02026,-1.0376,0,0.488281,0.659607,0.71521,-0.110199,0.202881,63844,60536,62770,5576,-30415
2256,246281,4.09609,8.78555,-0.674707,93.0212,-25.8234,7.02576,-0.671387,-0.366211,0.488281,0.659576,0.71521,-0.110168,0.202911,63845,60563,62767,5576,-30415
2262,246287,4.13438,8.80947,-0.674707,93.0267,-25.8234,7.02576,-0.488281,-0.671387,0.671387,0.659576,0.71521,-0.110168,0.202911,63847,60588,62764,5576,-30415
2268,246293,4.15352,8.88125,-0.736914,93.0267,-25.8234,7.02576,-0.488281,-0.549316,0.488281,0.659546,0.71524,-0.110168,0.202942,63848,60609,62762,5576,-30415
2274,246299,4.14395,8.84297,-0.756055,93.0322,-25.8234,7.02576,-0.549316,-0.244141,0.488281,0.659485,0.715271,-0.110138,0.202972,63853,60569,62767,5576,-30415
2280,246305,4.14395,8.86689,-0.703418,93.0322,-25.8289,7.03674,-0.732422,-0.0610352,0.671387,0.659485,0.715302,-0.110107,0.202972,63856,60592,62770,5576,-30415
2286,246311,4.14395,8.82383,-0.736914,93.0377,-25.8289,7.03674,-0.610352,-0.244141,0.610352,0.659454,0.715302,-0.110077,0.203003,63859,60614,62774,5576,-30415
2292,246317,4.14395,8.83818,-0.741699,93.0377,-25.8289,7.03674,-0.427246,-0.488281,0.610352,0.659454,0.715332,-0.110077,0.203033,63859,60633,62777,5576,-30415
2298,246323,4.1583,8.83818,-0.75127,93.0432,-25.8289,7.03674,-0.366211,-0.549316,0.427246,0.659424,0.715332,-0.110077,0.203033,63858,60650,62780,5576,-30415
2304,246329,4.16309,8.85732,-0.765625,93.0487,-25.8289,7.03674,-0.366211,-0.549316,0.427246,0.659363,0.715393,-0.110046,0.203064,63857,60605,62785,5576,-30415
2310,246335,4.16787,8.83818,-0.732129,93.0542,-25.8289,7.04224,-0.793457,-0.12207,0.305176,0.659332,0.715424,-0.110016,0.203064,63857,60625,62785,5576,-30415
