TimeSinceCollection,Timestamp,AccX,AccY,AccZ,AngleRoll,AnglePitch,AngleYaw,AngularVelX,AngularVelY,             AngularVelZ,Q1,Q2,Q3,Q4,MagX,MagY,MagZ,Height,Airpressure
0,122969,4.1248,8.65635,-0.200977,103.997,-26.8011,-32.7997,6.34766,-8.23975,0.915527,0.62619,0.695496,-0.352173,0.00738525,58914,57546,65412,4187,-30249
6,122975,4.31143,8.54629,0.0430664,104.03,-26.7682,-33.2172,8.11768,-7.62939,2.13623,0.626007,0.694489,-0.354523,0.00488281,58917,57539,65429,4187,-30249
12,122981,4.25879,8.68984,-0.124414,104.057,-26.7517,-33.4314,8.42285,-7.99561,3.72314,0.625854,0.694031,-0.355682,0.00366211,58920,57535,65446,4187,-30249
18,122987,4.30664,8.8334,-0.277539,104.084,-26.7407,-33.6456,8.42285,-8.48389,4.02832,0.625702,0.693542,-0.356903,0.00250244,58923,57531,65465,4187,-30249
24,122993,4.31621,8.88125,-0.507227,104.106,-26.7297,-33.8654,7.32422,-8.78906,4.39453,0.625519,0.693054,-0.358154,0.00131226,58925,57528,65481,4187,-30249
30,122999,4.53633,9.11094,-0.550293,104.117,-26.7188,-34.0686,5.06592,-7.32422,4.27246,0.625366,0.692535,-0.359436,0.000152588,58928,57522,65513,4187,-30249
36,123005,4.6751,8.94824,-0.507227,104.095,-26.7188,-34.4696,0.732422,-5.12695,4.76074,0.625336,0.691315,-0.361877,-0.00213623,58930,57520,65528,4187,-30249
42,123011,4.79473,8.69941,-0.497656,104.073,-26.7133,-34.6619,-0.549316,-5.12695,4.94385,0.625427,0.690613,-0.363007,-0.00326538,58931,57518,7,4187,-30249
48,123017,4.91914,8.69463,-0.555078,104.052,-26.7133,-34.8486,-0.366211,-4.39453,3.84521,0.625549,0.68988,-0.364166,-0.00439453,58933,57517,22,4187,-30249
54,123023,5.04355,8.83818,-0.516797,104.019,-26.7023,-35.0244,-0.976563,-3.23486,2.80762,0.625702,0.689178,-0.365265,-0.00552368,58934,57515,37,4187,-30249
60,123029,4.9957,8.94346,-0.45459,103.975,-26.6968,-35.1892,-2.74658,-1.0376,1.70898,0.625854,0.688446,-0.366302,-0.00662231,58939,57508,59,4187,-30249
66,123035,5.12969,8.59414,-0.521582,103.848,-26.6583,-35.4913,-4.76074,-0.0610352,-1.83105,0.626465,0.68692,-0.368103,-0.0088501,58941,57503,66,4187,-30249
72,123041,5.15361,8.68506,-0.803906,103.804,-26.6199,-35.6506,-2.62451,-2.13623,-4.27246,0.626801,0.686188,-0.368896,-0.0100403,58942,57498,70,4187,-30249
78,123047,5.24932,9.08701,-1.02881,103.76,-26.5759,-35.799,-2.86865,-1.83105,-5.79834,0.627014,0.685547,-0.369659,-0.011261,58942,57496,74,4187,-30249
84,123053,5.16797,9.4459,-0.866113,103.689,-26.532,-35.9308,-5.85938,0.427246,-7.44629,0.627258,0.684937,-0.370361,-0.0125427,58942,57494,80,4187,-30249
90,123059,5.04355,9.31191,-0.488086,103.585,-26.4825,-36.0406,-11.4136,4.08936,-8.97217,0.627594,0.684265,-0.370911,-0.0137939,58943,57493,96,4187,-30249
96,123065,4.95264,8.28789,-0.0574219,103.343,-26.3672,-36.2494,-12.9395,4.57764,-12.207,0.628845,0.682648,-0.371704,-0.0164185,58945,57493,101,4187,-30249
102,123071,5.19668,8.1874,-0.435449,103.26,-26.2793,-36.3757,-7.32422,0,-15.3809,0.629486,0.681854,-0.37204,-0.0177917,58946,57494,0,4187,-30249
108,123077,5.24932,8.77119,-0.669922,103.2,-26.1859,-36.5021,-4.57764,-1.70898,-17.334,0.629852,0.681274,-0.372375,-0.0192871,58945,57495,106,4187,-30249
114,123083,5.33066,9.40762,-0.789551,103.134,-26.0815,-36.6339,-5.31006,-2.56348,-19.5923,0.630127,0.680817,-0.372711,-0.0208435,58945,57496,106,4187,-30249
120,123089,5.59863,9.60381,-0.904395,103.046,-25.9662,-36.7493,-9.58252,-0.732422,-22.0947,0.630371,0.680359,-0.372986,-0.0224609,58942,57500,106,4187,-30249
126,123095,5.59863,9.42676,-0.162695,102.805,-25.719,-36.9031,-12.6343,7.44629,-27.0996,0.631317,0.679291,-0.373108,-0.0258789,58939,57504,106,4187,-30249
132,123101,5.69434,8.9291,-0.320605,102.689,-25.5652,-36.969,-9.70459,5.49316,-32.3486,0.631958,0.678772,-0.372864,-0.0274963,58934,57509,0,4187,-30249
138,123107,5.31152,8.95303,-0.990527,102.585,-25.4059,-37.0129,-6.53076,9.39941,-34.3018,0.632446,0.678436,-0.372528,-0.0292664,58928,57515,101,4187,-30249
144,123113,5.10098,9.72822,-0.976172,102.486,-25.2356,-37.0459,-5.24902,9.82666,-36.8042,0.632904,0.678223,-0.37204,-0.0308838,58921,57520,99,4187,-30249
150,123119,4.63203,9.92441,-1.05752,102.371,-25.0598,-37.0844,-8.91113,9.27734,-37.6587,0.633301,0.67807,-0.371429,-0.0325317,58905,57535,102,4187,-30249
156,123125,4.67031,9.24492,-0.358887,102.063,-24.7137,-37.1338,-17.7002,11.8408,-37.9028,0.634491,0.67749,-0.370148,-0.0360413,58896,57542,99,4187,-30249
162,123131,4.2875,8.84297,-0.0813477,101.904,-24.5435,-37.1558,-17.0288,11.8408,-37.5366,0.635284,0.677032,-0.369415,-0.0378418,58886,57551,98,4187,-30249
168,123137,4.11045,8.90518,0.210547,101.75,-24.3732,-37.1722,-14.5264,13.3667,-38.3911,0.636047,0.676605,-0.368713,-0.0396118,58875,57559,96,4187,-30249
174,123143,3.60801,8.66592,0.239258,101.618,-24.2029,-37.2107,-13.3057,10.6201,-36.6821,0.636749,0.67627,-0.36795,-0.0413513,58912,57568,93,4187,-30249
180,123149,3.45967,8.78555,-0.0765625,101.486,-24.0381,-37.2491,-11.8408,10.6812,-35.3394,0.63739,0.675903,-0.36734,-0.0431213,58966,57508,81,4187,-30249
186,123155,2.66055,9.55117,-0.875684,101.234,-23.7524,-37.3425,-14.1602,10.437,-28.9917,0.638458,0.675232,-0.366241,-0.0465088,58985,57484,72,4187,-30249
192,123161,2.46914,9.80479,-0.741699,101.08,-23.6371,-37.403,-19.9585,8.30078,-24.292,0.639099,0.674744,-0.365845,-0.0480652,59000,57464,62,4187,-30249
198,123167,2.91416,10.4651,-1.20586,100.915,-23.5327,-37.4908,-24.9634,3.23486,-21.3623,0.639862,0.674042,-0.365601,-0.0496216,59014,57447,52,4187,-30249
204,123173,2.50264,9.53682,0.416309,100.931,-23.324,-37.8259,-8.54492,-44.5557,-32.6538,0.640686,0.673157,-0.36554,-0.0513306,59025,57433,43,4187,-30249
210,123179,0.090918,9.20664,-1.81836,100.931,-23.1921,-38.0896,-6.83594,-30.1514,-20.0195,0.640228,0.672791,-0.366547,-0.0545349,59036,57409,24,4187,-30249
216,123185,18.3989,16.8868,10.3503,101.909,-22.2034,-40.21,52.4902,-233.459,-87.7686,0.637299,0.672455,-0.370972,-0.0625305,59038,57401,18,4187,-30249
222,123191,22.9257,13.3506,5.44072,102.415,-21.3245,-41.1987,53.1006,-183.105,-140.869,0.631866,0.67392,-0.375885,-0.0720215,59086,57396,16,4187,-30249
228,123197,18.887,7.67061,-3.16299,102.519,-20.5554,-41.402,30.7617,-36.9873,-151.428,0.626984,0.676178,-0.377991,-0.081604,59127,57393,19,4187,-30249
234,123203,15.8867,8.6085,-6.3499,102.541,-19.8358,-41.1108,45.2881,49.3774,-163.696,0.625122,0.678436,-0.375732,-0.0874634,59162,57392,30,4187,-30249
240,123209,11.0106,12.4797,-5.17754,102.579,-18.9789,-40.6165,55.2368,67.688,-198.425,0.624207,0.681641,-0.370697,-0.0905457,59198,57366,73,4187,-30249
246,123215,2.73711,15.7192,-0.827832,102.53,-17.0343,-40.0507,13.4888,4.21143,-213.013,0.621979,0.690002,-0.356995,-0.0974426,59248,57346,100,4187,-30249
252,123221,3.05293,13.1927,-0.775195,102.497,-15.9961,-40.1605,2.38037,-46.936,-209.961,0.620941,0.693024,-0.351257,-0.103333,59279,57294,125,4187,-30249
258,123227,5.20625,10.3407,-2.07197,102.524,-14.9359,-40.4517,4.08936,-83.9233,-207.275,0.619385,0.695404,-0.346954,-0.11087,59351,57251,148,4187,-30249
264,123233,6.45996,8.62285,-0.866113,102.601,-13.8043,-40.7922,10.8643,-97.5952,-218.689,0.617188,0.697571,-0.343719,-0.119354,59403,57220,173,4187,-30249
270,123239,6.14893,8.84775,1.42598,102.728,-12.6178,-41.1493,23.8037,-101.99,-230.347,0.614441,0.699982,-0.340454,-0.128357,59544,57148,213,4187,-30249
276,123245,4.9,10.69,2.30645,103.173,-10.0964,-42.0447,51.3916,-118.774,-243.591,0.607117,0.70575,-0.333862,-0.147369,59633,57109,236,4187,-30249
282,123251,5.43594,11.5418,0.239258,103.497,-8.7561,-42.605,66.8335,-133.972,-250.549,0.602417,0.708893,-0.331024,-0.157623,59747,57042,262,4187,-30249
288,123257,7.32129,14.1641,-2.26338,103.892,-7.32788,-43.2257,80.7495,-152.954,-264.343,0.596863,0.71228,-0.328491,-0.168396,59840,56984,290,4187,-30249
294,123263,9.42676,20.246,-2.36387,104.337,-5.8667,-43.8959,92.2852,-168.213,-268.494,0.590393,0.716003,-0.32608,-0.179779,59958,56941,322,4187,-30249
300,123269,13.1975,24.1315,-6.53652,104.65,-4.38904,-44.3958,64.6973,-157.166,-278.381,0.583191,0.719849,-0.323944,-0.191437,60153,56810,406,4187,-30249
306,123275,11.7763,23.0022,-10.0728,104.716,-2.91138,-44.5056,-18.9819,-52.8564,-293.762,0.572632,0.726715,-0.314148,-0.212555,60279,56766,458,4187,-30249
312,123281,9.20186,25.3135,-5.33066,104.42,-0.230713,-43.8245,-42.7246,-2.80762,-281.677,0.570099,0.729889,-0.305664,-0.220642,60422,56690,517,4187,-30249
318,123287,6.52217,25.5623,-7.10596,104.101,1.02722,-43.2147,-66.5283,32.7148,-287.415,0.569061,0.732666,-0.296082,-0.227142,60541,56625,572,4187,-30249
324,123293,3.08643,25.1077,-6.43125,103.667,2.31262,-42.5885,-90.8813,43.2739,-292.969,0.569061,0.735107,-0.285248,-0.233032,60675,56573,621,4187,-30249
330,123299,1.14365,25.6484,-4.98613,103.167,3.60352,-41.9952,-105.286,44.3115,-293.457,0.569824,0.736877,-0.273865,-0.239166,60986,56461,696,4187,-30249
336,123305,1.23936,21.7629,-2.43086,101.882,6.32813,-40.8527,-145.813,49.2554,-314.392,0.572601,0.738556,-0.250641,-0.252472,61159,56404,719,4187,-30249
342,123311,-0.617285,18.6812,-0.890039,101.25,7.78381,-40.155,-141.541,75.4395,-330.261,0.574585,0.738678,-0.238007,-0.259735,61343,56356,731,4187,-30249
348,123317,-3.12471,17.2601,0.0430664,100.723,9.28894,-39.3475,-127.563,101.379,-343.628,0.576385,0.739136,-0.224304,-0.266571,61496,56315,736,4187,-30249
354,123323,-9.02959,17.6237,0.808691,100.393,10.7117,-38.3807,-97.4731,145.508,-331.909,0.577667,0.740112,-0.209747,-0.272797,61660,56240,728,4187,-30249
360,123329,-13.4032,19.1311,-3.37832,100.118,11.8982,-37.3315,-93.9941,173.462,-287.292,0.578308,0.742004,-0.194977,-0.277222,62015,56116,674,4187,-30249
366,123335,-18.4994,17.5472,-5.30674,99.2725,13.7659,-35.7111,-130.554,125.061,-202.026,0.581299,0.744385,-0.168488,-0.281891,62204,56064,633,4196,-30250
372,123341,-19.7005,16.2791,-4.1248,98.7286,14.4635,-35.2936,-131.042,75.7446,-163.33,0.583954,0.743774,-0.158051,-0.284058,62401,56018,582,4196,-30250
378,123347,-18.9875,13.9248,-1.94756,98.1683,15.0513,-35.2661,-116.516,6.28662,-127.808,0.58667,0.742218,-0.150055,-0.286896,62618,55977,530,4196,-30250
384,123353,-15.9011,11.8433,1.63652,97.641,15.5566,-35.6122,-91.4917,-59.6313,-101.013,0.588776,0.739929,-0.145172,-0.291016,62847,55938,467,4196,-30250
390,123359,-12.2644,10.0297,3.1582,97.2345,15.9961,-36.1835,-53.7109,-100.708,-82.0313,0.589935,0.737213,-0.143158,-0.296478,63250,55908,327,4196,-30250
396,123365,-8.53193,10.2785,1.10059,96.85,16.7047,-37.6062,11.0474,-127.014,-53.894,0.588501,0.733032,-0.144775,-0.308655,63434,55911,254,4196,-30250
402,123371,-8.19697,11.3982,-0.172266,96.7841,16.9464,-38.4027,28.4424,-137.573,-36.1938,0.586426,0.73172,-0.147308,-0.314484,63594,55912,185,4196,-30250
408,123377,-7.35479,12.006,-1.03359,96.7511,17.1002,-39.3036,41.1987,-154.907,-15.686,0.583923,0.73056,-0.150818,-0.320068,63736,55910,121,4196,-30250
414,123383,-5.55557,11.982,-2.30645,96.7401,17.1497,-40.3088,52.3071,-173.828,6.71387,0.581177,0.72934,-0.155609,-0.325562,63863,55904,60,4196,-30250
420,123389,-3.14863,11.9103,-3.43574,96.7346,17.1112,-41.4185,60.5469,-193.481,27.832,0.578217,0.727936,-0.161652,-0.330963,64081,55886,65498,4196,-30250
426,123395,3.87598,11.4844,-4.46455,96.7072,16.8311,-43.7915,61.7065,-212.097,52.4902,0.572052,0.724335,-0.177063,-0.341522,64180,55875,65460,4196,-30250
432,123401,6.70879,11.3791,-4.14873,96.6742,16.6113,-44.9615,57.9224,-210.999,63.5986,0.569092,0.722137,-0.185425,-0.346619,64274,55904,65431,4196,-30250
438,123407,10.0728,11.6088,-3.62715,96.6467,16.3477,-46.0492,54.3213,-198.303,70.2515,0.566437,0.719757,-0.193939,-0.351227,64363,55929,65407,4196,-30250
444,123413,12.9582,12.2404,-3.92383,96.6357,16.0236,-46.972,47.1191,-171.753,76.9653,0.564117,0.717377,-0.202179,-0.355164,64399,55949,65387,4196,-30250
450,123419,16.4418,13.9966,-4.76602,96.6577,15.6445,-47.6807,43.1519,-139.282,83.252,0.562439,0.715179,-0.209717,-0.35788,64438,55973,65366,4196,-30250
456,123425,18.2602,11.9916,-7.23994,96.4105,14.6448,-47.9553,-36.6821,-10.3149,94.2993,0.562408,0.711639,-0.220825,-0.358276,64445,55980,65362,4196,-30250
462,123431,18.3511,10.3072,-7.59883,96.1469,14.057,-47.5269,-75.5005,57.251,102.173,0.565308,0.710114,-0.22287,-0.355469,64461,55982,65361,4196,-30250
468,123437,17.4802,8.68984,-7.43613,95.8063,13.4143,-46.7468,-108.765,122.803,105.408,0.57019,0.70871,-0.222748,-0.350555,64430,55982,65358,4196,-30250
474,123443,13.6281,5.6752,-6.30684,95.3943,12.7771,-45.6976,-135.559,171.631,101.746,0.576691,0.70752,-0.220459,-0.343689,64413,56021,65350,4196,-30250
480,123449,11.5992,4.16309,-3.67021,94.8889,12.074,-44.5331,-158.997,194.336,113.586,0.584351,0.70639,-0.2164,-0.335541,64365,56076,65313,4196,-30250
486,123455,5.63691,-2.26816,-1.68438,93.7244,11.0028,-42.0337,-173.401,210.693,83.8013,0.601654,0.703156,-0.205505,-0.318176,64336,56095,65281,4212,-30252
492,123461,3.59844,-4.57461,-0.583789,93.197,10.4315,-40.7483,-164.124,213.867,91.5527,0.610168,0.701538,-0.19928,-0.309387,64267,56107,65240,4212,-30252
498,123467,0.430664,-6.93369,0.258398,92.7246,9.86023,-39.5178,-149.78,204.773,94.5435,0.618378,0.700012,-0.193329,-0.300171,64207,56116,65197,4212,-30252
504,123473,-2.41172,-8.96738,1.43555,92.3291,9.23401,-38.4027,-129.028,182.495,107.117,0.625977,0.698608,-0.187927,-0.290955,64162,56160,65140,4212,-30252
510,123479,-3.52666,-10.2067,2.32559,91.9775,8.53638,-37.4579,-111.816,150.757,123.23,0.632782,0.697296,-0.183807,-0.281891,64053,56220,65001,4212,-30252
516,123485,-3.42617,-11.5657,3.45488,91.8842,7.0752,-36.546,-11.8408,21.8506,137.878,0.642975,0.694946,-0.181458,-0.265747,63993,56278,64921,4212,-30252
522,123491,-0.851758,-11.0298,2.91895,92.2028,6.32813,-36.59,48.8892,-44.1895,140.564,0.645081,0.69455,-0.184174,-0.259735,63946,56325,64842,4212,-30252
528,123497,2.81846,-9.26406,1.71309,92.7466,5.59204,-36.8481,97.6563,-87.4023,139.221,0.644806,0.695068,-0.189514,-0.255096,63909,56365,64768,4212,-30252
534,123503,6.40732,-6.73272,0.373242,93.4607,4.87793,-37.1997,131.165,-106.445,137.085,0.642609,0.696533,-0.196564,-0.251312,63836,56397,64700,4212,-30252
540,123509,9.21143,-4.14873,-0.995313,94.2847,4.16931,-37.5403,148.132,-103.21,134.521,0.639069,0.698761,-0.204407,-0.247803,63694,56442,64594,4212,-30252
546,123515,12.25,-0.105273,-2.42129,96.0919,2.70264,-37.8809,145.325,-41.0156,141.174,0.630066,0.705048,-0.220062,-0.239532,63629,56498,64564,4212,-30252
552,123521,12.1974,1.28242,-2.56006,96.8829,1.88965,-37.738,129.578,1.46484,146.484,0.626404,0.708313,-0.22641,-0.233521,63531,56546,64549,4212,-30252
558,123527,10.6661,1.871,-2.77539,97.5696,1.00525,-37.4359,107.239,36.9873,155.762,0.623596,0.711487,-0.231598,-0.226196,63450,56589,64543,4212,-30252
564,123533,8.75684,1.76094,-2.87109,98.1573,0.0714111,-37.0404,86.792,59.5703,163.147,0.621826,0.714264,-0.235901,-0.217712,63389,56625,64552,4212,-30252
570,123539,6.78057,1.04316,-2.43564,98.6682,-0.895386,-36.6119,72.876,69.2749,168.579,0.62088,0.716583,-0.239594,-0.208527,63225,56678,64592,4212,-30252
576,123545,4.31143,-0.516797,-0.75127,99.6021,-2.8949,-35.8209,64.6973,64.6362,175.293,0.620209,0.720062,-0.246613,-0.189484,63124,56693,64619,4212,-30252
582,123551,3.37832,-1.0001,-0.090918,100.08,-3.91113,-35.4749,66.9556,60.0586,177.002,0.619843,0.721527,-0.250336,-0.180023,63045,56743,64647,4212,-30252
588,123557,2.32559,-1.54561,0.272754,100.591,-4.94934,-35.1837,73.9746,52.4292,183.105,0.619293,0.7229,-0.254242,-0.170624,62930,56786,64674,4212,-30252
594,123563,1.64609,-1.53604,0.153125,101.151,-6.00403,-34.953,83.8013,43.0908,188.293,0.618378,0.724304,-0.258575,-0.161224,62838,56819,64703,4229,-30254
600,123569,0.90918,-1.28721,0.0669922,101.794,-7.08618,-34.8157,98.1445,28.5034,195.862,0.617004,0.725769,-0.263397,-0.151825,62621,56903,64762,4229,-30254
606,123575,1.65088,0.47373,-0.91875,103.255,-9.27246,-34.8816,113.77,-7.87354,207.947,0.612305,0.728943,-0.275208,-0.133575,62495,56950,64794,4229,-30254
612,123581,2.75625,1.65088,-1.37334,104.03,-10.3656,-35.0464,114.746,-19.104,211.487,0.609222,0.730438,-0.282104,-0.124969,62395,56986,64828,4229,-30254
618,123587,3.8042,2.86152,-1.40684,104.793,-11.4532,-35.2441,112.122,-23.0713,212.341,0.605896,0.73175,-0.289368,-0.116608,62313,57015,64864,4229,-30254
624,123593,4.1918,3.88076,-1.30156,105.529,-12.5354,-35.4364,106.262,-19.165,211.487,0.602539,0.732849,-0.296692,-0.108398,62200,57076,64906,4229,-30254
630,123599,3.94297,4.76602,-1.225,106.227,-13.623,-35.6067,99.1211,-11.8408,211.365,0.599335,0.733734,-0.303802,-0.10022,61953,57156,65010,4229,-30254
636,123605,1.92363,5.79004,-1.18193,107.468,-15.8258,-35.8868,81.604,1.15967,215.881,0.593811,0.73468,-0.317139,-0.0834045,61818,57219,65068,4229,-30254
642,123611,0.995313,6.03408,-1.04795,108.023,-16.9354,-36.0406,74.0967,0.610352,217.834,0.591553,0.734619,-0.323517,-0.0748901,61711,57264,65131,4229,-30254
648,123617,0.425879,6.22549,-0.421094,108.561,-18.0341,-36.2274,69.2139,-2.99072,218.323,0.589508,0.734253,-0.329895,-0.0664673,61571,57341,65193,4229,-30254
654,123623,0.153125,6.45039,0.234473,109.089,-19.1162,-36.4362,67.1997,-6.40869,216.919,0.587555,0.733612,-0.336273,-0.0582886,61457,57402,65257,4229,-30254
660,123629,-0.191406,6.63701,0.617285,109.611,-20.1709,-36.6559,67.8101,-6.89697,213.379,0.585602,0.732819,-0.342621,-0.050354,61204,57554,65388,4229,-30254
666,123635,-0.76084,7.24951,0.617285,110.72,-22.1924,-37.1008,80.5054,-3.17383,202.759,0.581482,0.731201,-0.354828,-0.0349121,61063,57647,65455,4229,-30254
672,123641,-1.51211,7.84287,1.29678,111.313,-23.1537,-37.326,90.3931,-0.366211,196.228,0.579163,0.73056,-0.360565,-0.0273132,60950,57718,65523,4229,-30254
678,123647,-2.18203,8.71855,1.68438,111.945,-24.0656,-37.6172,101.501,0.610352,189.758,0.576569,0.730072,-0.366119,-0.0198364,60852,57775,51,4229,-30254
684,123653,-2.74668,9.68516,1.69395,112.615,-24.9115,-38.0237,111.694,0.549316,181.396,0.57373,0.729614,-0.371765,-0.0128784,60724,57859,117,4229,-30254
690,123659,-3.07207,10.7379,1.60303,113.329,-25.6805,-38.5016,120.239,0.427246,172.546,0.570526,0.729095,-0.377808,-0.0067749,60532,58012,249,4229,-30254
696,123665,-3.03379,13.0874,1.5791,114.857,-27.0264,-39.4574,135.864,5.98145,151.428,0.563171,0.728607,-0.389679,0.00372314,60413,58083,314,4229,-30254
702,123671,-3.25869,14.6521,1.17715,115.637,-27.6306,-39.8639,140.442,16.6626,141.235,0.559143,0.72879,-0.39502,0.00866699,60313,58179,380,4229,-30254
708,123677,-4.70381,18.0018,0.75127,116.323,-28.2129,-40.2209,126.526,26.5503,136.108,0.555084,0.729248,-0.39975,0.0136719,60226,58262,443,4229,-30254
714,123683,-5.63691,18.1262,-0.334961,116.933,-28.7567,-40.545,112.976,29.8462,128.296,0.551575,0.729431,-0.404022,0.0185242,60156,58369,506,4229,-30254
720,123689,-5.45029,17.9826,-0.272754,117.482,-29.2621,-40.7977,107.361,39.978,116.333,0.548523,0.729431,-0.407898,0.0229797,59955,58529,637,4229,-30254
726,123695,-8.33574,20.5235,-1.02402,118.328,-30.0751,-41.0669,83.9844,55.0537,84.7168,0.543427,0.729767,-0.413574,0.0314026,59877,58625,701,4229,-30254
732,123701,-9.5416,20.7389,-1.25371,118.586,-30.3827,-41.1163,66.5283,56.0913,68.4814,0.541687,0.729858,-0.415405,0.0350037,59811,58704,764,4229,-30254
738,123707,-10.3455,20.3321,-1.60303,118.735,-30.6134,-41.1273,48.1567,56.0303,53.4058,0.540497,0.729858,-0.416656,0.0378723,59754,58772,821,4229,-30254
744,123713,-11.6758,19.6718,-1.36377,118.784,-30.7727,-41.1328,27.832,50.293,40.7104,0.539886,0.729767,-0.41745,0.0400696,59707,58869,873,4229,-30254
750,123719,-11.6279,19.5187,-0.502441,118.773,-30.8441,-41.1658,12.2681,37.5366,28.7476,0.539795,0.729431,-0.417999,0.0413513,59538,59023,965,4229,-30254
756,123725,-2.58877,56.4409,-13.0252,120.624,-28.4052,-42.2974,106.384,-165.039,-212.097,0.530792,0.73526,-0.419861,0.0355225,59469,59084,1006,4229,-30254
762,123731,-33.319,96.5788,-44.0809,119.207,-28.2678,-40.7263,-119.324,259.766,-151.917,0.524628,0.741577,-0.417175,0.0255737,59403,59140,1048,4229,-30254
768,123737,-16.6954,50.7131,-41.1667,117.032,-28.7457,-38.985,-257.996,348.999,-49.5605,0.533234,0.741119,-0.406891,0.0267029,59341,59192,1090,4229,-30254
774,123743,-24.3469,32.6539,0.851758,114.395,-28.8171,-38.1116,-431.824,179.871,-41.8091,0.547516,0.735443,-0.397858,0.0307312,59331,59244,1126,4229,-30254
780,123749,-12.4271,16.3222,0.866113,111.583,-29.317,-37.1008,-455.688,236.633,35.8887,0.564178,0.725464,-0.393188,0.0263977,59298,59272,1149,4229,-30254
786,123755,-4.33057,-7.69453,7.05332,107.463,-29.3719,-37.1118,-372.07,4.27246,21.7896,0.596497,0.70166,-0.389099,0.0189209,59282,59290,1124,4229,-30254
792,123761,-5.52686,-7.82852,15.6379,106.386,-29.339,-37.6996,-264.038,-63.7207,40.8936,0.607513,0.691589,-0.390381,0.0116577,59267,59307,1077,4229,-30254
798,123767,0.0813477,-14.968,15.7432,106.144,-29.2896,-38.8037,-148.376,-151.855,62.9272,0.613953,0.68399,-0.393829,0.00463867,59256,59322,1023,4229,-30254
804,123773,6.89541,-14.3076,13.6855,106.282,-29.0588,-40.1935,-97.5952,-210.632,43.1519,0.615387,0.678986,-0.400177,-0.00244141,59247,59332,958,4229,-30254
810,123779,9.25449,-8.64199,6.90977,106.919,-28.5919,-41.5393,9.0332,-218.262,-3.05176,0.614227,0.675629,-0.40744,-0.0109863,59236,59339,832,4229,-30254
816,123785,13.3171,2.82324,-0.626855,109.292,-27.2736,-43.2257,223.633,-109.497,-71.7773,0.602509,0.679718,-0.417419,-0.0256042,59234,59381,786,4229,-30254
822,123791,12.6567,9.10137,-5.34023,110.775,-26.7572,-43.4509,291.931,-40.4663,-70.6787,0.593567,0.686584,-0.418793,-0.0283203,59232,59418,754,4229,-30254
828,123797,11.8672,12.628,-8.05342,111.89,-26.3892,-43.2916,253.296,31.311,-68.8477,0.583801,0.695129,-0.418488,-0.0276184,59230,59451,734,4212,-30252
834,123803,7.41221,30.1034,-8.62285,112.379,-26.1365,-43.0994,130.615,44.1284,-52.002,0.576447,0.702576,-0.416351,-0.0252991,59227,59441,729,4212,-30252
840,123809,4.11045,30.6872,-14.7861,112.077,-26.0376,-42.7423,-15.1978,81.1157,-34.79,0.57309,0.706543,-0.414276,-0.0243225,59215,59434,751,4212,-30252
846,123815,-0.301465,14.121,-9.61338,110.116,-26.1969,-41.8469,-179.016,103.821,1.52588,0.580231,0.70401,-0.408661,-0.0244751,59206,59437,765,4212,-30252
852,123821,0.736914,8.35488,0.258398,109.023,-26.2958,-41.5942,-186.89,78.064,10.9863,0.587341,0.699371,-0.406372,-0.0256958,59198,59442,774,4212,-30252
858,123827,2.01455,3.5458,2.87109,108.089,-26.4276,-41.391,-158.386,71.4111,21.1792,0.594208,0.694275,-0.404968,-0.0275574,59190,59446,779,4212,-30252
864,123833,2.92373,3.16299,6.15371,107.347,-26.543,-41.1987,-120.728,69.2749,19.4092,0.600067,0.689697,-0.404053,-0.0289001,59183,59452,775,4212,-30252
870,123839,2.27295,4.35928,8.12041,106.771,-26.5759,-41.0559,-90.6372,56.2744,6.34766,0.604736,0.686096,-0.403198,-0.0296936,59173,59459,737,4212,-30252
876,123845,1.52168,4.79473,4.81865,106.216,-26.5924,-41.0999,-29.0527,15.4419,13.1836,0.610565,0.681519,-0.402008,-0.0317383,59169,59462,711,4212,-30252
882,123851,1.99541,6.17285,4.29707,106.199,-26.5704,-41.2976,-6.16455,-4.21143,12.8174,0.611572,0.680298,-0.402496,-0.0328064,59165,59463,680,4212,-30252
888,123857,3.14385,6.99111,1.97627,106.287,-26.532,-41.5503,9.58252,-14.8926,13.4277,0.611572,0.679596,-0.403564,-0.0340881,59161,59464,652,4212,-30252
894,123863,4.08652,8.02949,0.890039,106.43,-26.4825,-41.8414,18.5547,-21.6675,13.0615,0.610931,0.679291,-0.404938,-0.0354004,59158,59463,623,4212,-30252
900,123869,4.9335,8.80947,-0.253613,106.6,-26.4276,-42.149,21.7285,-25.4517,11.2305,0.609924,0.679199,-0.406494,-0.0367432,59151,59460,568,4212,-30252
906,123875,5.89531,10.2115,-1.92842,106.88,-26.2903,-42.6984,18.4326,-19.6533,6.04248,0.607635,0.679199,-0.409607,-0.0396423,59150,59456,547,4212,-30252
912,123881,6.03408,10.7427,-2.44043,106.946,-26.2244,-42.9126,9.70459,-11.7798,3.66211,0.606689,0.679169,-0.410919,-0.0410156,59149,59453,530,4212,-30252
918,123887,5.86182,10.4747,-2.39258,106.93,-26.1694,-43.0719,-1.52588,-2.44141,1.46484,0.60614,0.678955,-0.411957,-0.0423279,59150,59448,517,4212,-30252
924,123893,5.53643,10.0967,-1.90928,106.853,-26.1255,-43.1818,-9.64355,5.61523,0.427246,0.60611,0.678467,-0.412659,-0.0436096,59155,59443,508,4212,-30252
930,123899,4.98135,9.46025,-0.890039,106.727,-26.0815,-43.2587,-15.4419,11.4746,-0.488281,0.606476,0.677826,-0.413086,-0.0447998,59164,59435,487,4212,-30252
936,123905,3.95732,8.32617,0.593359,106.479,-26.0046,-43.396,-13.3057,12.6343,-1.46484,0.607819,0.676208,-0.413513,-0.0469971,59167,59432,479,4212,-30252
942,123911,3.53623,8.11563,0.823047,106.392,-25.9662,-43.4839,-8.72803,9.76563,-0.915527,0.608398,0.675476,-0.413727,-0.0480652,59169,59430,472,4212,-30252
948,123917,3.33047,8.24961,0.698633,106.342,-25.9222,-43.5992,-3.35693,5.06592,-0.305176,0.608826,0.674805,-0.414032,-0.0491028,59170,59428,465,4212,-30252
954,123923,3.36875,8.54629,0.382813,106.331,-25.8783,-43.7476,1.46484,-1.52588,0.305176,0.609009,0.674286,-0.41452,-0.0502014,59170,59425,460,4212,-30252
960,123929,3.71328,8.76641,-0.124414,106.353,-25.8234,-43.9343,5.24902,-8.36182,0.854492,0.608948,0.673828,-0.415192,-0.0513611,59169,59424,449,4212,-30252
966,123935,4.53633,9.27363,-0.607715,106.425,-25.708,-44.3573,5.85938,-13.2446,0.793457,0.608246,0.673096,-0.417084,-0.0539856,59169,59424,444,4212,-30252
972,123941,4.83301,9.27363,-0.425879,106.441,-25.6476,-44.5551,2.68555,-11.2305,0.305176,0.607849,0.672699,-0.418091,-0.0553894,59168,59423,440,4212,-30252
978,123947,4.95264,8.9291,-0.090918,106.43,-25.6036,-44.7308,0.732422,-6.95801,0.12207,0.607574,0.672241,-0.419037,-0.0567627,59167,59422,438,4212,-30252
984,123953,4.40713,8.7999,-0.090918,106.414,-25.5542,-44.8901,0.549316,-3.96729,-0.305176,0.607483,0.671722,-0.419861,-0.058075,59167,59421,438,4212,-30252
990,123959,4.14395,8.69463,0.0669922,106.397,-25.5103,-45.0494,1.09863,-3.78418,-0.366211,0.607422,0.671204,-0.420624,-0.0592651,59171,59417,442,4212,-30252
996,123965,3.94297,8.37881,0.492871,106.397,-25.4224,-45.3735,5.24902,-4.63867,-0.427246,0.607239,0.670197,-0.422119,-0.0616455,59174,59416,443,4212,-30252
1002,123971,3.86641,8.33096,0.46416,106.425,-25.3729,-45.5548,8.66699,-7.44629,-0.305176,0.607056,0.669769,-0.422882,-0.0628052,59175,59415,445,4212,-30252
1008,123977,3.89512,8.27832,0.210547,106.479,-25.3235,-45.7526,12.5732,-10.9253,-0.488281,0.60672,0.669434,-0.423767,-0.0639648,59176,59415,445,4212,-30252
1014,123983,4.08174,8.46016,-0.0526367,106.562,-25.2686,-45.9668,16.7236,-14.2212,-0.671387,0.606201,0.669159,-0.424713,-0.065155,59178,59414,444,4212,-30252
1020,123989,4.25879,8.77598,-0.354102,106.655,-25.2081,-46.1865,18.8599,-15.564,-1.0376,0.605499,0.668976,-0.425781,-0.0663757,59178,59416,445,4212,-30252
1026,123995,4.38799,9.19229,-0.77998,106.826,-25.0928,-46.615,16.7236,-14.2212,-0.793457,0.603973,0.668732,-0.427979,-0.0687866,59178,59416,447,4212,-30252
1032,124001,4.42148,9.16836,-0.765625,106.891,-25.0433,-46.8182,14.4653,-13.1226,-1.0376,0.603302,0.668549,-0.429047,-0.0699768,59179,59417,447,4212,-30252
1038,124007,4.34492,9.11094,-0.521582,106.941,-24.9939,-47.016,12.2681,-11.6577,-0.610352,0.602692,0.668304,-0.430054,-0.071167,59178,59417,451,4212,-30252
1044,124013,4.1918,8.92432,-0.373242,106.99,-24.9445,-47.2137,11.9629,-11.5967,-0.732422,0.602203,0.667999,-0.43103,-0.0723267,59178,59416,455,4212,-30252
1050,124019,4.14873,8.78076,-0.277539,107.045,-24.9005,-47.4115,12.8784,-12.5122,-0.549316,0.601715,0.667694,-0.432007,-0.0734863,59179,59415,466,4212,-30252
1056,124025,4.11523,8.66592,-0.483301,107.188,-24.7906,-47.8455,15.8691,-17.395,-0.976563,0.600586,0.667084,-0.434082,-0.0758362,59179,59417,473,4212,-30252
1062,124031,4.1918,8.73291,-0.46416,107.281,-24.7302,-48.0817,16.9067,-19.8364,-1.28174,0.599884,0.66684,-0.435211,-0.0770874,59177,59419,481,4212,-30252
1068,124037,4.34014,8.72813,-0.545508,107.375,-24.6698,-48.3234,18.0664,-21.4844,-1.95313,0.599091,0.666626,-0.436401,-0.0783997,59175,59421,490,4212,-30252
1074,124043,4.44063,8.84297,-0.550293,107.479,-24.6039,-48.5651,18.8599,-21.3623,-1.95313,0.598236,0.666412,-0.437622,-0.0797119,59171,59423,501,4212,-30252
1080,124049,4.47412,8.94824,-0.674707,107.567,-24.538,-48.8013,18.1274,-19.9585,-2.38037,0.597382,0.666229,-0.438843,-0.0810242,59166,59423,526,4212,-30252
1086,124055,4.56025,8.94346,-0.961816,107.732,-24.4226,-49.2407,16.7236,-16.4185,-2.56348,0.595764,0.665833,-0.441162,-0.0835876,59166,59424,542,4212,-30252
1092,124061,4.53154,9.00088,-1.08145,107.803,-24.3677,-49.4385,15.9912,-14.1602,-2.74658,0.595062,0.665619,-0.44223,-0.0847778,59166,59424,557,4212,-30252
1098,124067,4.53633,9.154,-1.26328,107.858,-24.3127,-49.6307,14.2212,-13.0615,-3.23486,0.594391,0.665405,-0.443207,-0.085907,59167,59425,571,4212,-30252
1104,124073,4.47891,9.19707,-1.24414,107.902,-24.2633,-49.812,12.146,-11.2915,-2.99072,0.593811,0.665131,-0.444153,-0.0870361,59166,59428,586,4212,-30252
1110,124079,4.47891,9.17793,-1.14844,107.93,-24.2194,-49.9823,9.70459,-9.15527,-2.62451,0.593323,0.664825,-0.445068,-0.0881348,59166,59431,611,4212,-30252
1116,124085,4.3832,9.02002,-1.21543,107.957,-24.1425,-50.3064,7.01904,-6.65283,-2.62451,0.592651,0.664032,-0.446716,-0.090271,59166,59432,627,4212,-30252
1122,124091,4.45498,9.11572,-1.17236,107.957,-24.104,-50.4547,5.49316,-5.49316,-2.38037,0.592407,0.663605,-0.447479,-0.0913086,59167,59431,640,4212,-30252
1128,124097,4.40234,9.11572,-1.16279,107.941,-24.0765,-50.5975,3.84521,-3.96729,-2.31934,0.592224,0.663147,-0.448212,-0.0923157,59168,59432,652,4212,-30252
1134,124103,4.42148,9.12051,-1.23457,107.919,-24.0491,-50.7294,1.89209,-1.89209,-1.89209,0.592102,0.662628,-0.448883,-0.0932922,59168,59433,662,4212,-30252
1140,124109,4.3832,9.07266,-1.24893,107.88,-24.0271,-50.8447,-0.0610352,0.183105,-1.77002,0.592102,0.662079,-0.449524,-0.0942688,59167,59438,674,4212,-30252
1146,124115,4.33535,9.08701,-1.10059,107.759,-23.9996,-51.059,-3.72314,3.479,-1.2207,0.592377,0.660828,-0.450623,-0.0960388,59168,59440,679,4212,-30252
1152,124121,4.26836,8.90996,-1.11494,107.688,-23.9941,-51.1523,-5.61523,4.5166,-0.488281,0.592621,0.660126,-0.451111,-0.0968933,59168,59442,683,4212,-30252
1158,124127,4.28271,8.93867,-0.961816,107.606,-23.9886,-51.2457,-6.46973,5.5542,-0.183105,0.592957,0.659393,-0.451569,-0.0977478,59168,59445,688,4212,-30252
1164,124133,4.31621,8.90518,-0.961816,107.523,-23.9886,-51.3336,-7.20215,6.65283,0,0.593323,0.65863,-0.452026,-0.0985718,59168,59448,690,4212,-30252
1170,124139,4.21094,8.90996,-0.947461,107.424,-23.9886,-51.4105,-8.91113,8.17871,0.305176,0.59375,0.657837,-0.452454,-0.0993652,59165,59449,700,4212,-30252
1176,124145,4.07695,8.85732,-0.60293,107.205,-24.0161,-51.5479,-11.7188,11.3525,1.83105,0.594818,0.656158,-0.453156,-0.10083,59164,59447,703,4212,-30252
1182,124151,3.62715,8.62285,-0.660352,107.084,-24.0271,-51.6138,-12.4512,10.6812,1.64795,0.595459,0.655243,-0.453491,-0.101532,59163,59446,706,4212,-30252
1188,124157,3.84727,8.45059,-0.253613,106.968,-24.0491,-51.6852,-12.8174,10.0708,2.80762,0.5961,0.654327,-0.453827,-0.102264,59162,59445,707,4212,-30252
1194,124163,3.92383,8.34053,0.090918,106.859,-24.0601,-51.7676,-10.9253,8.30078,2.74658,0.596741,0.653351,-0.454224,-0.102997,59159,59445,705,4212,-30252
1200,124169,3.84727,8.11084,0.263184,106.776,-24.071,-51.8719,-8.11768,5.24902,2.74658,0.59729,0.652435,-0.454651,-0.10376,59157,59443,699,4212,-30252
1206,124175,4.00996,8.08213,0.0382813,106.672,-24.0875,-52.1082,-0.0610352,1.15967,3.23486,0.597992,0.650726,-0.45578,-0.105316,59157,59442,698,4212,-30252
1212,124181,4.08652,8.32617,-0.406738,106.661,-24.093,-52.24,4.15039,-1.28174,3.23486,0.598114,0.650024,-0.456482,-0.106079,59158,59442,697,4212,-30252
1218,124187,4.14395,8.77119,-0.947461,106.655,-24.093,-52.3828,4.76074,-2.38037,3.41797,0.598053,0.649414,-0.457275,-0.106812,59159,59442,695,4212,-30252
1224,124193,4.28271,9.18272,-1.21543,106.639,-24.0985,-52.5256,2.68555,-2.31934,3.60107,0.597961,0.648804,-0.458069,-0.107574,59159,59442,693,4212,-30252
1230,124199,4.47412,9.29756,-1.20586,106.6,-24.1095,-52.6575,-1.70898,-0.244141,4.15039,0.5979,0.648132,-0.458862,-0.108337,59163,59443,693,4212,-30252
1236,124205,4.53633,8.8334,-0.741699,106.447,-24.1425,-52.8607,-7.99561,6.34766,4.21143,0.598358,0.646515,-0.460236,-0.109863,59164,59443,691,4212,-30252
1242,124211,4.40234,8.61807,-0.689063,106.359,-24.1644,-52.9431,-7.26318,8.17871,3.72314,0.598785,0.64563,-0.460754,-0.110565,59163,59445,691,4212,-30252
1248,124217,3.76113,8.77119,-0.765625,106.271,-24.1809,-53.0255,-7.26318,8.11768,2.99072,0.599243,0.644775,-0.461212,-0.111206,59163,59446,688,4212,-30252
1254,124223,3.99561,8.81904,-0.784766,106.183,-24.2029,-53.1079,-8.54492,7.38525,4.5166,0.59967,0.643921,-0.461639,-0.111877,59163,59446,685,4212,-30252
1260,124229,4.15352,8.74727,-0.91875,106.1,-24.2194,-53.2068,-8.36182,4.94385,4.15039,0.600128,0.643036,-0.462128,-0.112518,59165,59443,674,4212,-30252
1266,124235,4.96221,8.88603,-1.07666,105.947,-24.2358,-53.421,-7.69043,2.0752,1.77002,0.600922,0.641235,-0.463226,-0.114044,59165,59440,667,4212,-30252
1272,124241,5.24932,9.03438,-1.49297,105.87,-24.2303,-53.5199,-7.38525,2.38037,-0.854492,0.601227,0.640411,-0.463776,-0.114899,59163,59437,660,4212,-30252
1278,124247,5.44551,9.42197,-1.83271,105.782,-24.2194,-53.6023,-9.09424,5.12695,-2.74658,0.601532,0.639618,-0.464233,-0.115753,59163,59436,657,4212,-30252
1284,124253,5.34502,9.71387,-1.99541,105.667,-24.2029,-53.6572,-13.0005,8.30078,-4.57764,0.601929,0.638885,-0.464539,-0.116608,59163,59435,656,4212,-30252
1290,124259,5.17754,9.74736,-1.83271,105.507,-24.1919,-53.6902,-19.6533,13.3667,-5.37109,0.602478,0.638092,-0.464691,-0.117493,59165,59436,654,4212,-30252
1296,124265,4.81387,9.11572,-0.947461,105.084,-24.1699,-53.6902,-29.6631,19.4702,-7.75146,0.604401,0.636139,-0.464447,-0.119293,59168,59436,650,4212,-30252
1302,124271,4.60332,8.71377,-0.373242,104.859,-24.1479,-53.6737,-30.6396,19.9585,-9.15527,0.605591,0.63504,-0.464111,-0.120239,59169,59436,645,4212,-30252
1308,124277,4.28271,8.51758,0.354102,104.639,-24.1205,-53.6627,-27.0996,20.752,-10.9863,0.606842,0.633942,-0.463715,-0.121216,59171,59437,636,4212,-30252
1314,124283,4.2875,8.27354,0.641211,104.453,-24.0765,-53.6682,-23.7427,16.0522,-12.4512,0.608002,0.632965,-0.463287,-0.122192,59172,59438,628,4212,-30252
1320,124289,4.42148,7.929,0.267969,104.326,-24.0106,-53.7177,-14.1602,8.42285,-15.7471,0.608948,0.63208,-0.462982,-0.123291,59169,59441,609,4212,-30252
1326,124295,4.72773,8.87646,-0.181836,104.183,-23.8184,-53.877,-3.2959,-0.732422,-20.813,0.60965,0.631042,-0.462799,-0.125793,59166,59442,602,4212,-30252
1332,124301,5.00049,9.19707,-0.62207,104.134,-23.7085,-53.9703,-2.86865,-2.19727,-22.8271,0.60965,0.630768,-0.462799,-0.127167,59163,59444,593,4212,-30252
1338,124307,5.05791,9.29277,-1.1915,104.068,-23.5876,-54.0582,-4.39453,-0.854492,-24.5972,0.609589,0.630524,-0.462799,-0.128601,59159,59446,585,4212,-30252
1344,124313,4.9335,9.53682,-1.23936,103.991,-23.4668,-54.1187,-6.28662,2.74658,-26.062,0.609619,0.63028,-0.462708,-0.130096,59154,59451,578,4212,-30252
1350,124319,4.59375,9.65166,-1.01924,103.881,-23.3459,-54.1571,-10.376,6.71387,-26.3672,0.609741,0.630035,-0.462463,-0.131531,59146,59460,567,4212,-30252
1356,124325,4.48848,9.29277,-1.00488,103.601,-23.1097,-54.2065,-16.2354,9.52148,-26.5503,0.610474,0.629364,-0.461548,-0.134399,59141,59465,559,4212,-30252
1362,124331,4.27314,9.11094,-1.11973,103.458,-22.9944,-54.223,-16.3574,10.0098,-27.0996,0.610992,0.628937,-0.46106,-0.135864,59136,59468,550,4212,-30252
1368,124337,3.92383,9.36934,-1.1293,103.304,-22.8735,-54.2395,-18.3716,10.498,-27.4658,0.611511,0.62851,-0.46051,-0.137299,59130,59473,541,4212,-30252
1374,124343,3.55059,9.55117,-0.827832,103.134,-22.7747,-54.245,-21.9116,12.3901,-24.231,0.612091,0.628052,-0.4599,-0.138733,59124,59479,533,4212,-30252
1380,124349,3.39268,9.34062,-0.746484,102.958,-22.6758,-54.2725,-23.9258,9.70459,-22.522,0.612823,0.627472,-0.45932,-0.140137,59108,59415,517,4212,-30252
1386,124355,3.77549,9.39805,-1.3207,102.629,-22.5,-54.3713,-22.7661,-0.671387,-20.1416,0.61438,0.626007,-0.458405,-0.142975,59149,59390,511,4212,-30252
1392,124361,4.44541,9.58945,-0.0430664,102.59,-22.3132,-54.6021,-11.6577,-31.189,-31.6162,0.614868,0.625244,-0.458252,-0.144592,59186,59368,502,4212,-30252
1398,124367,1.68438,8.04385,-2.58877,102.502,-22.1924,-54.7284,-16.2354,-10.7422,-22.3999,0.614349,0.624817,-0.458679,-0.147156,59219,59350,494,4212,-30252
1404,124373,1.70352,9.46982,-2.65576,102.42,-22.11,-54.8712,-15.8081,-12.8174,-14.9536,0.614441,0.624268,-0.458771,-0.148956,59246,59334,486,4212,-30252
1410,124379,10.0536,16.5997,8.18262,102.678,-21.7529,-55.5743,12.6343,-123.23,-44.9829,0.614502,0.623566,-0.459076,-0.150604,59288,59312,470,4212,-30252
1416,124385,18.6669,9.53203,4.23008,103.497,-20.3247,-57.3157,32.5928,-127.686,-127.319,0.605469,0.624237,-0.465698,-0.163574,59305,59304,465,4212,-30252
1422,124391,15.6714,5.31152,-1.59346,103.546,-19.7369,-57.3376,29.7241,-6.65283,-122.986,0.601166,0.625854,-0.466553,-0.170624,59319,59298,462,4212,-30252
1428,124397,13.1783,8.5415,-2.12939,103.607,-19.1602,-57.03,53.2837,54.5044,-137.573,0.599426,0.628143,-0.464355,-0.174286,59328,59295,467,4212,-30252
1434,124403,7.58926,13.1592,-1.66045,103.733,-18.4406,-56.7279,64.5142,46.1426,-164.307,0.598145,0.631775,-0.460358,-0.176147,59333,59297,478,4212,-30252
1440,124409,4.21094,14.3172,-1.94277,103.843,-17.644,-56.5796,50.5981,13.916,-173.279,0.596191,0.636139,-0.455933,-0.178619,59370,59241,507,4212,-30252
1446,124415,3.00986,10.1015,-2.00498,104.063,-15.9521,-56.662,40.0391,-40.6494,-172.058,0.59137,0.643433,-0.448364,-0.187378,59401,59226,521,4212,-30252
1452,124421,4.09609,9.99619,-1.00967,104.299,-15.0073,-56.9366,49.7437,-76.0498,-182.19,0.588165,0.646637,-0.445648,-0.19281,59424,59175,534,4212,-30252
1458,124427,4.9957,10.4651,-0.583789,104.645,-13.9856,-57.3541,65.1245,-107.422,-190.857,0.583893,0.649933,-0.443634,-0.19931,59486,59137,549,4212,-30252
1464,124433,6.48389,11.8146,-2.13896,105.046,-12.9034,-57.8485,73.9746,-127.014,-197.754,0.57843,0.653473,-0.442261,-0.206543,59534,59111,566,4212,-30252
1470,124439,7.32607,12.2787,-3.52666,105.414,-11.7719,-58.3429,67.0776,-133.667,-206.726,0.572235,0.657135,-0.441223,-0.214325,59636,59013,624,4212,-30252
1476,124445,8.46973,13.6951,-3.62715,105.963,-9.35486,-59.2548,47.7905,-133.301,-229.858,0.559814,0.664063,-0.438324,-0.231079,59689,58940,659,4212,-30252
1482,124451,9.01523,14.5564,-4.56982,106.166,-8.05847,-59.6393,41.1377,-129.578,-244.08,0.553741,0.66745,-0.436096,-0.240021,59730,58879,693,4212,-30252
1488,124457,9.52725,15.7814,-5.38809,106.309,-6.69617,-59.9744,30.8228,-127.136,-259.399,0.547729,0.670898,-0.433228,-0.249176,59805,58834,730,4212,-30252
1494,124463,9.47939,17.8534,-6.31641,106.408,-5.31738,-60.2106,25.1465,-112,-268.921,0.541809,0.674377,-0.429657,-0.258698,59858,58760,766,4212,-30252
1500,124469,9.38848,21.3896,-6.95762,106.458,-3.98254,-60.3259,15.564,-89.5386,-266.602,0.536194,0.67804,-0.425262,-0.267944,60051,58660,837,4212,-30252
1506,124475,6.54609,20.3226,-11.0059,106.051,-1.24695,-60.2545,-52.8564,-59.5093,-285.156,0.527283,0.684845,-0.414001,-0.285309,60139,58585,868,4212,-30252
1512,124481,4.66553,20.2412,-6.89063,105.727,0.0109863,-60.0842,-61.2793,-36.1328,-268.921,0.524506,0.687622,-0.406616,-0.294312,60252,58526,900,4212,-30252
1518,124487,2.74668,22.4328,-6.46475,105.403,1.15906,-59.7986,-63.1714,-6.53076,-253.235,0.522522,0.690094,-0.399017,-0.302277,60335,58439,931,4212,-30252
1524,124493,0.545508,23.1937,-8.51758,105.007,2.33459,-59.5239,-78.6133,-8.66699,-257.202,0.52124,0.692596,-0.391174,-0.309021,60445,58372,956,4212,-30252
1530,124499,-1.40205,23.3085,-7.55098,104.518,3.54858,-59.3097,-98.5718,-19.165,-261.658,0.520233,0.694733,-0.382965,-0.316132,60681,58241,993,4212,-30252
1536,124505,-3.67021,22.9783,-3.25391,103.348,5.99854,-58.8647,-125.732,-9.64355,-266.541,0.519165,0.697357,-0.365906,-0.33194,60817,58174,1003,4221,-30253
1542,124511,-3.84248,21.2078,-2.10547,102.695,7.31689,-58.7,-133.85,-22.1558,-279.724,0.519104,0.698242,-0.35672,-0.340057,60921,58122,1007,4221,-30253
1548,124517,-4.78516,18.2649,-1.78965,102.107,8.67371,-58.5681,-121.216,-25.6348,-286.987,0.518829,0.698822,-0.34726,-0.348938,61047,58041,1003,4221,-30253
1554,124523,-6.30684,17.5615,-1.02402,101.646,9.99207,-58.4198,-96.2524,-18.7378,-278.381,0.517853,0.699646,-0.33783,-0.35788,61193,57974,993,4221,-30253
1560,124529,-9.61338,18.1884,-2.40215,101.277,11.0687,-58.1946,-82.2144,9.0332,-234.192,0.516266,0.700867,-0.328857,-0.366028,61481,57799,948,4221,-30253
1566,124535,-11.9007,15.102,-5.36895,100.333,12.4695,-57.8156,-108.643,15.625,-133.118,0.515656,0.702515,-0.313721,-0.376862,61637,57730,921,4221,-30253
1572,124541,-11.9103,14.4081,-4.41191,99.8492,12.8595,-57.821,-98.5107,-6.40869,-87.4023,0.517059,0.701843,-0.308105,-0.380798,61761,57673,886,4221,-30253
1578,124547,-10.8767,14.4272,-2.3208,99.3933,13.1067,-58.0682,-83.252,-47.5464,-50.9033,0.518524,0.70047,-0.304504,-0.384247,61909,57625,846,4221,-30253
1584,124553,-7.16338,14.0684,0.277539,98.9758,13.2605,-58.5132,-65.979,-82.3364,-26.001,0.519562,0.698242,-0.303162,-0.38797,62032,57583,798,4221,-30253
1590,124559,-2.84238,13.164,0.880469,98.6353,13.3484,-58.9966,-48.1567,-87.4634,-11.9629,0.519989,0.695465,-0.30365,-0.391937,62324,57514,695,4221,-30253
1596,124565,-0.186621,11.5083,0.258398,98.2233,13.4418,-59.7821,-18.1885,-62.561,-6.95801,0.519867,0.690674,-0.306366,-0.398376,62445,57484,643,4221,-30253
1602,124571,-0.894824,10.7188,-0.186621,98.1354,13.4747,-60.1172,-3.72314,-58.2275,-6.04248,0.51944,0.689087,-0.307739,-0.400665,62554,57455,592,4221,-30253
1608,124577,-1.45947,10.6183,-0.890039,98.1244,13.4912,-60.4852,11.9629,-64.209,-1.77002,0.518646,0.687866,-0.309265,-0.402588,62654,57429,541,4221,-30253
1614,124583,-0.861328,11.3456,-2.14854,98.1464,13.4802,-60.9137,23.0103,-77.2705,5.85938,0.517395,0.686829,-0.31131,-0.404388,62744,57406,491,4221,-30253
1620,124589,0.894824,11.939,-3.05293,98.1738,13.4418,-61.3971,26.6724,-87.5244,13.1226,0.515778,0.68573,-0.314056,-0.406219,62904,57363,404,4221,-30253
1626,124595,4.64639,12.7477,-3.63193,98.1519,13.2715,-62.3804,15.4419,-89.3555,24.292,0.512512,0.682892,-0.320648,-0.409973,62973,57345,368,4221,-30253
1632,124601,6.40732,12.7429,-3.43096,98.0914,13.1451,-62.7979,5.85938,-78.186,27.2827,0.511322,0.681213,-0.323914,-0.411652,63037,57328,336,4221,-30253
1638,124607,7.81416,12.5706,-3.24912,97.9926,12.9968,-63.111,-6.65283,-61.1572,29.2358,0.510681,0.679474,-0.326813,-0.413025,63045,57310,310,4221,-30253
1644,124613,8.71855,11.9581,-3.25391,97.8552,12.8265,-63.3032,-20.813,-39.5508,30.0903,0.510712,0.677795,-0.329132,-0.41394,63058,57293,287,4221,-30253
1650,124619,8.58936,12.4414,-4.01475,97.63,12.6123,-63.3636,-43.5181,-15.9912,34.1187,0.511536,0.676208,-0.330658,-0.414276,63092,57258,250,4237,-30255
1656,124625,8.53672,8.46973,-1.99063,97.1521,12.2058,-63.1,-56.6406,25.0854,25.3906,0.515991,0.673126,-0.331116,-0.413422,63112,57242,230,4237,-30255
1662,124631,7.42656,8.39316,-1.85186,96.9269,11.9806,-62.7869,-60.6079,44.8608,27.5879,0.51886,0.67215,-0.33017,-0.41214,63133,57226,209,4237,-30255
1668,124637,5.7709,7.73281,-1.95713,96.6742,11.7224,-62.4023,-69.0308,57.9834,32.3486,0.522186,0.671478,-0.328735,-0.410187,63155,57210,181,4237,-30255
1674,124643,4.34492,6.41211,-2.45,96.3776,11.4203,-61.9739,-79.2236,64.8193,41.5649,0.526031,0.670807,-0.326904,-0.407806,63127,57193,148,4237,-30255
1680,124649,3.08164,5.19668,-2.68926,96.0315,11.0577,-61.5564,-89.4165,63.9038,53.9551,0.530457,0.669922,-0.324982,-0.40509,63090,57236,73,4237,-30255
1686,124655,2.57441,2.30166,-1.51211,95.224,10.2008,-60.8698,-98.7549,42.1143,74.2798,0.540497,0.666809,-0.321838,-0.399414,63076,57251,33,4237,-30255
1692,124661,2.80889,1.05752,-0.311035,94.812,9.71191,-60.6226,-95.459,27.6489,84.2285,0.545654,0.664642,-0.320953,-0.396729,63068,57262,65527,4237,-30255
1698,124667,3.71328,-0.0382813,0.0478516,94.4604,9.20105,-60.4138,-83.8623,18.4326,90.5762,0.550659,0.66214,-0.32074,-0.394135,63066,57269,65479,4237,-30255
1704,124673,4.52197,-0.875684,0.253613,94.1638,8.66272,-60.2216,-70.6177,12.6343,95.9473,0.555298,0.659729,-0.321045,-0.391418,63070,57272,65428,4237,-30255
1710,124679,5.52686,-1.5791,0.133984,93.9496,8.10242,-60.0238,-56.2744,10.0098,101.074,0.55957,0.657501,-0.321838,-0.388458,63000,57270,65311,4237,-30255
1716,124685,7.20645,-2.02891,-0.325391,93.7628,6.94336,-59.5349,-26.8555,17.8833,105.103,0.566986,0.653992,-0.324371,-0.381409,62975,57307,65255,4237,-30255
1722,124691,7.62754,-1.88535,-0.397168,93.7848,6.36108,-59.2053,-13.6719,27.5269,105.042,0.570221,0.652985,-0.325775,-0.377106,62963,57338,65201,4237,-30255
1728,124697,7.75195,-1.69873,-0.631641,93.8727,5.77881,-58.8098,-4.02832,38.0249,103.699,0.573151,0.652527,-0.327118,-0.372253,62907,57361,65149,4237,-30255
1734,124703,7.55576,-1.52646,-0.827832,93.9935,5.20203,-58.3594,0.976563,48.5229,102.234,0.575928,0.652557,-0.328247,-0.366913,62865,57376,65099,4237,-30255
1740,124709,7.10117,-1.55996,-0.976172,94.1364,4.63074,-57.854,3.96729,57.8003,99.9146,0.578644,0.652924,-0.329132,-0.361145,62761,57434,65008,4237,-30255
1746,124715,5.33066,-2.06719,-0.62207,94.5099,3.47717,-56.7554,14.2212,69.1528,100.647,0.583832,0.65448,-0.330231,-0.348724,62699,57475,64967,4237,-30255
1752,124721,4.4502,-2.37822,-0.497656,94.7406,2.86194,-56.1951,20.2026,70.4956,106.201,0.586243,0.655579,-0.33075,-0.342072,62649,57508,64927,4237,-30255
1758,124727,3.85205,-2.79453,-0.555078,95.0043,2.20825,-55.6567,26.7944,68.1763,114.075,0.588531,0.656769,-0.331482,-0.335083,62611,57535,64888,4237,-30255
1764,124733,3.51709,-3.17256,-0.583789,95.3064,1.51062,-55.1459,34.4238,62.8662,122.742,0.590637,0.65799,-0.332581,-0.32785,62582,57554,64853,4237,-30255
1770,124739,3.5793,-3.4166,-0.947461,95.6525,0.780029,-54.6899,43.2129,54.7485,129.761,0.592468,0.65918,-0.334198,-0.320404,62455,57578,64790,4254,-30257
1776,124745,2.21074,-1.45469,-0.406738,96.5259,-0.725098,-53.9099,66.5894,41.1377,135.864,0.594971,0.661682,-0.338989,-0.305206,62409,57627,64763,4254,-30257
1782,124751,4.78994,-2.29209,-0.803906,97.0477,-1.49963,-53.5529,77.8809,40.2832,137.573,0.59549,0.663177,-0.34201,-0.297485,62375,57668,64736,4254,-30257
1788,124757,4.78994,-1.57432,-1.0623,97.6135,-2.29065,-53.1958,86.1206,42.2363,140.625,0.595612,0.664886,-0.345245,-0.289551,62299,57701,64712,4254,-30257
1794,124763,4.4167,-0.890039,-1.52168,98.1958,-3.11462,-52.8442,90.0879,44.5557,146.118,0.59549,0.666779,-0.348633,-0.281342,62240,57726,64693,4254,-30257
1800,124769,4.01475,-0.392383,-1.96191,98.7836,-3.97705,-52.5092,89.9658,44.0063,153.625,0.595245,0.668701,-0.352142,-0.272827,62156,57765,64666,4254,-30257
1806,124775,3.61279,0.0574219,-1.98105,99.9646,-5.81726,-51.9489,91.2476,37.9028,170.471,0.594696,0.671936,-0.359924,-0.25528,62075,57778,64656,4254,-30257
1812,124781,3.73242,0.258398,-1.67959,100.569,-6.79504,-51.7236,93.1396,34.1187,178.894,0.594299,0.673279,-0.364319,-0.246307,62011,57829,64651,4254,-30257
1818,124787,3.76592,0.397168,-1.70352,101.19,-7.80579,-51.5314,95.0928,32.1045,185.486,0.593811,0.674408,-0.369049,-0.237183,61961,57870,64651,4254,-30257
1824,124793,3.79941,0.531152,-1.86143,101.821,-8.84399,-51.3666,97.1069,30.8228,190.796,0.59317,0.675415,-0.374023,-0.227905,61874,57901,64657,4254,-30257
1830,124799,3.66064,0.784766,-1.55996,102.475,-9.8877,-51.2183,100.464,29.541,193.359,0.592438,0.6763,-0.379181,-0.218475,61751,57944,64687,4254,-30257
1836,124805,3.15342,1.3542,-1.13408,103.848,-11.9751,-51.0095,108.643,24.7803,193.97,0.590332,0.678009,-0.389771,-0.199463,61708,57958,64704,4254,-30257
1842,124811,2.79453,1.57432,-1.07666,104.573,-13.0078,-50.9381,113.586,22.8271,193.787,0.588898,0.678864,-0.395142,-0.189941,61632,58006,64724,4254,-30257
1848,124817,2.2873,1.86621,-0.775195,105.331,-14.046,-50.8942,118.835,20.9961,194.336,0.587189,0.679749,-0.400574,-0.18042,61574,58044,64744,4254,-30257
1854,124823,1.62695,2.3208,-0.62207,106.117,-15.0732,-50.8777,124.878,19.043,194.458,0.585236,0.680664,-0.406036,-0.170837,61480,58073,64769,4254,-30257
1860,124829,1.02402,3.096,-1.0001,106.952,-16.0895,-50.8887,133.057,15.564,193.665,0.583008,0.681641,-0.41153,-0.161224,61299,58186,64830,4254,-30257
1866,124835,0.186621,6.34033,-1.82314,108.787,-18.056,-51.037,153.564,5.98145,190.125,0.577332,0.683899,-0.422699,-0.142029,61207,58227,64861,4254,-30257
1872,124841,0.13877,8.23525,-1.64609,109.731,-19.0063,-51.1688,155.701,3.17383,187.866,0.573822,0.685211,-0.428375,-0.132538,61135,58260,64900,4254,-30257
1878,124847,0.13877,9.80957,-1.50254,110.632,-19.9347,-51.3062,149.109,5.85938,185.486,0.57019,0.686432,-0.434021,-0.123291,61033,58326,64940,4254,-30257
1884,124853,0.416309,10.7857,-1.90449,111.462,-20.8521,-51.4325,140.93,14.7705,181.702,0.566803,0.687347,-0.439423,-0.114319,60953,58379,64984,4254,-30257
1890,124859,-0.488086,11.537,-1.81836,112.209,-21.7584,-51.5314,131.592,26.2451,176.208,0.563782,0.687988,-0.444489,-0.105499,60746,58456,65082,4254,-30257
1896,124865,-3.25391,13.9631,-1.41162,113.538,-23.4338,-51.7181,119.324,38.4521,158.569,0.55899,0.688477,-0.453369,-0.0887146,60667,58482,65129,4254,-30257
1902,124871,-5.32588,15.4369,-1.78486,114.093,-24.1699,-51.8884,101.99,32.4097,150.879,0.556885,0.688446,-0.457397,-0.0811768,60555,58541,65180,4254,-30257
1908,124877,-6.2542,14.7718,-2.03369,114.587,-24.8621,-52.1136,87.9517,26.3062,147.705,0.555115,0.687958,-0.461365,-0.0746765,60465,58589,65233,4254,-30257
1914,124883,-6.62744,13.8291,-0.722559,115.082,-25.5048,-52.3828,85.083,20.9351,143.738,0.553528,0.687073,-0.465424,-0.0690002,60394,58624,65287,4254,-30257
1920,124889,-6.79014,13.5133,0.239258,115.604,-26.0925,-52.674,88.9893,16.7847,137.146,0.55188,0.686157,-0.469513,-0.0638733,60205,58748,65396,4254,-30257
1926,124895,-6.9002,15.2407,0.0334961,116.708,-27.0758,-53.2397,100.342,17.0898,114.014,0.547699,0.684906,-0.477325,-0.0545959,60134,58797,65445,4254,-30257
1932,124901,-7.11074,16.126,-0.30625,117.241,-27.4548,-53.454,100.159,20.6299,97.0459,0.545258,0.684845,-0.480652,-0.050354,60031,58835,65496,4254,-30257
1938,124907,-7.31172,16.1978,-0.244043,117.713,-27.757,-53.5968,95.7642,27.8931,78.4302,0.542877,0.68512,-0.483368,-0.0465393,59945,58906,8,4254,-30257
1944,124913,-7.62275,15.5613,0.205762,118.125,-27.9822,-53.6407,92.7124,37.6587,57.9224,0.54068,0.685669,-0.485321,-0.0430908,59875,58964,59,4254,-30257
1950,124919,-8.30225,14.7,0.583789,118.488,-28.136,-53.5748,94.2383,48.8281,36.6211,0.538727,0.686615,-0.48645,-0.0399475,59674,59048,159,4254,-30257
1956,124925,-9.84785,12.2213,1.82793,119.169,-28.2513,-53.2068,104.004,64.7583,5.92041,0.535065,0.690033,-0.486084,-0.0344238,59593,59081,205,4254,-30257
1962,124931,-11.3169,42.1572,-0.0813477,120.366,-28.4601,-52.7948,294.739,110.474,16.7236,0.533203,0.692383,-0.484985,-0.0316467,59526,59109,248,4254,-30257
1968,124937,-9.99619,77.1272,-14.2741,121.284,-28.1689,-52.8333,196.594,-8.8501,-31.4331,0.52652,0.698914,-0.483398,-0.0232239,59470,59133,291,4254,-30257
1974,124943,-19.0832,156.795,-61.3553,121.069,-27.5867,-52.7399,-20.813,-22.3999,-94.2383,0.520203,0.703979,-0.482941,-0.0215759,59422,59157,333,4254,-30257
1980,124949,-11.5418,58.0535,-21.7055,118.575,-27.8394,-51.5973,-381.042,225.83,-43.7012,0.520172,0.705414,-0.480652,-0.0261841,59342,59205,409,4254,-30257
1986,124955,-23.3276,10.6278,11.4892,110.561,-29.0204,-48.4442,-675.964,261.658,28.0762,0.562469,0.684052,-0.463226,-0.0318909,59307,59229,434,4254,-30257
1992,124961,-8.33574,-3.12471,33.7928,107.721,-29.339,-48.3069,-547.241,71.7163,71.4722,0.587311,0.667084,-0.456604,-0.0383911,59275,59251,437,4254,-30257
1998,124967,-4.37363,-16.6332,28.0793,105.15,-29.9817,-47.9224,-468.933,128.357,124.756,0.604218,0.651703,-0.455963,-0.0467834,59246,59269,412,4254,-30257
2004,124973,3.38789,-16.949,19.4852,103.618,-30.3717,-48.3124,-336.487,-17.6392,114.014,0.619843,0.637115,-0.4552,-0.0506897,59218,59279,357,4254,-30257
2010,124979,-2.61748,-19.9015,3.11992,103.425,-30.3717,-49.1858,-119.324,-119.08,59.2041,0.628632,0.625793,-0.458191,-0.0563049,59172,59344,189,4246,-30256
2016,124985,7.23516,-8.61807,13.274,104.947,-29.6136,-51.5918,111.084,-231.873,-13.9771,0.626495,0.619843,-0.467529,-0.067749,59155,59405,106,4246,-30256
2022,124991,9.0918,-4.03867,6.66094,106.666,-28.8062,-53.0365,215.515,-260.803,-63.5986,0.618378,0.622559,-0.473816,-0.0737305,59093,59454,26,4246,-30256
2028,124997,8.68027,0.990527,-2.38779,108.765,-27.8448,-54.2944,314.27,-245.117,-93.9941,0.606598,0.628815,-0.479767,-0.0796509,59041,59494,65499,4246,-30256
2034,125003,10.4651,6.51738,-11.7954,111.072,-26.8506,-55.3052,382.385,-212.952,-106.506,0.592194,0.638153,-0.484711,-0.0838318,58996,59534,65459,4246,-30256
2040,125009,15.3508,13.1209,-16.126,113.198,-25.9332,-55.9589,380.554,-155.579,-111.084,0.576355,0.649323,-0.488586,-0.0858459,58918,59572,65448,4246,-30256
2046,125015,13.609,41.1619,-15.7192,114.258,-25.4004,-55.6128,21.3013,88.9893,-27.8931,0.553314,0.667755,-0.490509,-0.0848999,58883,59575,65465,4246,-30256
2052,125021,3.23955,19.533,-23.2176,113.214,-25.5432,-54.8438,-133.179,157.654,-19.5313,0.554413,0.669037,-0.487762,-0.0836182,58849,59586,65503,4246,-30256
2058,125027,0.794336,11.2882,-9.83828,111.874,-25.8179,-54.0143,-186.768,177.429,2.74658,0.561432,0.666687,-0.483002,-0.0833435,58817,59602,9,4246,-30256
2064,125033,-0.933105,7.23994,3.30176,110.588,-26.098,-53.3331,-188.721,153.992,17.6392,0.570404,0.662567,-0.47818,-0.0829773,58836,59579,52,4246,-30256
2070,125039,-0.636426,2.8998,7.84287,109.523,-26.3727,-52.8003,-157.166,129.517,29.9683,0.578918,0.657959,-0.474304,-0.0830383,58866,59540,99,4246,-30256
2076,125045,-0.124414,0.875684,8.91475,108.364,-26.6144,-52.218,-52.002,59.082,8.05664,0.590942,0.650696,-0.469513,-0.0827026,58878,59522,103,4246,-30256
2082,125051,-1.55518,2.31123,7.72324,108.298,-26.5485,-52.2455,-3.17383,14.1602,0.732422,0.593475,0.649261,-0.468231,-0.0830078,58890,59504,95,4246,-30256
2088,125057,0.0478516,5.27324,5.79004,108.572,-26.4331,-52.5201,43.8843,-31.0059,5.24902,0.593689,0.649048,-0.468109,-0.0838318,58901,59528,77,4246,-30256
2094,125063,1.47383,6.4791,1.5791,109.034,-26.2628,-52.9651,66.3452,-63.5986,4.63867,0.591705,0.64975,-0.469421,-0.0848999,58911,59548,53,4246,-30256
2100,125069,3.12949,8.575,-1.58389,109.567,-26.0815,-53.4924,74.646,-78.4912,7.32422,0.58844,0.650909,-0.47168,-0.0864563,58931,59579,12,4246,-30256
2106,125075,6.47432,11.9533,-4.33535,110.555,-25.7465,-54.5526,67.0776,-81.1768,10.437,0.581055,0.653046,-0.477173,-0.0899353,58940,59593,1,4246,-30256
2112,125081,7.17295,11.8672,-5.1249,110.792,-25.6366,-54.9152,29.1138,-49.1333,10.3149,0.577423,0.653961,-0.480011,-0.0916748,58897,59606,65534,4246,-30256
2118,125087,7.94336,11.5657,-5.35938,110.874,-25.5652,-55.1404,10.1929,-24.231,8.05664,0.575531,0.654022,-0.481873,-0.0932617,58861,59618,2,4246,-30256
2124,125093,7.62754,11.1638,-4.43584,110.808,-25.5377,-55.2228,-7.8125,1.64795,5.49316,0.574738,0.653748,-0.482971,-0.0945129,58827,59628,10,4246,-30256
2130,125099,6.49346,10.1732,-2.8376,110.627,-25.5322,-55.1953,-21.1182,21.1182,2.86865,0.574982,0.653168,-0.483276,-0.0953979,58774,59642,31,4246,-30256
2136,125105,4.04824,8.04385,-0.282324,110.209,-25.5322,-55.069,-21.9727,27.2827,0,0.577301,0.651581,-0.482391,-0.0966187,58751,59648,41,4246,-30256
2142,125111,3.10078,7.84287,0.234473,110.067,-25.5157,-55.0525,-15.0757,19.043,0,0.578461,0.650848,-0.481873,-0.097168,58731,59652,50,4246,-30256
2148,125117,2.85674,7.86201,0.210547,109.979,-25.4883,-55.1019,-8.48389,7.14111,1.95313,0.579285,0.650238,-0.481598,-0.0978088,58713,59657,56,4246,-30256
2154,125123,3.42139,7.8333,0.0478516,109.951,-25.4443,-55.1953,-1.0376,-2.0752,1.64795,0.579651,0.649719,-0.481689,-0.0986023,58697,59662,56,4246,-30256
2160,125129,4.18223,8.30225,-0.124414,109.951,-25.4004,-55.3052,4.39453,-4.08936,2.0752,0.579651,0.649292,-0.482086,-0.0995178,58669,59671,55,4246,-30256
2166,125135,4.31143,8.89561,-0.803906,109.957,-25.329,-55.4865,6.71387,0.427246,1.95313,0.579254,0.648773,-0.482941,-0.101044,58657,59676,56,4246,-30256
2172,125141,4.06738,8.85254,-1.00967,109.957,-25.3015,-55.5743,6.10352,0.549316,2.31934,0.579071,0.648529,-0.483307,-0.101685,58647,59681,60,4246,-30256
2178,125147,4.00996,8.74248,-0.966602,109.957,-25.274,-55.6677,6.22559,-1.46484,2.44141,0.578949,0.648285,-0.483704,-0.102325,58637,59685,67,4246,-30256
2184,125153,4.09609,8.6085,-0.846973,109.973,-25.2411,-55.7776,7.32422,-4.39453,2.50244,0.578796,0.64801,-0.484131,-0.102997,58630,59688,72,4246,-30256
2190,125159,4.20137,8.56543,-0.851758,110.001,-25.2026,-55.9039,8.8501,-7.32422,2.2583,0.578522,0.647736,-0.48465,-0.103699,58619,59690,77,4246,-30256
2196,125165,4.321,8.70898,-0.875684,110.078,-25.1202,-56.1621,10.5591,-9.27734,1.89209,0.577759,0.647247,-0.48587,-0.105255,58614,59689,77,4246,-30256
2202,125171,4.26836,8.65156,-0.866113,110.116,-25.0818,-56.2939,10.498,-9.21631,1.52588,0.577332,0.647034,-0.486511,-0.106018,58610,59689,77,4246,-30256
2208,125177,4.26357,8.61807,-0.866113,110.154,-25.0378,-56.4313,11.3525,-9.76563,1.28174,0.576904,0.64682,-0.487122,-0.106781,58606,59690,78,4246,-30256
2214,125183,4.17266,8.56543,-0.842188,110.209,-24.9994,-56.5686,12.7563,-10.8643,1.2207,0.576447,0.646606,-0.487762,-0.107544,58601,59693,80,4246,-30256
2220,125189,4.12959,8.57979,-0.947461,110.27,-24.95,-56.7114,14.2822,-12.7563,0.793457,0.575928,0.646454,-0.488464,-0.108307,58592,59697,94,4246,-30256
2226,125195,4.12002,8.73291,-1.03838,110.413,-24.8566,-57.03,15.3809,-15.625,0.854492,0.574677,0.646149,-0.48996,-0.109894,58588,59700,102,4246,-30256
2232,125201,4.18701,8.67549,-1.00488,110.49,-24.8016,-57.1948,15.5029,-17.2729,0.183105,0.573975,0.646027,-0.490753,-0.110687,58584,59702,108,4246,-30256
2238,125207,4.29707,8.575,-1.10059,110.572,-24.7467,-57.3706,16.4795,-18.7378,-0.12207,0.573242,0.645874,-0.491577,-0.111572,58578,59703,112,4246,-30256
2244,125213,4.34492,8.57979,-1.24414,110.665,-24.6808,-57.5464,17.8833,-20.0195,-0.854492,0.572479,0.645752,-0.492432,-0.112457,58574,59704,111,4246,-30256
2250,125219,4.45498,8.72334,-1.40205,110.764,-24.6204,-57.7277,19.043,-20.3857,-1.34277,0.571625,0.645691,-0.493317,-0.113373,58567,59705,115,4246,-30256
2256,125225,4.50283,8.81426,-1.27285,110.923,-24.4995,-58.0573,16.4795,-17.8223,-1.70898,0.569946,0.645569,-0.495026,-0.115112,58565,59704,120,4246,-30256
2262,125231,4.24922,8.49844,-1.43555,111.006,-24.4446,-58.2166,16.5405,-17.4561,-1.58691,0.569214,0.645477,-0.495789,-0.115967,58564,59704,127,4246,-30256
2268,125237,4.39277,8.65635,-1.37813,111.083,-24.3896,-58.3704,17.395,-16.7236,-1.52588,0.568451,0.645386,-0.496582,-0.116791,58564,59705,138,4246,-30256
2274,125243,4.32578,8.77119,-1.7418,111.165,-24.3402,-58.5187,17.2729,-15.7471,-1.28174,0.567719,0.645294,-0.497345,-0.117584,58565,59705,152,4246,-30256
2280,125249,4.35449,8.93867,-1.62695,111.231,-24.2963,-58.6615,15.7471,-14.1602,-0.976563,0.566986,0.645233,-0.498108,-0.118317,58566,59707,182,4246,-30256
2286,125255,4.321,8.81426,-1.88057,111.352,-24.2139,-58.9417,13.6719,-13.7939,0.183105,0.565735,0.644958,-0.499512,-0.11972,58568,59709,196,4246,-30256
2292,125261,4.24443,8.90039,-1.98584,111.407,-24.1809,-59.079,12.5122,-12.8784,0.366211,0.565155,0.644775,-0.500244,-0.120392,58568,59712,211,4246,-30256
2298,125267,4.2875,8.9626,-2.10547,111.445,-24.1534,-59.2108,10.376,-11.9629,0.915527,0.564636,0.644562,-0.500946,-0.121063,58567,59714,224,4246,-30256
2304,125273,4.55547,9.13965,-2.2251,111.467,-24.1205,-59.3317,8.05664,-10.9253,0.488281,0.564209,0.644287,-0.501617,-0.121735,58565,59716,238,4246,-30256
2310,125279,4.56504,9.13486,-2.30166,111.484,-24.0985,-59.4525,5.79834,-10.0708,0.915527,0.563843,0.643982,-0.502228,-0.122437,58559,59720,267,4246,-30256
2316,125285,4.79951,8.97695,-2.19639,111.451,-24.071,-59.6503,-0.12207,-5.31006,0.793457,0.563477,0.643158,-0.503357,-0.123779,58557,59722,283,4246,-30256
2322,125291,4.73252,8.7999,-2.37822,111.418,-24.0546,-59.7327,-1.34277,-4.02832,0.305176,0.563477,0.6427,-0.503815,-0.124451,58557,59723,297,4246,-30256
