TimeSinceCollection,Timestamp,AccX,AccY,AccZ,AngleRoll,AnglePitch,AngleYaw,AngularVelX,AngularVelY,             AngularVelZ,Q1,Q2,Q3,Q4,MagX,MagY,MagZ,Height,Airpressure
0,27833,4.10088,9.0918,-1.21543,94.5154,-25.1642,-47.8564,-2.74658,1.0376,-0.12207,0.670319,0.595154,-0.425873,-0.122406,59454,59586,63148,3160,-30126
6,27839,4.14395,8.90518,-0.952246,94.4604,-25.1697,-47.818,-5.92041,3.66211,0.366211,0.670441,0.595093,-0.425751,-0.122375,59452,59586,63147,3160,-30126
12,27845,4.19658,8.74248,-1.00967,94.4275,-25.1697,-47.7795,-5.49316,5.5542,0.305176,0.670654,0.594971,-0.425598,-0.122345,59451,59587,63146,3160,-30126
18,27851,4.13438,8.78555,-1.1915,94.3945,-25.1752,-47.7411,-4.82178,6.10352,0.488281,0.670868,0.59491,-0.425385,-0.122253,59451,59587,63144,3160,-30126
24,27857,3.97646,9.0583,-1.15322,94.3616,-25.1807,-47.7026,-5.12695,6.34766,0.793457,0.671082,0.594849,-0.425171,-0.122131,59451,59588,63142,3160,-30126
30,27863,4.05303,9.09658,-1.31592,94.3176,-25.1862,-47.6642,-6.53076,6.40869,1.15967,0.67157,0.594666,-0.424744,-0.121857,59453,59587,63145,3160,-30126
36,27869,4.20137,9.17314,-1.0958,94.2133,-25.2026,-47.5708,-9.39941,8.54492,1.64795,0.671875,0.594513,-0.4245,-0.121735,59455,59588,63147,3160,-30126
42,27875,4.21094,9.08701,-0.947461,94.1473,-25.2136,-47.5104,-10.2539,9.58252,1.77002,0.672241,0.594299,-0.424225,-0.121613,59457,59588,63147,3160,-30126
48,27881,4.1918,8.9626,-1.04795,94.0759,-25.2246,-47.45,-10.437,10.437,1.89209,0.672668,0.594086,-0.42392,-0.12146,59456,59588,63146,3160,-30126
54,27887,4.18223,8.94824,-1.14844,94.0045,-25.2356,-47.3895,-10.6201,10.498,1.95313,0.673096,0.593872,-0.423584,-0.121277,59453,59587,63143,3160,-30126
60,27893,4.12002,9.02481,-1.18193,93.9331,-25.2466,-47.3236,-11.2305,10.8643,2.13623,0.674011,0.593414,-0.422882,-0.120911,59448,59585,63136,3160,-30126
66,27899,4.32578,9.10137,-1.11973,93.7738,-25.274,-47.1918,-13.1836,12.085,2.0752,0.6745,0.59317,-0.422516,-0.120758,59446,59584,63130,3160,-30126
72,27905,4.20137,9.07266,-1.12451,93.6804,-25.285,-47.1149,-14.5264,12.9395,2.0752,0.675018,0.592865,-0.42215,-0.120575,59444,59583,63124,3160,-30126
78,27911,4.34971,9.09658,-0.957031,93.576,-25.296,-47.038,-15.3809,13.855,2.19727,0.675598,0.59256,-0.421722,-0.120392,59443,59583,63116,3160,-30126
84,27917,4.21094,9.02002,-1.05273,93.4772,-25.307,-46.9611,-15.686,13.5498,1.70898,0.676208,0.592194,-0.421265,-0.120209,59442,59582,63110,3160,-30126
90,27923,4.17744,9.02959,-1.05752,93.3728,-25.318,-46.8842,-16.7236,13.3057,1.58691,0.676819,0.591858,-0.420807,-0.120056,59439,59580,63098,3160,-30126
96,27929,4.1248,9.0918,-1.00488,93.1531,-25.3345,-46.7249,-18.1274,13.7939,1.0376,0.678101,0.591125,-0.419861,-0.119812,59438,59578,63096,3160,-30126
102,27935,4.11523,9.00088,-0.827832,93.0377,-25.34,-46.6479,-18.9209,14.1602,0.793457,0.678772,0.590729,-0.419373,-0.11972,59438,59616,63091,3160,-30126
108,27941,4.07695,8.9291,-0.569434,92.9169,-25.3455,-46.5656,-19.4702,14.1602,0.793457,0.679443,0.590302,-0.418884,-0.119629,59436,59652,63086,3160,-30126
114,27947,4.03389,8.75205,-0.512012,92.807,-25.3455,-46.4941,-18.4326,13.2446,0.488281,0.680176,0.589844,-0.418365,-0.119568,59433,59683,63077,3160,-30126
120,27953,4.01475,8.69463,-0.6125,92.7026,-25.351,-46.4282,-17.1509,12.207,0.488281,0.681427,0.58905,-0.41745,-0.119476,59427,59736,63054,3160,-30126
126,27959,3.97646,8.91953,-0.521582,92.5104,-25.3564,-46.3129,-16.1743,10.2539,0.488281,0.682007,0.588684,-0.417053,-0.119476,59424,59759,63043,3160,-30126
132,27965,4.03867,8.81904,-0.44502,92.417,-25.3564,-46.2634,-16.0522,9.46045,0.610352,0.682556,0.588318,-0.416687,-0.119476,59419,59779,63034,3160,-30126
138,27971,4.03389,8.75684,-0.29668,92.3291,-25.3619,-46.214,-15.1978,8.97217,0.305176,0.683075,0.587952,-0.416351,-0.119507,59414,59798,63024,3160,-30126
144,27977,4.03867,8.74248,-0.229688,92.2522,-25.3619,-46.1755,-13.7329,8.05664,0.244141,0.683563,0.587585,-0.416016,-0.119507,59410,59813,63017,3160,-30126
150,27983,4.00518,8.72813,-0.325391,92.1863,-25.3619,-46.1371,-11.9629,7.01904,0,0.684387,0.587006,-0.415466,-0.119598,59402,59831,63004,3160,-30126
156,27989,3.99082,8.91475,-0.478516,92.0764,-25.3564,-46.0931,-10.1929,4.57764,-0.244141,0.684723,0.586761,-0.415253,-0.119659,59400,59836,62998,3160,-30126
162,27995,4.04346,8.91953,-0.492871,92.0215,-25.351,-46.0767,-10.1318,3.66211,-0.244141,0.684998,0.586517,-0.4151,-0.119751,59398,59841,62990,3160,-30126
168,28001,4.08652,8.85732,-0.512012,91.972,-25.351,-46.0602,-9.94873,3.54004,-0.0610352,0.685272,0.586304,-0.414948,-0.119843,59395,59846,62981,3160,-30126
174,28007,4.1583,8.83818,-0.516797,91.9281,-25.3455,-46.0437,-9.58252,3.35693,-0.0610352,0.685547,0.58606,-0.414795,-0.119934,59393,59851,62972,3160,-30126
180,28013,4.15352,8.90518,-0.607715,91.8787,-25.3455,-46.0327,-9.27734,3.54004,-0.0610352,0.686035,0.585632,-0.414551,-0.120148,59386,59860,62950,3160,-30126
186,28019,4.01475,9.01523,-0.421094,91.7798,-25.3455,-45.9943,-10.6812,4.21143,0.183105,0.68631,0.585388,-0.414398,-0.120209,59385,59865,62939,3160,-30126
192,28025,4.05303,8.78076,-0.344531,91.7194,-25.3455,-45.9723,-10.9253,4.69971,0.610352,0.686615,0.585144,-0.414246,-0.1203,59382,59870,62927,3160,-30126
198,28031,4.11045,8.63242,-0.330176,91.6644,-25.3455,-45.9503,-10.0708,5.06592,0.732422,0.68692,0.584869,-0.414063,-0.120361,59379,59875,62916,3160,-30126
204,28037,4.00518,8.6707,-0.14834,91.615,-25.351,-45.9283,-8.91113,5.37109,0.671387,0.687225,0.584625,-0.41391,-0.120422,59377,59879,62908,3160,-30126
210,28043,3.95254,8.71855,-0.0717773,91.571,-25.351,-45.9064,-7.93457,5.00488,0.854492,0.687775,0.584198,-0.413605,-0.120453,59371,59883,62896,3160,-30126
216,28049,3.90469,8.68027,-0.13877,91.5051,-25.3619,-45.8734,-5.43213,3.479,1.40381,0.687988,0.584015,-0.413483,-0.120453,59369,59884,62892,3160,-30126
222,28055,3.90469,8.75205,-0.277539,91.4886,-25.3674,-45.8679,-4.08936,2.44141,1.52588,0.688141,0.583893,-0.413422,-0.120422,59367,59885,62887,3160,-30126
228,28061,3.94775,8.89561,-0.378027,91.4722,-25.3784,-45.8624,-3.35693,1.58691,2.01416,0.688263,0.583771,-0.413391,-0.120422,59365,59884,62882,3160,-30126
234,28067,4.09609,9.02002,-0.564648,91.4557,-25.3839,-45.8624,-3.41797,1.64795,2.19727,0.688354,0.583649,-0.413422,-0.120422,59365,59884,62877,3160,-30126
240,28073,4.15352,9.0583,-0.60293,91.4392,-25.3949,-45.8569,-4.39453,2.50244,2.62451,0.688568,0.583405,-0.413422,-0.120361,59361,59885,62866,3160,-30126
246,28079,4.22529,8.89561,-0.382813,91.3733,-25.4169,-45.8185,-5.7373,5.43213,2.62451,0.688721,0.583252,-0.413361,-0.120331,59359,59884,62862,3160,-30126
252,28085,4.14873,8.74727,-0.210547,91.3348,-25.4279,-45.791,-5.7373,6.22559,2.68555,0.688965,0.583069,-0.413269,-0.120239,59357,59883,62859,3160,-30126
258,28091,4.02432,8.66592,-0.0861328,91.3019,-25.4388,-45.7635,-4.69971,6.16455,2.44141,0.689178,0.582916,-0.413147,-0.120148,59354,59883,62858,3160,-30126
264,28097,3.98125,8.59414,-0.196191,91.2854,-25.4498,-45.7416,-2.56348,4.76074,2.50244,0.689392,0.582794,-0.413025,-0.120026,59353,59881,62856,3160,-30126
270,28103,3.97646,8.68027,-0.368457,91.2799,-25.4608,-45.7361,-0.549316,2.80762,2.31934,0.689514,0.582703,-0.412964,-0.119904,59352,59878,62851,3160,-30126
276,28109,4.14395,8.99609,-0.478516,91.2854,-25.4773,-45.7361,-0.549316,0.854492,2.2583,0.689545,0.582672,-0.413025,-0.119751,59351,59876,62849,3160,-30126
282,28115,4.254,8.98174,-0.507227,91.2799,-25.4883,-45.7361,-1.70898,1.40381,2.31934,0.689545,0.582642,-0.413086,-0.11969,59352,59872,62845,3160,-30126
288,28121,4.25879,8.88603,-0.44502,91.2689,-25.4993,-45.7251,-2.38037,2.62451,2.19727,0.689575,0.58255,-0.413116,-0.119659,59353,59870,62840,3160,-30126
294,28127,4.17266,8.86689,-0.258398,91.2524,-25.5048,-45.7141,-2.80762,3.41797,2.01416,0.689667,0.582489,-0.413086,-0.119598,59356,59868,62836,3160,-30126
300,28133,4.06738,8.76162,-0.162695,91.236,-25.5103,-45.7031,-2.44141,3.23486,1.77002,0.68988,0.582336,-0.413025,-0.119476,59360,59867,62828,3160,-30126
306,28139,3.98125,8.67549,-0.181836,91.2305,-25.5267,-45.6976,0.305176,0.671387,1.64795,0.689911,0.582275,-0.413025,-0.119415,59362,59866,62828,3160,-30126
312,28145,4.0291,8.73291,-0.330176,91.2469,-25.5322,-45.7141,1.77002,-0.976563,1.46484,0.689911,0.582275,-0.413055,-0.119385,59363,59866,62825,3160,-30126
318,28151,4.13438,8.87168,-0.47373,91.2689,-25.5377,-45.7306,2.31934,-2.2583,1.52588,0.689819,0.582306,-0.413177,-0.119354,59362,59865,62821,3160,-30126
324,28157,4.17744,8.93389,-0.512012,91.2854,-25.5377,-45.7471,1.58691,-2.19727,1.34277,0.689697,0.582367,-0.4133,-0.119385,59362,59865,62820,3160,-30126
330,28163,4.20615,8.94346,-0.330176,91.3019,-25.5432,-45.7635,0.732422,-1.70898,1.40381,0.689514,0.582367,-0.413544,-0.119415,59360,59865,62808,3160,-30126
336,28169,4.18701,8.64199,0.00478516,91.3184,-25.5542,-45.7855,1.2207,-1.09863,0.915527,0.689484,0.582367,-0.413635,-0.119415,59359,59864,62806,3160,-30126
342,28175,4.05781,8.57022,-0.0143555,91.3458,-25.5542,-45.8075,3.66211,-2.44141,0.549316,0.689392,0.582397,-0.413727,-0.119415,59357,59863,62803,3160,-30126
348,28181,4.00518,8.72813,-0.14834,91.3898,-25.5542,-45.8405,6.04248,-4.63867,0.244141,0.68924,0.582489,-0.413849,-0.119446,59355,59861,62805,3160,-30126
354,28187,4.1248,8.89561,-0.449805,91.4502,-25.5487,-45.8844,7.69043,-7.08008,-0.0610352,0.688995,0.582642,-0.414063,-0.119476,59355,59859,62807,3160,-30126
360,28193,4.34971,9.0918,-0.842188,91.5161,-25.5432,-45.9393,8.42285,-8.8501,-0.488281,0.688232,0.583069,-0.414642,-0.11969,59356,59856,62817,3160,-30126
366,28199,4.79473,9.50811,-1.6126,91.6205,-25.5267,-46.0272,4.63867,-6.28662,-1.40381,0.687836,0.583282,-0.414948,-0.119812,59357,59855,62821,3160,-30126
372,28205,4.76602,9.68037,-1.46904,91.6315,-25.5157,-46.0437,-0.427246,-1.83105,-1.77002,0.687592,0.583435,-0.415131,-0.119934,59357,59856,62821,3160,-30126
378,28211,4.50762,9.51768,-1.04316,91.604,-25.5048,-46.0327,-5.43213,2.0752,-1.64795,0.687531,0.583466,-0.415161,-0.120056,59360,59857,62821,3160,-30126
384,28217,4.17266,9.0918,-0.535937,91.5601,-25.4993,-46.0107,-7.56836,4.08936,-1.58691,0.687653,0.583374,-0.415039,-0.120148,59361,59858,62823,3160,-30126
390,28223,4.00518,8.72813,-0.387598,91.5271,-25.4883,-45.9943,-6.40869,3.2959,-1.89209,0.687866,0.583221,-0.414856,-0.120239,59364,59858,62822,3160,-30126
396,28229,4.0626,8.89082,-0.76084,91.5216,-25.4608,-46.0162,-1.28174,-3.17383,-2.44141,0.68811,0.583099,-0.414612,-0.120453,59364,59858,62720,3160,-30126
402,28235,4.08652,9.20664,-0.913965,91.5326,-25.4498,-46.0437,-1.2207,-4.94385,-2.50244,0.688019,0.583099,-0.414642,-0.120605,59364,59860,62825,3160,-30126
408,28241,4.39756,9.35977,-1.17236,91.5326,-25.4333,-46.0767,-3.66211,-5.12695,-2.38037,0.687927,0.58313,-0.414734,-0.12085,59364,59862,62720,3160,-30126
414,28247,4.67988,9.39805,-1.20107,91.5161,-25.4169,-46.0876,-6.5918,-2.62451,-2.50244,0.687866,0.583069,-0.414825,-0.121094,59365,59864,62825,3160,-30126
420,28253,4.73252,9.34541,-1.0623,91.4667,-25.4059,-46.0822,-10.2539,1.83105,-2.62451,0.687927,0.582947,-0.414825,-0.121368,59366,59865,62823,3160,-30126
426,28259,4.36885,9.07266,-0.650781,91.3074,-25.3784,-45.9943,-14.7705,9.09424,-2.80762,0.688568,0.582489,-0.414337,-0.121704,59367,59864,62822,3160,-30126
432,28265,4.11523,8.91475,-0.617285,91.214,-25.3619,-45.9393,-15.1978,10.1929,-3.05176,0.689056,0.582184,-0.41391,-0.121796,59367,59863,62822,3160,-30126
438,28271,3.8999,8.91953,-0.693848,91.1316,-25.351,-45.8899,-14.8315,9.52148,-2.68555,0.689545,0.581909,-0.413452,-0.121887,59367,59864,62821,3160,-30126
444,28277,3.85205,9.01523,-0.803906,91.0437,-25.34,-45.8459,-14.6484,8.05664,-2.44141,0.690033,0.581604,-0.413055,-0.121979,59366,59865,62819,3160,-30126
450,28283,3.92861,9.00566,-0.818262,90.9613,-25.329,-45.8075,-15.4419,7.08008,-2.01416,0.690491,0.581299,-0.412659,-0.12207,59364,59865,62810,3160,-30126
456,28289,4.37363,9.0583,-0.564648,90.7745,-25.307,-45.7251,-17.6392,7.93457,-1.64795,0.691406,0.580597,-0.411987,-0.122375,59363,59864,62802,3160,-30126
462,28295,4.34492,9.04873,-0.392383,90.6757,-25.3015,-45.6812,-18.3716,8.91113,-1.64795,0.691956,0.5802,-0.411652,-0.122498,59361,59861,62797,3160,-30126
468,28301,4.27793,8.90039,-0.521582,90.5713,-25.296,-45.6262,-18.6157,9.94873,-1.28174,0.692505,0.579803,-0.411255,-0.12265,59358,59859,62791,3160,-30126
474,28307,4.23965,8.95781,-0.483301,90.4559,-25.285,-45.5658,-19.104,10.8643,-1.52588,0.693085,0.579376,-0.410828,-0.122742,59353,59856,62787,3160,-30126
480,28313,4.20615,9.03916,-0.540723,90.3461,-25.274,-45.5054,-19.2261,11.9629,-2.01416,0.693695,0.578949,-0.41037,-0.122833,59346,59852,62779,3160,-30126
486,28319,3.92383,8.94824,-0.488086,90.1044,-25.2576,-45.39,-21.5454,9.46045,-1.70898,0.695007,0.578033,-0.409393,-0.122986,59343,59850,62772,3160,-30126
492,28325,3.8377,8.89082,-0.153125,89.989,-25.2521,-45.3406,-21.4844,9.27734,-0.976563,0.695648,0.577545,-0.408966,-0.123169,59341,59848,62767,3160,-30126
498,28331,3.93818,8.6707,-0.0861328,89.8792,-25.2466,-45.3021,-20.9351,7.69043,-0.793457,0.696289,0.577026,-0.408569,-0.123322,59339,59845,62761,3160,-30126
504,28337,3.90947,8.57022,-0.14834,89.7858,-25.2411,-45.2802,-18.7988,4.5166,-1.15967,0.696869,0.576508,-0.408234,-0.123535,59336,59842,62756,3160,-30126
510,28343,4.16787,8.72813,0.0861328,89.7198,-25.2246,-45.2911,-15.1978,-1.15967,-3.05176,0.697357,0.576019,-0.40799,-0.123779,59377,59835,62743,3160,-30126
516,28349,4.63682,8.44102,0.00478516,89.6594,-25.1752,-45.3571,-10.2539,-6.46973,-5.06592,0.697754,0.575439,-0.407867,-0.124603,59368,59832,62733,3160,-30126
522,28355,4.70859,8.70898,-0.162695,89.6375,-25.1422,-45.379,-7.75146,-2.99072,-6.22559,0.697815,0.575226,-0.407898,-0.125092,59360,59828,62726,3160,-30126
528,28361,4.50283,9.0583,-0.401953,89.6045,-25.1093,-45.3735,-8.30078,1.2207,-6.83594,0.697876,0.575134,-0.407837,-0.125458,59354,59823,62719,3160,-30126
534,28367,4.12002,9.30234,-0.660352,89.5496,-25.0763,-45.3516,-11.2305,4.76074,-6.65283,0.698029,0.575073,-0.407593,-0.125763,59349,59819,62716,3160,-30126
540,28373,3.64629,9.25449,-0.851758,89.4781,-25.0433,-45.3296,-14.3433,4.57764,-6.46973,0.698303,0.574921,-0.407257,-0.126007,59340,59816,62713,3160,-30126
546,28379,3.27783,9.13486,-0.526367,89.3298,-24.9939,-45.3351,-17.7612,-2.2583,-4.5166,0.699005,0.574341,-0.406616,-0.126709,59337,59814,62710,3160,-30126
552,28385,3.66543,9.23535,-0.30625,89.2914,-24.9609,-45.4065,-15.625,-12.146,-5.67627,0.69931,0.573944,-0.406494,-0.127228,59334,59812,62704,3160,-30126
558,28391,3.67979,9.27363,-0.579004,89.2859,-24.928,-45.5164,-12.4512,-19.2261,-6.89697,0.699402,0.573547,-0.406647,-0.12796,59331,59810,62698,3160,-30126
564,28397,4.33535,10.3886,-0.957031,89.3243,-24.873,-45.6921,-9.21631,-31.1279,-10.8643,0.69928,0.573273,-0.407043,-0.128876,59327,59808,62693,3160,-30126
570,28403,4.27314,9.94355,-2.12939,89.3353,-24.8126,-45.8679,-14.5874,-31.311,-12.0239,0.698822,0.573059,-0.407684,-0.130157,59319,59804,62681,3160,-30126
576,28409,3.92861,9.82871,-2.40215,89.22,-24.6808,-46.1261,-29.7241,-21.3623,-12.3291,0.698425,0.572266,-0.408569,-0.132935,59366,59803,62680,3160,-30126
582,28415,3.11035,9.3502,-2.36865,89.0991,-24.6039,-46.2195,-36.438,-17.8223,-14.8315,0.698639,0.571564,-0.408752,-0.134308,59358,59803,62681,3160,-30126
588,28421,1.70352,8.81426,-2.38779,88.9508,-24.538,-46.3184,-41.5649,-17.7612,-12.6953,0.699036,0.57074,-0.408691,-0.135803,59401,59803,62682,3160,-30126
594,28427,0.75127,8.71377,-1.8375,88.8409,-24.472,-46.4832,-40.5884,-29.7241,-12.6343,0.699554,0.569763,-0.408661,-0.137299,59439,59804,62681,3160,-30126
600,28433,-0.488086,8.66592,-1.89492,88.7915,-24.4116,-46.7633,-36.6821,-50.293,-11.2915,0.69986,0.568726,-0.409027,-0.139099,59412,59803,62681,3160,-30126
606,28439,-0.253613,8.35488,-2.8376,88.9343,-24.3237,-47.7191,-27.4048,-97.1069,-6.40869,0.698914,0.566559,-0.411865,-0.144073,59403,59801,62683,3160,-30126
612,28445,1.40684,8.98174,-2.61748,89.1101,-24.3018,-48.3783,-24.9023,-119.751,-3.35693,0.697662,0.56543,-0.41449,-0.147186,59398,59797,62684,3160,-30126
618,28451,4.43584,10.0919,-1.57432,89.3188,-24.2523,-49.1144,-23.4985,-134.46,-7.75146,0.695923,0.564178,-0.417847,-0.150696,59396,59834,62687,3160,-30126
624,28457,5.95273,9.97705,-2.40693,89.4891,-24.2084,-49.801,-27.9541,-125.061,-7.62939,0.693817,0.562927,-0.421539,-0.154694,59396,59867,62695,3160,-30126
630,28463,6.52217,10.2833,-3.15342,89.5496,-24.1644,-50.3503,-39.2456,-101.501,-7.14111,0.692017,0.561584,-0.424866,-0.158478,59405,59925,62717,3160,-30126
636,28469,3.28262,10.068,-2.03848,89.3848,-24.0656,-51.2018,-63.2324,-76.8433,-8.42285,0.69043,0.558289,-0.429291,-0.164978,59414,59950,62738,3160,-30126
642,28475,2.26338,9.11094,-2.11982,89.2365,-24.0271,-51.6193,-70.6787,-77.4536,-5.49316,0.690308,0.556244,-0.430878,-0.168182,59425,59971,62759,3160,-30126
648,28481,1.29199,8.10606,-1.68438,89.0991,-24.0106,-52.0752,-71.5332,-84.7778,-2.56348,0.690369,0.553925,-0.432495,-0.171448,59388,59988,62780,3160,-30126
654,28487,0.980957,7.82373,-1.02402,89.0057,-24.0051,-52.6025,-67.8101,-97.5342,0.610352,0.690308,0.551453,-0.434387,-0.174835,59357,60003,62802,3160,-30126
660,28493,0.971387,7.81416,-0.827832,88.9728,-24.0161,-53.2068,-62.6221,-111.877,3.90625,0.689941,0.54892,-0.436768,-0.178375,59310,60027,62846,3160,-30126
666,28499,2.22031,8.51279,-1.42119,89.0002,-24.093,-54.5691,-59.4482,-128.296,10.2539,0.68808,0.543732,-0.442993,-0.185883,59294,60036,62871,3160,-30126
672,28505,2.82324,8.9626,-1.47861,89.0112,-24.1479,-55.2722,-62.2559,-130.493,13.0005,0.68692,0.540955,-0.446503,-0.189697,59283,60043,62901,3160,-30126
678,28511,3.26348,9.20186,-1.3877,89.0057,-24.2194,-55.9808,-66.7725,-131.226,15.3809,0.685791,0.538055,-0.450134,-0.193542,59276,60046,62936,3160,-30126
684,28517,3.67979,9.02002,-1.21543,88.9673,-24.2963,-56.6785,-71.6553,-129.883,17.2729,0.684753,0.534912,-0.453766,-0.197418,59274,60046,62972,3160,-30126
690,28523,4.07217,8.89082,-0.636426,88.9178,-24.3896,-57.3761,-74.585,-129.395,19.5923,0.683838,0.531616,-0.457336,-0.201263,59183,60043,63042,3160,-30126
696,28529,9.80957,9.51768,2.6127,88.83,-24.5599,-58.8098,-74.585,-127.747,15.5029,0.681915,0.524567,-0.464722,-0.209106,59151,60039,63079,3160,-30126
702,28535,20.9733,17.6381,5.53643,88.6707,-24.6149,-59.3207,-79.5898,-96.7407,7.87354,0.681061,0.521088,-0.468109,-0.212952,59128,60034,63118,3160,-30126
708,28541,25.8638,18.1501,10.9006,88.429,-24.6753,-59.6722,-80.8105,-68.9697,7.99561,0.680939,0.517853,-0.470367,-0.216339,59112,60068,63158,3160,-30126
714,28547,12.3122,8.92432,6.49824,88.1268,-24.7028,-59.837,-76.9043,-34.6069,1.2207,0.681458,0.514709,-0.471771,-0.219055,59103,60096,63199,3160,-30126
720,28553,11.4461,7.44092,6.704,87.7039,-24.7192,-59.7491,-78.2471,12.5732,-1.52588,0.682556,0.512115,-0.472076,-0.22113,58996,60141,63273,3160,-30126
726,28559,5.3498,4.87129,7.61318,86.6547,-24.7028,-58.9691,-66.2231,84.5947,-2.56348,0.6875,0.508179,-0.468506,-0.222504,58954,60157,63305,3160,-30126
732,28565,1.90449,4.27314,7.43135,86.1493,-24.7357,-58.4583,-54.5654,94.6655,7.26318,0.690765,0.506866,-0.465363,-0.221924,58918,60169,63333,3160,-30126
738,28571,0.301465,4.08174,7.19209,85.7373,-24.7687,-58.0243,-38.5742,83.6792,8.66699,0.694031,0.505737,-0.46228,-0.220734,58883,60176,63353,3160,-30126
744,28577,-1.3877,3.5458,6.79492,85.4352,-24.8071,-57.7386,-26.3672,60.3027,8.78906,0.696747,0.504822,-0.459747,-0.219543,58850,60181,63368,3160,-30126
750,28583,-1.47383,3.44531,5.80918,85.4242,-24.8895,-57.6782,13.3667,19.3481,15.5029,0.698669,0.503998,-0.458099,-0.218781,58790,60184,63376,3160,-30126
756,28589,0.689063,5.52686,3.74199,85.9955,-25.1532,-58.0957,62.9883,-39.917,25.8179,0.697998,0.504028,-0.459808,-0.217346,58813,60184,63373,3160,-30126
762,28595,2.78018,6.79492,3.18691,86.4404,-25.318,-58.4253,75.2563,-49.6826,28.8696,0.696106,0.504517,-0.462402,-0.216736,58833,60185,63369,3160,-30126
768,28601,4.04824,8.45059,2.86152,86.9183,-25.4883,-58.7549,81.4819,-48.645,31.6162,0.693756,0.505219,-0.465485,-0.216003,58850,60227,63366,3160,-30126
774,28607,4.81387,8.71377,1.61738,87.3468,-25.6531,-59.0295,76.2939,-39.6118,31.25,0.691345,0.506042,-0.468658,-0.215057,58817,60264,63367,3160,-30126
780,28613,7.59404,14.6952,5.49336,87.9126,-25.7465,-59.436,93.3228,-61.5234,15.8691,0.689209,0.506775,-0.471436,-0.213989,58765,60250,63372,3160,-30126
786,28619,4.1918,7.1873,-4.9,88.9893,-25.7025,-60.2875,72.2046,-47.0581,-4.76074,0.682159,0.509827,-0.47821,-0.214264,58746,60247,63380,3160,-30126
792,28625,5.27803,10.2163,-3.0625,89.4507,-25.752,-60.5621,78.6133,-42.6636,8.23975,0.679626,0.5112,-0.480316,-0.214386,58732,60246,63394,3160,-30126
798,28631,4.14873,11.3265,-3.03857,89.9231,-25.7574,-60.8972,74.2798,-54.2603,0.732422,0.677124,0.512573,-0.482635,-0.213806,58719,60247,63413,3160,-30126
804,28637,4.90957,10.8336,-3.31611,90.3296,-25.7684,-61.2323,59.6924,-55.3589,0.610352,0.674408,0.513885,-0.485046,-0.213715,58709,60248,63439,3160,-30126
810,28643,5.18232,9.84785,-3.47881,90.6976,-25.7574,-61.5399,53.4668,-52.4902,-2.56348,0.671997,0.514832,-0.487335,-0.213928,58695,60249,63494,3160,-30126
816,28649,5.98623,10.7905,-3.74199,91.2909,-25.7465,-61.9574,41.8701,-29.48,-2.31934,0.667786,0.516571,-0.491058,-0.214294,58691,60251,63522,3160,-30126
822,28655,5.94316,11.3552,-4.29707,91.4777,-25.73,-62.0618,31.7993,-17.8223,-3.66211,0.66626,0.517426,-0.49231,-0.214203,58690,60254,63553,3160,-30126
828,28661,5.65605,11.6279,-4.75645,91.571,-25.7245,-62.0892,16.9067,-4.94385,-2.62451,0.665192,0.518127,-0.493073,-0.21405,58689,60259,63582,3160,-30126
834,28667,5.3498,11.6088,-4.45977,91.5491,-25.7245,-62.0508,-0.427246,6.34766,-1.40381,0.664703,0.518555,-0.493347,-0.213867,58689,60266,63612,3160,-30126
840,28673,5.0292,10.958,-3.42139,91.4392,-25.7245,-61.9684,-15.4419,14.2212,-1.0376,0.664886,0.518616,-0.493134,-0.213745,58692,60281,63669,3160,-30126
846,28679,4.32578,9.05352,-0.263184,91.0547,-25.741,-61.7102,-29.2358,24.9023,-0.244141,0.666595,0.517761,-0.49173,-0.213745,58694,60289,63694,3160,-30126
852,28685,3.77549,8.25439,0.866113,90.8624,-25.7465,-61.5729,-27.4658,25.2075,0.12207,0.667786,0.517151,-0.490753,-0.213776,58695,60297,63712,3160,-30126
858,28691,3.48359,7.7376,1.34941,90.7141,-25.752,-61.4575,-19.6533,20.813,-0.305176,0.668915,0.516571,-0.489777,-0.213745,58695,60303,63727,3160,-30126
864,28697,3.23477,7.61318,1.31113,90.6317,-25.752,-61.3861,-10.1318,13.7329,-0.732422,0.6698,0.516174,-0.489014,-0.213684,58693,60308,63736,3160,-30126
870,28703,3.07207,7.90029,1.08145,90.6097,-25.752,-61.3641,-1.89209,5.92041,-0.610352,0.670319,0.515991,-0.488556,-0.213623,58688,60312,63751,3160,-30126
876,28709,3.48359,8.48887,0.77041,90.6647,-25.7574,-61.4301,5.00488,-6.34766,0.366211,0.670349,0.515961,-0.488525,-0.213623,58683,60312,63756,3160,-30126
882,28715,3.81377,8.40273,0.756055,90.7196,-25.7629,-61.496,7.01904,-9.8877,0.427246,0.670105,0.515991,-0.488831,-0.213715,58679,60310,63760,3160,-30126
888,28721,3.91426,8.46973,0.478516,90.7965,-25.7629,-61.5729,9.8877,-12.085,0.244141,0.669739,0.516022,-0.489227,-0.213837,58677,60310,63765,3160,-30126
894,28727,4.16309,8.45059,0.287109,90.8844,-25.7574,-61.6608,13.0615,-12.8174,-0.793457,0.66925,0.516083,-0.489746,-0.213989,58676,60310,63772,3160,-30126
900,28733,4.12002,8.78076,-0.0526367,90.9888,-25.7574,-61.7377,14.8315,-12.3291,-0.732422,0.668671,0.516296,-0.490265,-0.214081,58677,60313,63782,3160,-30126
906,28739,3.97646,9.03916,-0.598145,91.1755,-25.7465,-61.9025,13.7329,-12.5122,-0.671387,0.66748,0.516785,-0.491333,-0.214233,58677,60318,63789,3160,-30126
912,28745,3.95254,8.95303,-0.674707,91.2744,-25.7465,-61.9849,13.4277,-13.1836,-0.12207,0.66687,0.516998,-0.491852,-0.214325,58678,60322,63796,3160,-30126
918,28751,4.12002,9.05352,-0.727344,91.3678,-25.741,-62.0673,13.3057,-12.8174,-0.183105,0.66629,0.517212,-0.492401,-0.214417,58678,60326,63804,3160,-30126
924,28757,4.31621,9.154,-0.746484,91.4612,-25.741,-62.1442,13.4888,-11.7798,-0.366211,0.66571,0.517395,-0.49295,-0.214508,58680,60331,63812,3160,-30126
930,28763,4.34014,9.22578,-0.957031,91.5381,-25.7355,-62.2046,11.1694,-8.72803,-0.244141,0.665131,0.517639,-0.493469,-0.214569,58683,60301,63831,3160,-30126
936,28769,4.02432,9.24971,-1.25371,91.6425,-25.73,-62.2815,7.56836,-4.94385,-0.976563,0.664337,0.518005,-0.494141,-0.21463,58684,60271,63839,3160,-30126
942,28775,4.20615,9.36455,-1.36377,91.6809,-25.7245,-62.309,5.67627,-3.72314,-0.610352,0.664032,0.518158,-0.494354,-0.214661,58684,60243,63852,3160,-30126
948,28781,3.8999,9.30713,-1.39727,91.7139,-25.719,-62.3419,3.96729,-4.76074,-0.976563,0.663788,0.51828,-0.494537,-0.214661,58685,60215,63865,3160,-30126
954,28787,4.19658,9.46025,-1.19629,91.7303,-25.7135,-62.3694,0.854492,-3.41797,0.183105,0.663574,0.518341,-0.49472,-0.214752,58685,60233,63877,3160,-30126
960,28793,4.17266,9.35977,-0.966602,91.7358,-25.7135,-62.3969,-1.15967,-4.39453,-0.12207,0.663452,0.518311,-0.494873,-0.214844,58686,60259,63893,3160,-30126
966,28799,4.36406,8.96738,-0.526367,91.7249,-25.7135,-62.4353,-2.50244,-1.09863,0,0.663361,0.518097,-0.495087,-0.215179,58685,60270,63899,3160,-30126
972,28805,4.13916,8.88125,-0.535937,91.7084,-25.708,-62.4353,-3.2959,0.610352,-0.244141,0.663361,0.518036,-0.495148,-0.215271,58684,60279,63903,3160,-30126
978,28811,4.18701,9.01523,-0.334961,91.6864,-25.708,-62.4353,-3.84521,2.0752,-0.305176,0.663391,0.517944,-0.495117,-0.215393,58685,60288,63910,3160,-30126
984,28817,4.01953,8.86689,-0.239258,91.6644,-25.7025,-62.4298,-4.45557,2.2583,-0.610352,0.663513,0.517853,-0.495056,-0.215454,58688,60298,63914,3160,-30126
990,28823,3.82334,8.59893,-0.224902,91.6479,-25.697,-62.4353,-3.41797,0.244141,-0.915527,0.663605,0.517731,-0.494965,-0.215576,58693,60315,63921,3160,-30126
996,28829,3.87598,8.71377,-0.00957031,91.6479,-25.6915,-62.4683,-0.732422,-2.2583,-0.0610352,0.663635,0.517578,-0.494965,-0.21582,58695,60322,63923,3160,-30126
1002,28835,3.86162,8.75205,-0.220117,91.6589,-25.686,-62.5012,0.305176,-3.78418,-0.12207,0.663574,0.517517,-0.495056,-0.215973,58695,60328,63926,3160,-30126
1008,28841,3.89512,8.79033,-0.301465,91.6754,-25.6805,-62.5397,1.0376,-4.88281,-0.0610352,0.663452,0.517456,-0.495209,-0.216095,58694,60335,63929,3160,-30126
1014,28847,3.99082,8.83818,-0.330176,91.7029,-25.6805,-62.5836,1.70898,-6.16455,0.12207,0.6633,0.517426,-0.495392,-0.216248,58693,60340,63931,3160,-30126
1020,28853,4.08174,8.88125,-0.325391,91.7303,-25.675,-62.6276,2.44141,-6.28662,-0.183105,0.663086,0.517395,-0.495636,-0.2164,58692,60347,63934,3160,-30126
1026,28859,4.20615,9.07744,-0.693848,91.8018,-25.6641,-62.7155,3.41797,-5.7373,-0.244141,0.662628,0.517426,-0.496124,-0.216736,58693,60351,63936,3160,-30126
1032,28865,4.27793,9.20664,-0.904395,91.8237,-25.6641,-62.7484,2.31934,-4.02832,-0.305176,0.662384,0.517456,-0.496338,-0.216858,58695,60354,63940,3160,-30126
1038,28871,4.25879,9.27363,-1.0001,91.8347,-25.6586,-62.7649,0.488281,-1.77002,-0.183105,0.662201,0.517456,-0.496521,-0.216949,58697,60316,63947,3160,-30126
1044,28877,4.20615,9.26406,-0.952246,91.8292,-25.6531,-62.7704,-1.52588,0,-0.427246,0.662109,0.517456,-0.496613,-0.217041,58699,60322,63954,3160,-30126
1050,28883,4.12002,9.20664,-0.92832,91.8182,-25.6476,-62.7759,-2.86865,1.34277,-0.244141,0.662109,0.517426,-0.496613,-0.217133,58702,60332,63967,3160,-30126
1056,28889,4.08652,9.0918,-0.880469,91.7798,-25.6421,-62.7704,-4.02832,1.70898,-0.305176,0.662231,0.517273,-0.496521,-0.217316,58702,60335,63972,3160,-30126
1062,28895,4.08174,9.13486,-0.880469,91.7578,-25.6366,-62.7704,-4.63867,1.64795,-0.305176,0.662323,0.517181,-0.49646,-0.217407,58701,60338,63975,3160,-30126
1068,28901,4.12002,9.13486,-0.861328,91.7303,-25.6311,-62.7649,-5.61523,1.95313,-0.305176,0.662415,0.51709,-0.496399,-0.217529,58700,60340,63979,3160,-30126
1074,28907,4.16309,9.09658,-0.775195,91.6974,-25.6311,-62.7594,-6.71387,2.44141,-0.305176,0.662537,0.516937,-0.496307,-0.217651,58699,60344,63982,3160,-30126
1080,28913,4.1248,9.11572,-0.684277,91.6589,-25.6256,-62.7539,-7.62939,3.11279,-0.244141,0.662689,0.516785,-0.496216,-0.217804,58699,60350,63988,3160,-30126
1086,28919,4.14395,8.98174,-0.559863,91.5656,-25.6146,-62.7264,-8.78906,3.90625,-0.305176,0.663086,0.516418,-0.495911,-0.218079,58699,60353,63986,3160,-30126
1092,28925,4.09131,9.00566,-0.598145,91.5161,-25.6146,-62.7155,-8.72803,4.21143,-0.244141,0.6633,0.516235,-0.495758,-0.218231,58700,60356,63986,3160,-30126
1098,28931,4.05781,9.07266,-0.631641,91.4722,-25.6091,-62.699,-9.09424,4.15039,0.0610352,0.663544,0.516052,-0.495575,-0.218384,58699,60359,63983,3160,-30126
1104,28937,4.12002,9.0583,-0.665137,91.4172,-25.6091,-62.6825,-9.64355,4.45557,0,0.663788,0.515839,-0.495422,-0.218506,58698,60360,63979,3160,-30126
1110,28943,4.12959,9.08223,-0.689063,91.3623,-25.6036,-62.6605,-10.437,4.94385,-0.0610352,0.664063,0.515625,-0.495239,-0.218658,58695,60360,63975,3160,-30126
1116,28949,4.16309,8.98174,-0.617285,91.2305,-25.5981,-62.6166,-12.146,5.7373,-0.427246,0.664673,0.515137,-0.494781,-0.218964,58694,60361,63972,3160,-30126
1122,28955,4.16787,8.98174,-0.741699,91.1646,-25.5927,-62.5891,-12.2681,5.79834,-0.854492,0.665009,0.514862,-0.494537,-0.219116,58693,60362,63969,3160,-30126
1128,28961,4.1918,9.12051,-0.76084,91.0931,-25.5872,-62.5616,-12.6343,6.10352,-0.915527,0.665344,0.514618,-0.494263,-0.219299,58692,60363,63965,3160,-30126
1134,28967,4.20615,9.24971,-0.837402,91.0162,-25.5762,-62.5342,-13.9771,6.89697,-1.28174,0.66568,0.514343,-0.493988,-0.219513,58691,60366,63963,3160,-30126
1140,28973,4.22529,9.34541,-0.794336,90.9229,-25.5707,-62.4957,-16.1743,7.75146,-1.34277,0.666077,0.514069,-0.493652,-0.219696,58689,60368,63957,3160,-30126
1146,28979,4.29229,9.25928,-0.717773,90.7086,-25.5487,-62.4078,-19.8364,9.64355,-1.52588,0.667084,0.513336,-0.492859,-0.220184,58688,60368,63950,3160,-30126
1152,28985,4.33535,9.13965,-0.803906,90.5933,-25.5432,-62.3639,-20.6299,9.33838,-1.28174,0.667633,0.512909,-0.492401,-0.220459,58687,60369,63944,3160,-30126
1158,28991,4.46455,9.16357,-0.823047,90.4724,-25.5322,-62.3145,-20.813,10.376,-1.95313,0.668243,0.512482,-0.491913,-0.220734,58687,60369,63938,3160,-30126
1164,28997,4.46934,9.46982,-0.966602,90.3516,-25.5157,-62.254,-21.1182,12.0239,-2.31934,0.668823,0.512054,-0.491425,-0.221008,58685,60369,63933,3160,-30126
1170,29003,4.34971,9.62773,-1.09102,90.2197,-25.4993,-62.1881,-23.0103,12.207,-3.479,0.669464,0.511658,-0.490845,-0.221283,58685,60368,63927,3160,-30126
1176,29009,4.28271,9.33584,-1.50732,89.978,-25.4279,-62.1222,-23.4375,6.22559,-7.20215,0.670685,0.510803,-0.489716,-0.222076,58685,60366,63921,3160,-30126
1182,29015,4.55068,9.78086,-1.4834,89.8462,-25.4004,-62.0782,-25.9399,8.78906,-5.61523,0.671204,0.510406,-0.489166,-0.222626,58685,60366,63910,3160,-30126
1188,29021,4.47412,9.91006,-1.50732,89.6979,-25.3619,-62.0343,-28.3203,8.42285,-6.71387,0.671844,0.509949,-0.488586,-0.223114,58684,60364,63899,3160,-30126
1194,29027,4.51719,9.8,-1.49297,89.5331,-25.329,-61.9849,-31.6772,9.8877,-7.01904,0.672485,0.50943,-0.487946,-0.223694,58681,60362,63889,3160,-30126
1200,29033,4.74688,9.80479,-1.39727,89.3573,-25.2905,-61.9299,-34.3628,10.2539,-7.14111,0.673248,0.50882,-0.487213,-0.224304,58676,60361,63876,3160,-30126
1206,29039,5.44072,10.6422,0.325391,89.1376,-25.1093,-61.9684,-22.7661,-10.3149,-23.0713,0.674683,0.50766,-0.485779,-0.22583,58673,60359,63872,3160,-30126
1212,29045,6.89063,13.3362,-0.617285,89.187,-24.928,-62.1881,-11.9019,-39.5508,-36.7432,0.674652,0.507477,-0.485382,-0.227173,58669,60358,63864,3160,-30126
1218,29051,7.08203,11.537,-3.72285,89.176,-24.7302,-62.3914,-22.7051,-36.377,-41.1377,0.673645,0.507599,-0.485657,-0.229309,58665,60356,63854,3160,-30126
1224,29057,9.54639,11.7476,-1.44033,89.0552,-24.4775,-62.5067,-38.5742,-21.4233,-51.8188,0.672882,0.507568,-0.485626,-0.231689,58660,60356,63845,3160,-30126
1230,29063,10.5704,12.2309,2.20596,88.9948,-24.115,-62.644,-27.4658,-24.7803,-74.7681,0.672668,0.507416,-0.484741,-0.234344,58651,60357,63836,3160,-30126
1236,29069,9.46982,10.6518,-1.0958,88.7531,-23.2635,-62.6111,-25.8179,13.7939,-91.9189,0.671509,0.508972,-0.48172,-0.24057,58645,60360,63835,3160,-30126
1242,29075,7.86201,11.1733,-2.08154,88.6102,-22.7472,-62.4738,-22.8882,25.7568,-106.384,0.671356,0.510345,-0.479065,-0.243256,58638,60322,63833,3160,-30126
1248,29081,5.49814,12.3122,-1.49297,88.4729,-22.1539,-62.3859,-24.8413,17.5171,-122.253,0.671265,0.512238,-0.475769,-0.246002,58630,60291,63829,3160,-30126
1254,29087,4.78994,13.5468,-0.660352,88.3795,-21.5607,-62.4408,-27.3438,-8.8501,-124.084,0.670837,0.514313,-0.472351,-0.249451,58622,60267,63826,3160,-30126
1260,29093,5.75654,12.3936,-1.28721,88.3246,-20.9235,-62.655,-31.5552,-38.5132,-132.385,0.669891,0.516052,-0.469604,-0.253571,58653,60238,63824,3160,-30126
1266,29099,9.45547,11.805,-2.01934,88.2971,-19.5612,-63.1879,-26.3062,-49.1943,-151.062,0.666382,0.518951,-0.465607,-0.263977,58682,60192,63823,3160,-30126
1272,29105,9.50811,11.8815,-2.57441,88.2532,-18.7646,-63.3856,-28.9917,-37.7197,-166.748,0.664246,0.520782,-0.463409,-0.269623,58703,60158,63821,3160,-30126
1278,29111,7.72324,12.0395,-2.09111,88.1653,-17.9022,-63.501,-31.4941,-20.752,-179.81,0.66217,0.52298,-0.460449,-0.275482,58718,60135,63820,3160,-30126
1284,29117,5.3833,11.9103,-2.69883,88.0499,-16.9904,-63.5834,-34.729,-15.8081,-189.941,0.660339,0.525513,-0.456665,-0.281311,58725,60080,63816,3160,-30126
1290,29123,3.19648,12.628,-3.71328,87.995,-16.04,-63.7317,-27.771,-26.9165,-199.158,0.658478,0.528229,-0.452423,-0.287354,58822,60003,63812,3160,-30126
1296,29129,3.37354,17.351,-6.02451,88.1213,-14.1559,-64.5337,-16.6016,-98.938,-197.754,0.652832,0.534027,-0.445221,-0.300476,58854,59942,63812,3160,-30126
1302,29135,6.9002,16.9442,-8.6085,88.1488,-13.2001,-65.1764,-34.1187,-125.793,-202.087,0.648682,0.536255,-0.443298,-0.308228,58874,59895,63814,3160,-30126
1308,29141,9.26406,15.7288,-9.75693,88.0939,-12.2552,-65.7971,-49.9878,-124.207,-200.5,0.644318,0.537689,-0.441742,-0.316986,58936,59819,63817,3160,-30126
1314,29147,8.45059,12.2644,-10.068,87.8247,-11.4532,-66.1926,-82.2144,-81.4819,-171.082,0.64032,0.538696,-0.439911,-0.325836,58985,59759,63823,3160,-30126
1320,29153,8.78076,16.9299,-8.35967,87.4841,-10.7172,-66.3464,-87.4023,-35.4614,-156.555,0.638245,0.538849,-0.437042,-0.333405,59060,59672,63843,3160,-30126
1326,29159,4.98613,19.9063,-5.74219,86.5558,-8.97034,-66.8134,-127.991,-56.5186,-196.594,0.636383,0.53949,-0.428772,-0.346405,59084,59604,63855,3160,-30126
1332,29165,5.11533,14.0827,-8.23525,85.9131,-8.14087,-67.1484,-153.076,-66.1011,-178.223,0.635345,0.539124,-0.423828,-0.354828,59151,59551,63865,3168,-30127
1338,29171,5.3498,9.94834,-9.16836,85.21,-7.39929,-67.4561,-164.551,-62.8662,-161.072,0.634949,0.537567,-0.419189,-0.363342,59203,59508,63870,3168,-30127
1344,29177,4.5459,7.77109,-7.0916,84.4958,-6.78406,-67.7747,-167.847,-66.4063,-137.268,0.635071,0.535431,-0.414612,-0.37146,59242,59433,63870,3168,-30127
1350,29183,4.91914,7.24951,-3.4166,83.8531,-6.28967,-68.0823,-153.137,-64.9414,-114.563,0.635559,0.532684,-0.410614,-0.378937,59345,59312,63869,3168,-30127
1356,29189,1.53604,7.12988,0.550293,82.9797,-5.77881,-68.1482,-88.7451,-3.84521,-37.1094,0.636963,0.528168,-0.404144,-0.389679,59405,59264,63868,3168,-30127
1362,29195,0.516797,6.61787,-0.985742,82.771,-5.75134,-68.2086,-60.4248,-26.3672,-15.564,0.638336,0.526855,-0.401978,-0.391449,59455,59224,63864,3168,-30127
1368,29201,0.995313,6.24941,-2.3208,82.7325,-5.84473,-68.3844,-28.9307,-51.5747,4.69971,0.639008,0.525574,-0.401428,-0.392639,59497,59188,63857,3168,-30127
1374,29207,2.91895,7.05332,-3.56494,82.8314,-6.026,-68.6536,-2.68555,-73.1201,20.3247,0.638885,0.524384,-0.402557,-0.393311,59533,59156,63850,3168,-30127
1380,29213,5.22061,7.92422,-3.61279,83.0017,-6.25122,-68.9502,9.09424,-80.3223,28.3203,0.638031,0.523285,-0.40509,-0.393555,59595,59099,63841,3168,-30127
1386,29219,8.72813,9.17314,-2.89502,83.3752,-6.66321,-69.4116,14.7095,-61.2793,24.4751,0.635803,0.521484,-0.411163,-0.393188,59625,59073,63840,3168,-30127
1392,29225,9.08701,9.4459,-2.6749,83.562,-6.81152,-69.5105,16.4795,-42.7246,17.334,0.634857,0.521057,-0.413696,-0.39267,59656,59049,63842,3168,-30127
1398,29231,8.43623,9.28799,-2.44521,83.7323,-6.92139,-69.5105,15.625,-22.1558,12.085,0.634094,0.521149,-0.415558,-0.391815,59686,59026,63849,3168,-30127
1404,29237,6.94326,8.62285,-1.94756,83.8916,-7.02026,-69.4226,14.8315,-5.00488,12.085,0.633636,0.521667,-0.416718,-0.390625,59716,59004,63856,3168,-30127
1410,29243,5.50293,7.72803,-1.58867,84.0564,-7.14111,-69.2963,17.6392,2.13623,16.9678,0.633514,0.522461,-0.417358,-0.389069,59775,58961,63882,3168,-30127
1416,29249,4.00996,7.11553,-0.890039,84.5453,-7.4762,-69.0765,39.4287,-5.7373,28.6865,0.633453,0.524414,-0.418884,-0.384918,59751,58941,63897,3168,-30127
1422,29255,4.13438,7.38828,-0.722559,84.8804,-7.70691,-69.0161,50.5981,-12.085,37.2925,0.633057,0.525543,-0.420319,-0.382446,59732,58923,63913,3168,-30127
1428,29261,4.49326,7.90029,-0.349316,85.2539,-7.97607,-68.9722,58.8379,-16.2964,44.1895,0.632416,0.526703,-0.422302,-0.3797,59716,58907,63931,3168,-30127
1434,29267,4.70381,8.42188,-0.401953,85.6494,-8.2782,-68.9392,63.2324,-17.6392,50.9033,0.631622,0.527863,-0.424713,-0.37674,59704,58892,63948,3168,-30127
1440,29273,4.78516,8.97217,-0.416309,86.0559,-8.60779,-68.9008,65.6128,-17.0288,57.312,0.630798,0.528961,-0.427368,-0.373535,59695,58900,63987,3168,-30127
1446,29279,4.88086,10.0584,-0.330176,86.825,-9.37683,-68.8568,58.8379,-18.9819,70.9229,0.629333,0.530884,-0.433167,-0.366547,59697,58921,64009,3072,-30128
1452,29285,5.07705,9.70908,-0.775195,87.182,-9.79431,-68.8568,56.1523,-22.8271,75.0122,0.628876,0.531372,-0.436218,-0.362976,59704,58937,64037,3072,-30128
1458,29291,5.70391,9.50811,-0.708203,87.4951,-10.2338,-68.8623,48.645,-21.6064,78.9185,0.628479,0.531616,-0.439423,-0.359436,59663,58948,64070,3072,-30128
1464,29297,5.69912,8.97217,-0.0430664,87.7643,-10.6787,-68.8458,40.4053,-18.1885,80.2002,0.628296,0.531586,-0.442566,-0.355896,59630,58957,64102,3072,-30128
1470,29303,5.86182,8.66113,0.129199,87.995,-11.1292,-68.8293,34.3018,-16.4795,80.2612,0.628387,0.531311,-0.445496,-0.352448,59585,58964,64167,3072,-30128
1476,29309,5.42158,7.0916,1.60303,88.3521,-12.0081,-68.7579,23.4985,-9.76563,80.1392,0.62915,0.530304,-0.450806,-0.345856,59572,58961,64199,3072,-30128
1482,29315,5.22539,6.11064,1.88057,88.5388,-12.453,-68.714,27.771,-8.8501,80.0171,0.629791,0.529602,-0.453247,-0.34256,59566,58997,64233,3072,-30128
1488,29321,4.95742,5.36895,1.95713,88.7695,-12.8979,-68.6865,36.2549,-10.6201,80.1392,0.63031,0.528992,-0.455719,-0.339203,59514,59026,64269,3072,-30128
1494,29327,5.18232,5.03877,2.10068,89.0497,-13.3539,-68.6755,47.5464,-13.0615,81.4819,0.630646,0.528564,-0.458374,-0.335724,59469,59050,64301,3072,-30128
1500,29333,5.6417,5.17275,2.20596,89.3903,-13.8263,-68.67,59.1431,-13.4277,84.0454,0.630646,0.52832,-0.461304,-0.332062,59404,59079,64365,3072,-30128
1506,29339,7.03418,6.16328,1.57432,90.1923,-14.7986,-68.6206,76.4771,-4.76074,88.3789,0.630005,0.528473,-0.467773,-0.323822,59383,59125,64393,3072,-30128
1512,29345,7.4457,6.35469,1.19629,90.5988,-15.304,-68.5437,78.3081,4.5166,90.5762,0.629608,0.52887,-0.471008,-0.319244,59370,59160,64422,3072,-30128
1518,29351,7.55098,6.30205,1.26807,90.9778,-15.8203,-68.4064,76.6602,16.5405,92.4683,0.629364,0.529358,-0.474091,-0.314331,59313,59187,64454,3072,-30128
1524,29357,7.18252,6.00537,1.20586,91.3129,-16.3477,-68.2031,72.8149,30.1514,93.4448,0.629425,0.529877,-0.476837,-0.309113,59265,59208,64486,3072,-30128
1530,29363,6.72793,5.38809,0.885254,91.6425,-16.886,-67.9669,74.2188,38.3911,94.9097,0.629852,0.530396,-0.479187,-0.30368,59193,59306,64549,3072,-30128
1536,29369,5.79961,4.22529,1.36377,92.3016,-17.9517,-67.4176,81.604,48.5229,93.3228,0.631073,0.531708,-0.483307,-0.292145,59169,59340,64581,3072,-30128
1542,29375,5.61777,3.85684,1.56475,92.6752,-18.4845,-67.1265,89.8438,52.7344,93.4448,0.631622,0.532562,-0.485229,-0.286133,59153,59365,64608,3072,-30128
1548,29381,5.34023,3.58408,1.49775,93.0872,-19.0283,-66.8134,101.135,57.6172,93.9331,0.632019,0.53363,-0.487152,-0.279877,59090,59423,64634,3072,-30128
1554,29387,5.07705,3.45488,1.36855,93.5431,-19.5886,-66.4948,111.816,61.7065,96.0083,0.632263,0.535004,-0.489105,-0.273285,59037,59472,64658,3072,-30128
1560,29393,4.92393,3.61758,1.14365,94.032,-20.1544,-66.1652,120.361,65.3076,98.0225,0.632355,0.53656,-0.491089,-0.266357,58960,59541,64699,3072,-30128
1566,29399,4.49326,4.58896,0.45459,95.0757,-21.3409,-65.495,133.911,70.6787,102.783,0.632141,0.540161,-0.495178,-0.251648,58933,59605,64717,3185,-30129
1572,29405,4.40713,5.21104,0.110059,95.6195,-21.9397,-65.1599,137.451,72.2046,102.844,0.631836,0.542084,-0.497284,-0.243958,58913,59656,64736,3185,-30129
1578,29411,4.31143,5.68955,-0.114844,96.1469,-22.5494,-64.8248,135.376,73.8525,104.065,0.631439,0.544067,-0.499359,-0.236206,58848,59697,64753,3185,-30129
1584,29417,4.15352,5.88096,-0.239258,96.6357,-23.1647,-64.4843,129.761,77.2705,105.286,0.631104,0.545898,-0.501373,-0.228424,58792,59731,64768,3185,-30129
1590,29423,3.80898,5.8666,-0.406738,97.0862,-23.7799,-64.1327,124.634,80.7495,105.713,0.630951,0.547546,-0.503235,-0.220703,58704,59850,64791,3185,-30129
1596,29429,3.01465,5.59385,0.00478516,97.9211,-25.0214,-63.4406,116.821,80.9326,105.835,0.631012,0.550354,-0.506561,-0.205444,58670,59891,64797,3185,-30129
1602,29435,2.6749,5.27324,0.119629,98.3057,-25.6421,-63.1165,113.708,79.6509,106.262,0.631104,0.551514,-0.508148,-0.197998,58641,59922,64799,3185,-30129
1608,29441,2.50264,5.0292,0.229688,98.6902,-26.2628,-62.8033,112.366,77.9419,107.239,0.631226,0.552551,-0.509705,-0.190674,58618,59984,64800,3185,-30129
1614,29447,2.24424,4.81865,0.378027,99.0802,-26.8781,-62.5177,112.732,75.0122,106.995,0.631287,0.553436,-0.511292,-0.183441,58599,60036,64800,3185,-30129
1620,29453,2.15332,4.91914,0.311035,99.4867,-27.4933,-62.2595,115.356,71.228,107.788,0.631256,0.554291,-0.512909,-0.176331,58576,60143,64792,3185,-30129
1626,29459,2.32559,5.80918,-0.0717773,100.338,-28.7128,-61.8146,116.882,64.6973,108.948,0.630615,0.555939,-0.51651,-0.162231,58518,60198,64785,3185,-30129
1632,29465,2.39258,6.30205,-0.186621,100.756,-29.3225,-61.6168,113.403,63.5986,108.887,0.630157,0.556702,-0.518402,-0.155304,58470,60279,64774,3185,-30129
1638,29471,2.43086,6.72314,-0.234473,101.14,-29.9213,-61.4246,108.582,63.1714,108.459,0.6297,0.557312,-0.520294,-0.148529,58429,60347,64765,3185,-30129
1644,29477,2.51699,7.10596,-0.406738,101.503,-30.52,-61.2323,103.638,63.2324,107.483,0.629333,0.55777,-0.522095,-0.141907,58393,60405,64756,3185,-30129
1650,29483,2.42607,7.44092,-0.502441,101.832,-31.1023,-61.0345,98.1445,64.6973,105.835,0.629028,0.558105,-0.523804,-0.135437,58339,60526,64732,3185,-30129
1656,29489,1.89971,7.87637,-0.416309,102.36,-32.2394,-60.6006,83.6792,69.519,101.013,0.628876,0.558441,-0.526733,-0.122986,58320,60589,64716,3185,-30129
1662,29495,1.39727,7.90986,-0.234473,102.552,-32.7777,-60.3644,76.7212,70.9229,97.4121,0.629059,0.55838,-0.527893,-0.117065,58304,60636,64699,3185,-30129
1668,29501,0.870898,7.89072,0,102.717,-33.2886,-60.1337,71.167,70.1294,93.3838,0.629395,0.558228,-0.52887,-0.11142,58289,60713,64680,3185,-30129
1674,29507,0.430664,7.84766,0.291895,102.854,-33.7775,-59.903,65.6738,68.0542,89.1113,0.629822,0.558014,-0.529694,-0.106079,58276,60778,64662,3185,-30129
1680,29513,-0.062207,7.79502,0.406738,102.975,-34.2279,-59.6887,60.9131,65.4907,84.1064,0.63028,0.557709,-0.530457,-0.101044,58254,60871,64621,3185,-30129
1686,29519,-1.17236,7.929,0.799121,103.184,-35.0189,-59.3097,55.2979,56.8848,72.4487,0.631165,0.557098,-0.531647,-0.0921326,58248,60942,64594,3185,-30129
1692,29525,-1.71787,8.30703,1.05273,103.304,-35.3485,-59.1669,54.6265,49.7437,66.04,0.63147,0.556885,-0.532166,-0.0882263,58243,61001,64564,3185,-30129
1698,29531,-2.48828,9.38369,1.1915,103.442,-35.6287,-59.0735,52.4292,39.7949,59.082,0.631592,0.556793,-0.532715,-0.0847473,58238,61051,64532,3185,-30129
1704,29537,-2.56484,10.0153,0.703418,103.574,-35.8484,-59.024,46.9971,31.25,51.9409,0.6315,0.556763,-0.533325,-0.0818176,58234,61092,64500,3185,-30129
1710,29543,-2.78975,10.4173,0.62207,103.7,-36.0187,-59.0186,41.0156,21.6675,43.5181,0.631287,0.556763,-0.533936,-0.0794373,58225,61231,64433,3185,-30129
1716,29549,-1.16758,5.32588,0.545508,104.008,-36.1505,-59.1284,37.7197,4.15039,22.8271,0.630371,0.556946,-0.535217,-0.0766296,58220,61284,64400,3185,-30129
1722,29555,-1.88057,10.6326,1.42598,104.172,-36.123,-59.2053,38.6963,0.183105,11.0474,0.629639,0.557343,-0.535767,-0.0760498,58217,61327,64365,3185,-30129
1728,29561,-1.95234,10.7044,1.79922,104.332,-36.0297,-59.2548,40.7715,1.70898,-0.915527,0.628723,0.558014,-0.536133,-0.0758972,58213,61362,64331,3185,-30129
1734,29567,-2.78975,10.9628,2.11982,104.48,-35.8923,-59.2548,45.3491,6.83594,-11.3525,0.627747,0.559052,-0.536163,-0.0759888,58211,61391,64301,3185,-30129
1740,29573,-4.34014,11.671,2.01934,104.645,-35.7166,-59.2218,51.1475,10.498,-18.6768,0.62677,0.560486,-0.535797,-0.0762024,58208,61515,64241,3185,-30129
1746,29579,-6.4791,13.7478,0.239258,105.09,-35.2551,-59.2438,60.1807,-5.31006,-27.2217,0.624329,0.564362,-0.534485,-0.0767822,58205,61566,64216,3185,-30129
1752,29585,-6.29727,15.0445,-0.722559,105.403,-34.9585,-59.3756,60.9131,-21.3623,-31.25,0.622589,0.56662,-0.534058,-0.0774536,58200,61612,64190,3185,-30129
1758,29591,-5.37373,16.2456,-1.29678,105.716,-34.6289,-59.5569,55.9082,-31.9214,-35.7666,0.620422,0.568939,-0.533905,-0.0786743,58195,61652,64166,3185,-30129
1764,29597,-3.99561,16.8581,-1.6748,105.969,-34.2664,-59.7272,44.0674,-31.9214,-40.6494,0.618103,0.571259,-0.533905,-0.0803528,58191,61687,64142,3185,-30129
1770,29603,-2.90459,16.4896,-1.88057,106.095,-33.8873,-59.826,26.7944,-22.4609,-47.6685,0.616028,0.573334,-0.533752,-0.0824585,58179,61750,64100,3185,-30129
1776,29609,-2.11982,14.4416,-1.84707,105.963,-33.0469,-59.7766,-5.98145,0.12207,-66.3452,0.61377,0.576813,-0.531799,-0.087616,58173,61779,64084,3185,-30129
1782,29615,-2.59355,13.3889,-1.90449,105.732,-32.5745,-59.6558,-22.644,7.8125,-76.8433,0.613525,0.578278,-0.529907,-0.0906982,58168,61808,64074,3185,-30129
1788,29621,-2.46914,12.3601,-1.49297,105.43,-32.0581,-59.502,-32.1655,12.207,-86.1816,0.613861,0.57959,-0.527496,-0.0942383,58164,61793,64064,3185,-30129
1794,29627,-3.42617,10.2737,-0.119629,105.112,-31.5143,-59.3097,-34.0576,16.5405,-92.5903,0.614441,0.580872,-0.524658,-0.0981445,58160,61781,64056,3185,-30129
1800,29633,-3.76592,8.90518,1.27764,104.832,-30.9595,-59.1284,-26.4282,15.9302,-94.7876,0.615143,0.582275,-0.521545,-0.102142,58151,61766,64039,3072,-30128
1806,29639,-19.5617,72.1075,-27.4477,106.749,-28.559,-60.1337,212.524,-164.307,-211.304,0.609955,0.589661,-0.517242,-0.112213,58146,61764,64030,3072,-30128
1812,29645,-34.4627,88.2239,-77.7923,106.254,-27.9437,-59.7766,-63.1714,39.2456,-115.417,0.599487,0.599335,-0.516998,-0.118317,58141,61769,64019,3072,-30128
1818,29651,-11.5322,34.1373,-42.7602,105.134,-27.9382,-59.2877,-179.138,96.3745,-4.82178,0.601044,0.60083,-0.512421,-0.12265,58136,61739,64011,3072,-30128
1824,29657,-9.27842,37.8793,-21.6959,103.892,-27.9712,-59.2603,-249.268,19.6533,25.6348,0.607422,0.597137,-0.508636,-0.125092,58130,61715,64003,3072,-30128
1830,29663,7.00068,22.6577,-13.4894,101.992,-28.1854,-59.4965,-407.043,-18.7988,69.8853,0.613953,0.590485,-0.507263,-0.130249,58112,61692,63982,3072,-30128
1836,29669,12.7668,-3.43096,5.9958,98.064,-28.515,-59.079,-354.187,62.8662,45.3491,0.634644,0.567017,-0.504333,-0.145844,58152,61681,63965,3072,-30128
1842,29675,10.9484,-1.94756,10.69,96.3116,-28.6688,-58.4528,-294.373,124.634,34.3018,0.644501,0.557007,-0.501282,-0.151489,58185,61665,63943,3072,-30128
1848,29681,10.1924,-5.42158,11.3456,94.8889,-28.8171,-57.5409,-202.576,172.546,30.5176,0.654053,0.549225,-0.496552,-0.154572,58212,61684,63913,3072,-30128
1854,29687,8.02471,-4.37842,11.3504,93.8068,-28.916,-56.5796,-126.77,180.42,23.1934,0.662354,0.544342,-0.490906,-0.154572,58235,61697,63882,3072,-30128
1860,29693,4.9,-3.48838,7.78545,93.0487,-28.8721,-55.7007,-70.6177,164.734,-2.0752,0.668915,0.541748,-0.485321,-0.152985,58262,61699,63797,3072,-30128
1866,29699,0.277539,1.71787,6.95283,92.5983,-28.3667,-54.4867,41.0156,97.168,-49.6216,0.67627,0.54245,-0.475159,-0.150085,58264,61736,63742,3072,-30128
1872,29705,-5.40244,10.9771,7.68018,92.8564,-28.0975,-54.3329,65.1245,35.8276,-39.3066,0.676575,0.545624,-0.471375,-0.149078,58313,61765,63681,3072,-30128
1878,29711,-4.64639,13.0922,0.995313,93.0981,-27.8943,-54.6075,22.8882,-39.5508,-20.874,0.67514,0.548859,-0.469757,-0.148773,58354,61791,63618,3072,-30128
1884,29717,-0.952246,9.30234,-5.23496,93.4167,-27.735,-55.1294,13.7939,-83.313,-10.0098,0.673309,0.549988,-0.47049,-0.150635,58389,61815,63559,3072,-30128
1890,29723,3.25391,9.66602,-3.78984,93.7079,-27.6031,-55.7117,2.80762,-94.1162,-4.27246,0.670837,0.550354,-0.472717,-0.153381,58445,61861,63453,3072,-30128
1896,29729,8.74727,11.0824,-3.86641,94.0045,-27.334,-56.5302,-13.4277,-45.7764,-7.56836,0.666443,0.549866,-0.477478,-0.159363,58470,61881,63415,3072,-30128
1902,29735,9.4459,11.8528,-5.75654,93.8617,-27.2406,-56.5082,-28.7476,10.1318,-6.34766,0.665436,0.549591,-0.478455,-0.16156,58494,61858,63386,3072,-30128
1908,29741,8.23047,12.9486,-5.91924,93.4717,-27.1527,-56.2445,-56.8237,53.5889,-8.60596,0.665985,0.549255,-0.477753,-0.162628,58518,61879,63366,3072,-30128
1914,29747,5.79482,12.4653,-4.44063,92.8564,-27.0758,-55.8215,-87.1582,81.9092,-8.17871,0.668091,0.548431,-0.475525,-0.163239,58540,61898,63350,3072,-30128
1920,29753,4.08174,10.6613,-2.90459,92.1313,-27.0099,-55.3601,-107.239,88.7451,-6.22559,0.671509,0.546906,-0.47229,-0.163757,58578,61892,63316,3072,-30128
1926,29759,3.11035,7.8333,0.837402,90.7196,-26.8781,-54.5691,-106.567,71.5942,-4.15039,0.679504,0.54245,-0.465363,-0.165283,58592,61908,63296,3072,-30128
1932,29765,3.33525,7.18252,1.56953,90.1373,-26.8066,-54.2889,-95.6421,56.5186,-5.18799,0.683136,0.540161,-0.462372,-0.16626,58602,61920,63270,3072,-30128
1938,29771,3.58887,7.19209,2.15332,89.6484,-26.7297,-54.0582,-80.8105,48.4009,-5.18799,0.686157,0.538086,-0.459869,-0.167389,58609,61929,63239,3072,-30128
1944,29777,3.66064,7.49356,2.2873,89.2365,-26.6583,-53.8715,-69.1528,41.2598,-4.5166,0.68869,0.536377,-0.457733,-0.168427,58613,61936,63208,3072,-30128
1950,29783,3.38789,7.49356,2.10547,88.8849,-26.5814,-53.7177,-58.7769,34.9731,-6.22559,0.690796,0.534912,-0.455902,-0.169342,58613,61943,63138,3072,-30128
1956,29789,3.68936,8.36445,1.21064,88.3301,-26.4386,-53.4814,-45.5933,26.3672,-4.57764,0.694,0.532776,-0.452911,-0.171112,58611,61943,63104,3072,-30128
1962,29795,3.75156,8.50322,0.756055,88.0719,-26.3617,-53.399,-46.5088,22.2778,-5.98145,0.695282,0.531891,-0.451691,-0.171906,58606,61942,63071,3072,-30128
1968,29801,4.08174,8.33574,1.19629,87.8247,-26.3013,-53.3167,-44.6167,21.3013,-3.72314,0.696503,0.530945,-0.450562,-0.172852,58600,61940,63040,3072,-30128
1974,29807,4.13438,8.21133,1.12451,87.605,-26.2408,-53.2452,-40.5884,19.7144,-4.57764,0.697662,0.529999,-0.449524,-0.173676,58595,61937,63013,3072,-30128
1980,29813,4.23008,8.34531,1.33506,87.3962,-26.1804,-53.1793,-36.9873,19.2261,-4.08936,0.69873,0.529144,-0.448547,-0.1745,58580,61929,62966,3072,-30128
1986,29819,4.18701,8.33096,1.0958,87.0337,-26.0596,-53.0695,-31.7993,16.2354,-4.69971,0.700592,0.52774,-0.446777,-0.175995,58623,61924,62942,3072,-30128
1992,29825,4.00039,8.55107,1.37813,86.8689,-26.0101,-53.009,-29.2969,16.5405,-3.90625,0.701385,0.5271,-0.445953,-0.176666,58660,61920,62920,3072,-30128
1998,29831,3.74199,8.21611,1.37334,86.7151,-25.9552,-52.9761,-28.6865,13.0005,-4.45557,0.702148,0.52652,-0.44519,-0.177277,58693,61917,62897,3072,-30128
2004,29837,3.85684,8.24961,1.52646,86.5887,-25.9003,-52.9431,-23.6816,12.0239,-4.15039,0.70285,0.52594,-0.444519,-0.177979,58722,61914,62878,3072,-30128
2010,29843,3.79941,8.37402,1.68916,86.4789,-25.8563,-52.9266,-20.6299,9.27734,-3.72314,0.70343,0.525482,-0.443909,-0.178558,58766,61909,62837,3072,-30128
2016,29849,3.8377,8.14434,1.6126,86.3251,-25.7794,-52.9211,-13.4277,4.63867,-2.74658,0.704254,0.524719,-0.443054,-0.179657,58785,61905,62815,3072,-30128
2022,29855,3.97646,8.2209,1.46904,86.2921,-25.741,-52.9376,-8.60596,2.56348,-2.44141,0.704468,0.524475,-0.44278,-0.180176,58802,61902,62792,3072,-30128
2028,29861,4.01953,8.42666,1.16758,86.2756,-25.708,-52.9651,-5.61523,0.366211,-2.19727,0.704559,0.524323,-0.442627,-0.180634,58817,61899,62771,3072,-30128
2034,29867,4.31621,8.7042,0.856543,86.2701,-25.6805,-52.998,-2.74658,-0.183105,-2.13623,0.704559,0.524231,-0.442566,-0.181061,58830,61896,62752,3072,-30128
2040,29873,4.26357,9.03916,0.421094,86.2701,-25.6476,-53.031,-2.38037,-0.732422,-1.95313,0.704498,0.524231,-0.442566,-0.181427,58852,61968,62723,3072,-30128
2046,29879,4.32578,9.11094,0.421094,86.2372,-25.5981,-53.075,-6.22559,1.46484,-0.976563,0.704376,0.524139,-0.442535,-0.182159,58864,61998,62714,3072,-30128
2052,29885,4.34971,8.88125,0.598145,86.2042,-25.5817,-53.0859,-7.14111,2.56348,-0.488281,0.704407,0.524017,-0.442474,-0.182495,58873,62025,62705,3072,-30128
2058,29891,4.29707,8.7377,0.870898,86.1713,-25.5597,-53.0914,-6.65283,3.479,-0.427246,0.704529,0.523865,-0.442352,-0.182831,58880,62050,62697,3072,-30128
2064,29897,4.19658,8.64199,0.976172,86.1438,-25.5432,-53.0969,-5.43213,3.84521,-0.183105,0.704651,0.523712,-0.442261,-0.183105,58886,62073,62690,3072,-30128
2070,29903,4.06738,8.68506,1.0001,86.1218,-25.5267,-53.0969,-4.02832,3.60107,0.12207,0.704742,0.52359,-0.442139,-0.183319,58891,62110,62674,3072,-30128
2076,29909,4.05781,8.72813,0.756055,86.0999,-25.5103,-53.1244,-1.95313,1.58691,0.976563,0.704865,0.523407,-0.442017,-0.183685,58891,62124,62668,3072,-30128
2082,29915,4.13916,8.7999,0.693848,86.0944,-25.5048,-53.1409,-1.0376,0.915527,1.28174,0.704834,0.523346,-0.442017,-0.183868,58892,62137,62663,3072,-30128
2088,29921,4.22051,8.89082,0.617285,86.0999,-25.4993,-53.1628,-0.732422,0.488281,1.58691,0.704803,0.523285,-0.442078,-0.184021,58893,62149,62656,3072,-30128
2094,29927,4.28271,8.82383,0.665137,86.0999,-25.4938,-53.1848,-0.549316,0.366211,1.58691,0.704773,0.523224,-0.442139,-0.184174,58894,62160,62651,3072,-30128
2100,29933,4.29707,9.13965,0.325391,86.0944,-25.4938,-53.2013,-1.95313,0.610352,2.0752,0.704742,0.523163,-0.44223,-0.184326,58897,62181,62640,3072,-30128
2106,29939,4.40234,8.575,0.933105,86.0504,-25.4938,-53.2233,-4.27246,1.95313,2.0752,0.704803,0.522858,-0.442322,-0.184601,58899,62190,62639,3072,-30128
2112,29945,4.321,8.24482,1.24893,86.0449,-25.4938,-53.2343,-0.610352,1.95313,1.64795,0.704895,0.522705,-0.442352,-0.184753,58902,62199,62634,3072,-30128
2118,29951,4.18701,8.41709,1.17236,86.0614,-25.4938,-53.2452,3.11279,1.70898,1.52588,0.704895,0.522644,-0.442383,-0.184845,58905,62207,62629,3072,-30128
2124,29957,4.16787,8.8334,0.77998,86.0834,-25.4938,-53.2617,4.82178,0.793457,1.58691,0.704803,0.522675,-0.442444,-0.184875,58907,62213,62620,3072,-30128
2130,29963,4.21572,9.04873,0.44502,86.1053,-25.4938,-53.2782,3.66211,0.305176,2.01416,0.704681,0.522766,-0.442566,-0.184875,58911,62224,62605,3072,-30128
2136,29969,4.32578,8.98174,0.468945,86.1218,-25.5048,-53.3167,0.427246,0.549316,2.62451,0.704468,0.522797,-0.44281,-0.184937,58912,62228,62603,3072,-30128
2142,29975,4.29707,8.85732,0.674707,86.1218,-25.5103,-53.3276,0,1.2207,2.62451,0.704437,0.522736,-0.442902,-0.184998,58913,62232,62602,3072,-30128
2148,29981,4.33057,8.7377,0.746484,86.1218,-25.5212,-53.3386,0.610352,1.34277,2.68555,0.704437,0.522675,-0.442993,-0.185028,58914,62235,62600,3072,-30128
2154,29987,4.29707,8.68984,0.598145,86.1273,-25.5267,-53.3496,1.83105,1.0376,2.56348,0.704407,0.522614,-0.443085,-0.185059,58915,62237,62595,3072,-30128
2160,29993,4.30664,8.8334,0.401953,86.1438,-25.5322,-53.3661,2.92969,0.366211,2.56348,0.704376,0.522583,-0.443176,-0.185059,58913,62246,62585,3072,-30128
2166,29999,4.35449,9.11094,0.440234,86.1658,-25.5487,-53.3936,0.793457,0.610352,2.99072,0.704193,0.522583,-0.443451,-0.185028,58911,62249,62582,3072,-30128
2172,30005,4.4167,8.95303,0.784766,86.1548,-25.5597,-53.399,-1.2207,1.70898,3.23486,0.704163,0.522522,-0.443573,-0.185059,58910,62212,62581,3072,-30128
2178,30011,4.40234,8.61328,1.0623,86.1438,-25.5707,-53.4045,-1.2207,2.74658,3.17383,0.704224,0.5224,-0.443634,-0.185059,58909,62177,62581,3072,-30128
2184,30017,4.30186,8.4123,1.01445,86.1438,-25.5817,-53.4045,1.40381,2.74658,3.11279,0.704285,0.522278,-0.443695,-0.185059,58910,62188,62579,3072,-30128
2190,30023,4.10088,8.48887,0.803906,86.1603,-25.5927,-53.41,4.3335,1.58691,2.99072,0.704285,0.522247,-0.443756,-0.184998,58913,62127,62575,3072,-30128
2196,30029,4.03389,8.96738,0.574219,86.2152,-25.6201,-53.454,4.63867,-1.64795,3.41797,0.704071,0.522339,-0.444031,-0.184814,58915,62102,62571,3072,-30128
2202,30035,4.21572,8.90996,0.722559,86.2372,-25.6366,-53.4814,3.2959,-2.38037,3.96729,0.703918,0.522369,-0.444244,-0.184784,58917,62120,62571,3072,-30128
2208,30041,4.33057,8.69941,0.875684,86.2592,-25.6531,-53.5034,3.05176,-1.77002,4.08936,0.703796,0.522308,-0.444519,-0.184784,58920,62136,62571,3072,-30128
2214,30047,4.37363,8.61328,0.976172,86.2866,-25.6696,-53.5309,4.57764,-2.0752,3.54004,0.703705,0.522278,-0.444733,-0.184753,58921,62150,62573,3072,-30128
2220,30053,4.27314,8.56065,0.947461,86.3196,-25.686,-53.5583,6.34766,-2.50244,3.60107,0.703552,0.522278,-0.444977,-0.184723,58922,62175,62576,3072,-30128
2226,30059,4.22529,8.76162,0.593359,86.4294,-25.7135,-53.6462,9.39941,-5.43213,3.05176,0.703094,0.5224,-0.445557,-0.184631,58921,62186,62578,3072,-30128
2232,30065,4.30664,8.88125,0.497656,86.4899,-25.7245,-53.6957,9.52148,-6.71387,2.86865,0.702789,0.522522,-0.445923,-0.184601,58922,62196,62580,3072,-30128
2238,30071,4.34971,8.87646,0.617285,86.5503,-25.741,-53.7506,8.8501,-7.08008,3.05176,0.702454,0.522644,-0.44635,-0.184601,58921,62163,62582,3072,-30128
2244,30077,4.42148,8.74727,0.784766,86.6052,-25.7574,-53.8,8.36182,-6.89697,2.99072,0.702118,0.522736,-0.446747,-0.184631,58921,62133,62586,3072,-30128
2250,30083,4.41191,8.59414,0.904395,86.6602,-25.7684,-53.8495,8.8501,-6.10352,2.99072,0.701782,0.522827,-0.447144,-0.184631,58922,62084,62591,3072,-30128
2256,30089,4.1248,8.58457,0.823047,86.792,-25.7959,-53.9484,11.5356,-6.5918,2.80762,0.701141,0.523071,-0.447906,-0.184601,58923,62063,62595,3072,-30128
2262,30095,4.05303,8.63242,0.727344,86.8744,-25.8124,-54.0088,13.0615,-8.78906,2.74658,0.700745,0.523224,-0.448334,-0.18457,58927,62044,62598,3072,-30128
2268,30101,4.09131,8.66592,0.631641,86.9623,-25.8289,-54.0802,13.855,-10.437,3.17383,0.700287,0.523438,-0.448822,-0.18454,58930,62027,62601,3072,-30128
2274,30107,4.17266,8.76641,0.574219,87.0612,-25.8453,-54.1626,14.3433,-11.8408,3.17383,0.699799,0.523651,-0.449371,-0.184509,58935,62013,62603,3072,-30128
2280,30113,4.254,8.75205,0.569434,87.1545,-25.8618,-54.2395,14.3433,-12.3291,3.66211,0.699249,0.523865,-0.449951,-0.18454,58943,61987,62610,3072,-30128
2286,30119,4.36406,8.70898,0.512012,87.3578,-25.9003,-54.4043,15.0146,-12.3291,3.2959,0.698151,0.524261,-0.451202,-0.18454,58946,61977,62617,3072,-30128
2292,30125,4.34971,8.74248,0.521582,87.4567,-25.9167,-54.4867,15.3809,-12.3901,3.05176,0.697571,0.524475,-0.451813,-0.184509,58949,61966,62624,3072,-30128
2298,30131,4.29707,8.75205,0.526367,87.5665,-25.9332,-54.5691,15.8691,-13.0615,3.05176,0.696991,0.524719,-0.452423,-0.184509,58951,61957,62632,3072,-30128
2304,30137,4.22529,8.75205,0.545508,87.6709,-25.9497,-54.657,15.8691,-13.5498,3.05176,0.696411,0.524963,-0.453064,-0.184509,58953,61950,62638,3072,-30128
2310,30143,4.2875,8.65635,0.550293,87.7808,-25.9662,-54.7449,16.2964,-14.5264,3.17383,0.695801,0.525208,-0.453705,-0.184509,58958,61939,62647,3072,-30128
2316,30149,4.37363,8.62764,0.215332,88.0334,-25.9991,-54.9481,19.165,-16.9067,2.50244,0.694489,0.525726,-0.455109,-0.18454,58963,61935,62650,3072,-30128
2322,30155,4.4167,8.84297,0.215332,88.1653,-26.0101,-55.0525,19.104,-16.8457,2.50244,0.693726,0.526031,-0.455872,-0.18457,58968,61932,62655,3072,-30128
