TimeSinceCollection,Timestamp,AccX,AccY,AccZ,AngleRoll,AnglePitch,AngleYaw,AngularVelX,AngularVelY,             AngularVelZ,Q1,Q2,Q3,Q4,MagX,MagY,MagZ,Height,Airpressure
0,12941,4.254,8.95781,-0.425879,91.0162,-26.8506,141.96,-3.23486,1.09863,-1.09863,-0.0654907,-0.380005,-0.602966,-0.698303,65251,58321,4252,3151,-30125
6,12947,4.29229,8.90518,-0.47373,90.9998,-26.8451,141.965,-3.78418,0.976563,-0.915527,-0.0655212,-0.379944,-0.602936,-0.698364,65250,58297,4255,3151,-30125
12,12953,4.33057,8.7999,-0.435449,90.9833,-26.8396,141.971,-3.90625,1.34277,-0.793457,-0.0655823,-0.379852,-0.602875,-0.698456,65249,58316,4254,3151,-30125
18,12959,4.26836,8.72334,-0.339746,90.9668,-26.8341,141.982,-3.96729,1.89209,-0.183105,-0.0656433,-0.379791,-0.602814,-0.698547,65248,58293,4253,3151,-30125
24,12965,4.18701,8.82861,-0.358887,90.9503,-26.8286,141.993,-3.2959,2.13623,-0.488281,-0.0656738,-0.379608,-0.602722,-0.69873,65248,58274,4253,3151,-30125
30,12971,4.16309,8.79033,-0.29668,90.9229,-26.8231,142.015,-3.35693,1.46484,-0.305176,-0.0656738,-0.379517,-0.602661,-0.698792,65247,58239,4246,3151,-30125
36,12977,4.16309,8.71855,-0.196191,90.9064,-26.8176,142.015,-2.99072,0.854492,-0.183105,-0.0657043,-0.379456,-0.602631,-0.698883,65247,58223,4242,3151,-30125
42,12983,4.21094,8.68506,-0.200977,90.9064,-26.8121,142.02,-2.01416,0,-0.244141,-0.0657349,-0.379395,-0.60257,-0.698944,65248,58250,4237,3151,-30125
48,12989,4.17266,8.69941,-0.215332,90.9064,-26.8121,142.015,-1.0376,-0.732422,0.0610352,-0.0657654,-0.379364,-0.60257,-0.698975,65247,58273,4231,3151,-30125
54,12995,4.38799,8.81904,-0.282324,90.9119,-26.8121,142.009,0.12207,-0.671387,0.366211,-0.0657959,-0.379395,-0.6026,-0.698914,65246,58254,4230,3151,-30125
60,13001,4.27793,8.90039,-0.44502,90.9338,-26.8066,141.998,0.732422,-1.52588,0.183105,-0.0657959,-0.379425,-0.602631,-0.698883,65246,58223,4231,3151,-30125
66,13007,4.26836,8.85254,-0.593359,90.9393,-26.8066,141.987,0.12207,-1.52588,0,-0.0658264,-0.379456,-0.602692,-0.698822,65244,58212,4232,3151,-30125
72,13013,4.33057,8.9291,-0.569434,90.9448,-26.8066,141.982,-0.854492,-1.15967,0.427246,-0.0658569,-0.379486,-0.602722,-0.698761,65243,58203,4234,3151,-30125
78,13019,4.41191,8.81426,-0.406738,90.9448,-26.8066,141.982,-1.52588,-0.610352,0.793457,-0.0658875,-0.379517,-0.602722,-0.69873,65241,58193,4235,3151,-30125
84,13025,4.31143,8.81904,-0.401953,90.9448,-26.8066,141.976,-1.46484,-0.12207,0.488281,-0.065918,-0.379547,-0.602692,-0.69873,65238,58184,4234,3151,-30125
90,13031,4.26836,8.80947,-0.373242,90.9448,-26.8066,141.976,-0.976563,-0.305176,0.427246,-0.0659485,-0.379578,-0.602692,-0.69873,65234,58167,4232,3151,-30125
96,13037,4.36406,8.74248,-0.248828,90.9448,-26.8066,141.971,-0.671387,-0.12207,0.732422,-0.0659485,-0.379578,-0.602692,-0.69873,65235,58160,4231,3151,-30125
102,13043,4.24443,8.81904,-0.30625,90.9558,-26.8066,141.965,0.0610352,-1.0376,0.305176,-0.0659485,-0.379578,-0.602692,-0.69873,65235,58152,4233,3151,-30125
108,13049,4.24443,8.82383,-0.382813,90.9613,-26.8066,141.96,0.0610352,-1.52588,0.488281,-0.0659485,-0.379608,-0.602722,-0.698669,65235,58147,4236,3151,-30125
114,13055,4.31143,8.90518,-0.411523,90.9778,-26.8011,141.943,0.732422,-2.38037,0.244141,-0.06604,-0.37973,-0.602814,-0.698547,65234,58142,4239,3143,-30124
120,13061,4.37363,8.90039,-0.516797,91.0052,-26.8011,141.921,0.671387,-2.38037,0.488281,-0.0660706,-0.379791,-0.602844,-0.698456,65232,58134,4243,3143,-30124
126,13067,4.38799,8.90996,-0.588574,91.0162,-26.7957,141.91,0.610352,-1.95313,0.0610352,-0.0661011,-0.379883,-0.602905,-0.698364,65232,58129,4242,3143,-30124
132,13073,4.3832,8.93867,-0.598145,91.0272,-26.7957,141.899,0.183105,-1.40381,0.305176,-0.0661621,-0.379944,-0.602936,-0.698303,65233,58166,4243,3143,-30124
138,13079,4.39277,8.9626,-0.650781,91.0327,-26.7957,141.894,-0.427246,-0.854492,0.549316,-0.0661621,-0.379974,-0.602997,-0.698242,65232,58198,4244,3143,-30124
144,13085,4.35928,8.99131,-0.655566,91.0382,-26.7957,141.894,-1.46484,0.427246,0.488281,-0.0661621,-0.380005,-0.603027,-0.698212,65231,58186,4244,3143,-30124
150,13091,4.37842,8.95781,-0.708203,91.0272,-26.7957,141.905,-2.0752,0.915527,0.305176,-0.0661621,-0.380005,-0.602997,-0.698212,65228,58245,4246,3143,-30124
156,13097,4.4167,8.94346,-0.674707,91.0162,-26.7957,141.91,-2.74658,1.34277,0.549316,-0.0661621,-0.379944,-0.602997,-0.698242,65228,58229,4245,3143,-30124
162,13103,4.38799,8.94824,-0.617285,90.9998,-26.7957,141.921,-3.35693,1.89209,0.610352,-0.0661621,-0.379913,-0.602936,-0.698303,65226,58215,4243,3143,-30124
168,13109,4.3832,8.89082,-0.488086,90.9833,-26.7957,141.932,-3.78418,2.2583,0.549316,-0.0661316,-0.379852,-0.602875,-0.698395,65225,58203,4239,3143,-30124
174,13115,4.29229,8.78555,-0.392383,90.9613,-26.7957,141.943,-3.90625,2.68555,0.488281,-0.0661011,-0.3797,-0.602722,-0.698608,65225,58193,4241,3143,-30124
180,13121,4.21572,8.77119,-0.354102,90.9229,-26.8011,141.971,-3.54004,2.50244,0.427246,-0.0660706,-0.379639,-0.602661,-0.69873,65226,58175,4247,3143,-30124
186,13127,4.23965,8.79033,-0.358887,90.9064,-26.8011,141.982,-3.41797,2.19727,0.549316,-0.0660706,-0.379547,-0.6026,-0.698822,65227,58168,4254,3143,-30124
192,13133,4.24922,8.76641,-0.291895,90.8954,-26.8011,141.993,-3.41797,2.01416,0.610352,-0.06604,-0.379486,-0.602509,-0.698914,65228,58160,4257,3143,-30124
198,13139,4.26836,8.72813,-0.272754,90.8789,-26.8011,142.004,-2.92969,1.70898,0.732422,-0.0660095,-0.379425,-0.602448,-0.699005,65228,58154,4257,3143,-30124
204,13145,4.24922,8.77598,-0.349316,90.8679,-26.8011,142.009,-2.2583,1.2207,0.549316,-0.065979,-0.379333,-0.602356,-0.699127,65229,58147,4255,3143,-30124
210,13151,4.25879,8.79512,-0.344531,90.8514,-26.8011,142.02,-2.38037,1.09863,0.671387,-0.065979,-0.379303,-0.602325,-0.699188,65230,58136,4249,3143,-30124
216,13157,4.254,8.75684,-0.272754,90.8459,-26.8066,142.026,-2.56348,1.15967,0.732422,-0.065979,-0.379272,-0.602295,-0.699219,65232,58171,4245,3151,-30125
222,13163,4.26357,8.72813,-0.253613,90.835,-26.8066,142.031,-2.2583,1.0376,0.671387,-0.0659485,-0.379242,-0.602264,-0.69928,65233,58162,4243,3151,-30125
228,13169,4.23008,8.68984,-0.224902,90.8295,-26.8066,142.037,-1.77002,0.671387,0.793457,-0.0659485,-0.379211,-0.602203,-0.699341,65233,58156,4239,3151,-30125
234,13175,4.22051,8.71855,-0.267969,90.8295,-26.8066,142.037,-0.610352,0.0610352,0.793457,-0.065918,-0.379181,-0.602203,-0.699371,65235,58151,4237,3151,-30125
240,13181,4.24922,8.76162,-0.287109,90.835,-26.8121,142.037,-0.488281,-0.366211,0.732422,-0.0658875,-0.379181,-0.602203,-0.699371,65236,58142,4239,3151,-30125
246,13187,4.26836,8.77598,-0.363672,90.8405,-26.8121,142.037,-0.244141,-0.488281,0.976563,-0.0658875,-0.379211,-0.602203,-0.699341,65235,58138,4238,3151,-30125
252,13193,4.26836,8.79512,-0.363672,90.8459,-26.8121,142.031,-0.305176,-0.427246,0.793457,-0.0658875,-0.379242,-0.602234,-0.69931,65233,58134,4238,3151,-30125
258,13199,4.29229,8.79033,-0.368457,90.8514,-26.8176,142.031,-0.183105,-0.366211,0.976563,-0.0658569,-0.379272,-0.602234,-0.69931,65230,58128,4234,3151,-30125
264,13205,4.26836,8.75205,-0.373242,90.8514,-26.8176,142.026,-0.12207,-0.488281,0.976563,-0.0658264,-0.379303,-0.602264,-0.699249,65228,58126,4234,3151,-30125
270,13211,4.28271,8.75684,-0.392383,90.8679,-26.8231,142.02,0.244141,-0.793457,0.671387,-0.0658264,-0.379333,-0.602295,-0.699219,65227,58122,4233,3151,-30125
276,13217,4.28271,8.80947,-0.392383,90.8789,-26.8231,142.015,0.366211,-1.09863,0.793457,-0.0657959,-0.379364,-0.602325,-0.699158,65227,58121,4234,3151,-30125
282,13223,4.30664,8.8334,-0.459375,90.8844,-26.8231,142.009,0.366211,-0.854492,0.976563,-0.0657959,-0.379425,-0.602356,-0.699127,65228,58120,4234,3151,-30125
288,13229,4.34492,8.85732,-0.449805,90.8954,-26.8286,142.004,0.0610352,-0.610352,0.854492,-0.0657959,-0.379456,-0.602386,-0.699066,65227,58119,4235,3151,-30125
294,13235,4.34971,8.81426,-0.45459,90.8954,-26.8286,142.004,-0.488281,-0.12207,0.488281,-0.0657654,-0.379517,-0.602417,-0.699005,65228,58118,4236,3151,-30125
300,13241,4.35449,8.78076,-0.47373,90.9009,-26.8286,142.004,-0.488281,-0.366211,0.854492,-0.0657654,-0.379517,-0.602448,-0.699005,65229,58115,4241,3151,-30125
306,13247,4.3832,8.8334,-0.545508,90.9064,-26.8286,141.998,-0.488281,-0.549316,0.488281,-0.0657654,-0.379547,-0.602448,-0.698975,65231,58113,4245,3151,-30125
312,13253,4.35449,8.89561,-0.579004,90.9119,-26.8341,141.993,-0.793457,-0.488281,0.610352,-0.0657654,-0.379578,-0.602448,-0.698944,65233,58109,4247,3151,-30125
318,13259,4.38799,8.89561,-0.579004,90.9064,-26.8286,141.993,-1.40381,-0.0610352,0.366211,-0.0657654,-0.379578,-0.602448,-0.698944,65233,58147,4248,3151,-30125
324,13265,4.30664,8.81426,-0.31582,90.9009,-26.8286,141.998,-2.68555,1.09863,0.488281,-0.0657959,-0.379578,-0.602417,-0.698975,65236,58179,4248,3151,-30125
330,13271,4.23965,8.68027,-0.177051,90.8789,-26.8286,142.009,-2.50244,0.976563,0.549316,-0.0657959,-0.379517,-0.602386,-0.699036,65238,58236,4249,3151,-30125
336,13277,4.16309,8.61328,-0.090918,90.8789,-26.8286,142.015,-1.46484,0.305176,0.305176,-0.0657654,-0.379486,-0.602325,-0.699097,65239,58260,4248,3151,-30125
342,13283,4.21094,8.59893,-0.0334961,90.8844,-26.8286,142.009,0.0610352,-0.610352,0.366211,-0.0657654,-0.379456,-0.602325,-0.699127,65239,58284,4248,3151,-30125
348,13289,4.10566,8.66113,-0.114844,90.9009,-26.8286,141.998,1.64795,-2.44141,0.305176,-0.0657654,-0.379486,-0.602356,-0.699066,65238,58305,4245,3151,-30125
354,13295,4.28271,8.71855,-0.263184,90.9283,-26.8286,141.982,3.2959,-4.3335,0.549316,-0.0657959,-0.379639,-0.602539,-0.698822,65238,58323,4245,3151,-30125
360,13301,4.29229,8.85732,-0.421094,90.9943,-26.8231,141.938,3.84521,-4.82178,0.244141,-0.0658264,-0.379761,-0.602661,-0.698639,65239,58315,4243,3151,-30125
366,13307,4.34492,8.90996,-0.540723,91.0272,-26.8231,141.916,3.23486,-4.45557,0.305176,-0.0658569,-0.379913,-0.602814,-0.698456,65239,58292,4240,3151,-30125
372,13313,4.36406,8.93867,-0.574219,91.0547,-26.8231,141.894,2.50244,-4.08936,0.427246,-0.0658875,-0.380035,-0.602936,-0.698273,65237,58273,4241,3151,-30125
378,13319,4.37363,8.89082,-0.540723,91.0767,-26.8231,141.877,2.19727,-3.72314,0.549316,-0.0659485,-0.380157,-0.603027,-0.69812,65236,58254,4242,3151,-30125
384,13325,4.34492,8.85254,-0.535937,91.1041,-26.8231,141.861,1.83105,-3.05176,0.244141,-0.0660095,-0.380371,-0.60321,-0.697845,65234,58237,4243,3151,-30125
390,13331,4.33057,8.88125,-0.512012,91.1426,-26.8176,141.828,1.58691,-2.99072,0.427246,-0.06604,-0.380432,-0.603302,-0.697723,65230,58207,4242,3151,-30125
396,13337,4.34014,8.83818,-0.492871,91.1591,-26.8176,141.817,0.976563,-2.74658,0.427246,-0.0660706,-0.380524,-0.603363,-0.697601,65229,58236,4236,3151,-30125
402,13343,4.321,8.78076,-0.47373,91.1755,-26.8176,141.801,0.976563,-2.44141,0.244141,-0.0661011,-0.380615,-0.603424,-0.69751,65227,58262,4233,3151,-30125
408,13349,4.31621,8.78555,-0.46416,91.192,-26.8176,141.79,1.09863,-2.44141,0.12207,-0.0661316,-0.380676,-0.603485,-0.697418,65228,58285,4231,3151,-30125
414,13355,4.34492,8.8334,-0.545508,91.2085,-26.8121,141.779,1.15967,-2.50244,0.183105,-0.0661926,-0.380798,-0.603638,-0.697235,65229,58305,4231,3151,-30125
420,13361,4.33057,8.85732,-0.502441,91.236,-26.8121,141.757,0.488281,-2.13623,0.366211,-0.0662231,-0.380859,-0.603699,-0.697144,65232,58341,4231,3151,-30125
426,13367,4.321,8.8334,-0.44502,91.2469,-26.8121,141.751,0.183105,-1.83105,0.488281,-0.0662537,-0.38092,-0.603729,-0.697052,65233,58315,4232,3151,-30125
432,13373,4.321,8.76641,-0.411523,91.2579,-26.8121,141.746,-0.0610352,-1.46484,0.488281,-0.0662842,-0.380981,-0.60379,-0.696991,65231,58332,4233,3151,-30125
438,13379,4.28271,8.73291,-0.392383,91.2689,-26.8121,141.735,0.366211,-1.46484,0.366211,-0.0662842,-0.381012,-0.60379,-0.69696,65228,58348,4235,3151,-30125
444,13385,4.26357,8.76641,-0.430664,91.2799,-26.8066,141.729,0.915527,-1.83105,0.305176,-0.0662842,-0.381073,-0.603912,-0.696808,65224,58321,4237,3151,-30125
450,13391,4.321,8.79512,-0.512012,91.3129,-26.8066,141.707,1.15967,-2.56348,0.244141,-0.0663147,-0.381134,-0.603973,-0.696747,65218,58313,4239,3151,-30125
456,13397,4.33057,8.80947,-0.531152,91.3293,-26.8011,141.696,0.976563,-2.68555,0.0610352,-0.0663452,-0.381195,-0.604034,-0.696655,65216,58291,4242,3151,-30125
462,13403,4.3832,8.83818,-0.555078,91.3403,-26.8011,141.685,0.793457,-2.31934,0,-0.0663757,-0.381256,-0.604095,-0.696533,65214,58270,4245,3151,-30125
468,13409,4.37842,8.83818,-0.526367,91.3513,-26.7957,141.674,0.0610352,-1.77002,-0.12207,-0.0664063,-0.381317,-0.604156,-0.696472,65213,58252,4248,3151,-30125
474,13415,4.26836,8.72334,-0.373242,91.3568,-26.7957,141.669,-0.366211,-1.46484,-0.305176,-0.0664978,-0.381348,-0.604248,-0.696381,65213,58277,4251,3151,-30125
480,13421,4.254,8.72334,-0.45459,91.3788,-26.7847,141.652,0.549316,-2.13623,-0.488281,-0.0665283,-0.381378,-0.604279,-0.69632,65214,58317,4252,3151,-30125
486,13427,4.27314,8.78555,-0.47373,91.3953,-26.7792,141.641,0.793457,-2.50244,-0.549316,-0.0665894,-0.381409,-0.60434,-0.696259,65213,58335,4251,3151,-30125
492,13433,4.26836,8.86689,-0.512012,91.4063,-26.7737,141.63,0.732422,-2.74658,-0.366211,-0.0666199,-0.381439,-0.604401,-0.696167,65212,58350,4249,3151,-30125
498,13439,4.30664,8.81904,-0.459375,91.4227,-26.7682,141.619,0.183105,-2.56348,-0.366211,-0.0666809,-0.3815,-0.604462,-0.696075,65210,58363,4251,3151,-30125
504,13445,4.23008,8.7377,-0.440234,91.4337,-26.7682,141.608,0,-2.68555,-0.488281,-0.066803,-0.381592,-0.604584,-0.695923,65208,58373,4254,3151,-30125
510,13451,4.00518,8.65156,-0.617285,91.4667,-26.7572,141.581,1.09863,-4.27246,-0.244141,-0.0668335,-0.381622,-0.604645,-0.695862,65205,58392,4260,3151,-30125
516,13457,4.32578,8.81904,-0.535937,91.4886,-26.7462,141.559,0.915527,-4.94385,-0.854492,-0.066925,-0.381714,-0.604706,-0.69574,65203,58402,4262,3151,-30125
522,13463,4.47412,8.85254,-0.512012,91.4996,-26.7407,141.537,0.12207,-4.08936,-0.976563,-0.0670471,-0.381805,-0.604797,-0.695587,65201,58409,4264,3151,-30125
528,13469,4.47891,8.84297,-0.540723,91.5106,-26.7297,141.526,0,-2.74658,-1.28174,-0.0671387,-0.381866,-0.604858,-0.695496,65199,58416,4266,3151,-30125
534,13475,4.29229,8.90518,-0.6125,91.5216,-26.7242,141.52,-0.0610352,-1.77002,-1.34277,-0.0672913,-0.381866,-0.60498,-0.695374,65197,58420,4264,3151,-30125
540,13481,4.23486,8.90518,-0.607715,91.5326,-26.7023,141.515,-1.09863,-1.58691,-1.28174,-0.0673523,-0.381836,-0.605011,-0.695343,65196,58427,4265,3151,-30125
546,13487,4.25879,8.85254,-0.521582,91.5326,-26.6968,141.509,-1.58691,-1.64795,-1.15967,-0.0674133,-0.381836,-0.605042,-0.695313,65194,58431,4264,3151,-30125
552,13493,4.28271,8.80947,-0.507227,91.5326,-26.6913,141.504,-1.52588,-1.83105,-1.0376,-0.0675049,-0.381805,-0.605072,-0.695282,65243,58436,4260,3151,-30125
558,13499,4.34492,8.78076,-0.555078,91.5381,-26.6803,141.498,-1.09863,-1.83105,-1.15967,-0.0675659,-0.381805,-0.605103,-0.695282,65236,58439,4258,3151,-30125
564,13505,4.36406,8.94824,-0.722559,91.5436,-26.6748,141.487,-0.732422,-1.77002,-1.2207,-0.0677185,-0.381805,-0.605164,-0.69519,65280,58442,4254,3151,-30125
570,13511,4.36406,9.00088,-0.741699,91.5381,-26.6583,141.482,-2.31934,-0.549316,-1.15967,-0.0678101,-0.381775,-0.605164,-0.69519,65259,58450,4251,3151,-30125
576,13517,2.1916,4.45977,-0.334961,91.5271,-26.6473,141.487,-3.60107,0,-1.0376,-0.0678711,-0.381744,-0.605164,-0.695221,65251,58454,4254,3151,-30125
582,13523,4.36406,8.86211,-0.588574,91.5106,-26.6418,141.493,-3.96729,0.549316,-1.0376,-0.0679321,-0.381683,-0.605133,-0.695282,65244,58417,4258,3151,-30125
588,13529,4.321,8.82383,-0.569434,91.4941,-26.6364,141.498,-3.84521,1.09863,-1.2207,-0.0679932,-0.381622,-0.605072,-0.695343,65237,58384,4262,3151,-30125
594,13535,4.23486,8.88125,-0.516797,91.4777,-26.6254,141.509,-3.66211,1.34277,-1.34277,-0.0681152,-0.381439,-0.60498,-0.695526,65231,58353,4261,3151,-30125
600,13541,4.23008,8.86211,-0.492871,91.4447,-26.6089,141.526,-3.96729,1.2207,-0.976563,-0.0681458,-0.381317,-0.60495,-0.695618,65220,58380,4261,3151,-30125
606,13547,4.23008,8.84297,-0.449805,91.4282,-26.6034,141.537,-4.15039,1.15967,-0.976563,-0.0682068,-0.381226,-0.604889,-0.695709,65215,58350,4260,3151,-30125
612,13553,4.254,8.78555,-0.425879,91.4117,-26.5979,141.548,-3.96729,1.28174,-0.732422,-0.0682373,-0.381134,-0.604858,-0.695801,65211,58324,4261,3151,-30125
618,13559,4.254,8.80469,-0.45459,91.3953,-26.5924,141.553,-3.66211,1.28174,-0.732422,-0.0682983,-0.381042,-0.604797,-0.695892,65208,58301,4262,3151,-30125
624,13565,4.24443,8.88125,-0.531152,91.3788,-26.5869,141.564,-3.66211,1.34277,-0.671387,-0.0683289,-0.38089,-0.604706,-0.696045,65204,58280,4262,3151,-30125
630,13571,4.26836,8.85254,-0.550293,91.3458,-26.5814,141.581,-4.21143,1.28174,-0.244141,-0.0683594,-0.380798,-0.604645,-0.696136,65249,58283,4261,3151,-30125
636,13577,4.24922,8.88603,-0.497656,91.3239,-26.5759,141.592,-4.76074,1.46484,-0.0610352,-0.0683899,-0.380737,-0.604584,-0.696228,65242,58302,4259,3151,-30125
642,13583,4.26836,8.81426,-0.435449,91.3019,-26.5759,141.603,-4.94385,1.70898,0.0610352,-0.0684204,-0.380646,-0.604492,-0.69635,65236,58319,4257,3151,-30125
648,13589,4.28271,8.76162,-0.44502,91.2799,-26.5704,141.614,-4.5166,1.52588,-0.183105,-0.0684509,-0.380585,-0.604401,-0.696472,65230,58335,4255,3151,-30125
654,13595,4.30186,8.81426,-0.47373,91.2634,-26.5704,141.625,-3.78418,1.58691,-0.183105,-0.0684814,-0.380402,-0.604248,-0.696686,65225,58350,4253,3151,-30125
660,13601,4.27314,8.84775,-0.46416,91.2305,-26.5649,141.647,-3.479,2.0752,-0.0610352,-0.0684814,-0.38031,-0.604218,-0.696777,65266,58375,4248,3151,-30125
666,13607,4.27314,8.86211,-0.483301,91.214,-26.5649,141.663,-3.72314,2.62451,-0.0610352,-0.0684509,-0.380219,-0.604156,-0.696869,65307,58387,4246,3151,-30125
672,13613,4.26836,8.85254,-0.488086,91.192,-26.5594,141.68,-3.96729,2.92969,0.0610352,-0.0684509,-0.380127,-0.604095,-0.69696,65345,58398,4247,3151,-30125
678,13619,4.24443,8.81904,-0.45459,91.17,-26.5594,141.696,-4.15039,2.80762,0.183105,-0.0684204,-0.380035,-0.604034,-0.697083,65327,58366,4250,3151,-30125
684,13625,4.28271,8.85732,-0.502441,91.1481,-26.5594,141.713,-4.27246,2.86865,0.244141,-0.0683899,-0.379822,-0.603882,-0.697357,65312,58379,4251,3151,-30125
690,13631,4.24922,8.88125,-0.502441,91.0986,-26.5594,141.746,-4.76074,3.05176,0.305176,-0.0683594,-0.37973,-0.60379,-0.697479,65287,58400,4251,3151,-30125
696,13637,4.25879,8.85254,-0.468945,91.0767,-26.5594,141.762,-5.12695,2.92969,0.305176,-0.0683289,-0.379608,-0.603699,-0.697601,65276,58369,4254,3151,-30125
702,13643,4.26357,8.7999,-0.368457,91.0492,-26.5594,141.784,-5.37109,3.05176,0.183105,-0.0683289,-0.379486,-0.603607,-0.697754,65265,58341,4252,3151,-30125
708,13649,4.23008,8.71855,-0.258398,91.0217,-26.554,141.795,-5.06592,2.68555,0.183105,-0.0683289,-0.379364,-0.603485,-0.697906,65256,58315,4252,3151,-30125
714,13655,4.18223,8.68984,-0.210547,90.9998,-26.554,141.812,-4.21143,2.44141,-0.0610352,-0.0682983,-0.37915,-0.603333,-0.698181,65249,58291,4251,3151,-30125
720,13661,4.13916,8.76162,-0.287109,90.9723,-26.5485,141.833,-2.44141,1.40381,0.0610352,-0.0682983,-0.379089,-0.603271,-0.698273,65238,58253,4245,3151,-30125
726,13667,4.17744,8.80947,-0.358887,90.9668,-26.5485,141.839,-1.95313,0.854492,0.183105,-0.0682678,-0.378998,-0.603271,-0.698334,65233,58237,4244,3151,-30125
732,13673,4.18701,8.84775,-0.368457,90.9613,-26.5485,141.844,-2.0752,0.366211,0.366211,-0.0682678,-0.378967,-0.603241,-0.698364,65228,58222,4242,3151,-30125
738,13679,4.25879,8.83818,-0.354102,90.9558,-26.5485,141.85,-2.13623,0.427246,0.427246,-0.0682678,-0.378937,-0.60321,-0.698395,65224,58209,4243,3151,-30125
744,13685,4.27314,8.81426,-0.397168,90.9503,-26.5485,141.855,-2.01416,0.732422,0.549316,-0.0682373,-0.378876,-0.60318,-0.698456,65220,58196,4245,3151,-30125
750,13691,4.254,8.8334,-0.440234,90.9393,-26.5485,141.866,-1.70898,0.915527,0.549316,-0.0682373,-0.378845,-0.603149,-0.698486,65215,58177,4249,3151,-30125
756,13697,4.24922,8.85254,-0.45459,90.9338,-26.5485,141.872,-1.89209,0.976563,0.610352,-0.0682068,-0.378815,-0.603149,-0.698517,65211,58168,4250,3151,-30125
762,13703,4.27314,8.88125,-0.492871,90.9283,-26.5485,141.877,-2.01416,0.793457,0.549316,-0.0681763,-0.378784,-0.603149,-0.698578,65207,58161,4252,3151,-30125
768,13709,4.29229,8.84297,-0.425879,90.9174,-26.5485,141.888,-2.44141,1.0376,0.427246,-0.0681763,-0.378723,-0.603119,-0.698608,65254,58154,4251,3151,-30125
774,13715,4.26836,8.80469,-0.382813,90.9064,-26.5485,141.894,-2.44141,1.15967,0.549316,-0.0681458,-0.378662,-0.603027,-0.6987,65296,58149,4248,3151,-30125
780,13721,4.254,8.82383,-0.378027,90.8899,-26.5485,141.905,-1.95313,1.28174,0.488281,-0.0681458,-0.378632,-0.602997,-0.698761,65272,58141,4245,3151,-30125
786,13727,4.24443,8.84775,-0.406738,90.8844,-26.5485,141.91,-2.13623,1.2207,0.427246,-0.0681152,-0.378601,-0.602997,-0.698792,65263,58137,4243,3151,-30125
792,13733,4.24922,8.85254,-0.406738,90.8734,-26.5485,141.916,-2.13623,1.2207,0.488281,-0.0681152,-0.37854,-0.602966,-0.698853,65255,58134,4244,3151,-30125
798,13739,4.24443,8.81426,-0.401953,90.8679,-26.5485,141.921,-2.31934,1.09863,0.549316,-0.0680847,-0.37851,-0.602936,-0.698883,65248,58131,4243,3151,-30125
804,13745,4.254,8.7999,-0.358887,90.8569,-26.5485,141.932,-2.13623,1.0376,0.549316,-0.0680847,-0.378448,-0.602875,-0.698975,65241,58128,4243,3151,-30125
810,13751,4.23965,8.81904,-0.363672,90.8459,-26.5485,141.943,-1.64795,0.976563,0.671387,-0.0680542,-0.378418,-0.602844,-0.699036,65231,58126,4239,3151,-30125
816,13757,4.22529,8.81426,-0.330176,90.8405,-26.5485,141.949,-1.64795,0.854492,0.488281,-0.0680237,-0.378387,-0.602844,-0.699066,65227,58126,4236,3151,-30125
822,13763,4.22529,8.80469,-0.311035,90.8405,-26.554,141.949,-1.34277,0.671387,0.854492,-0.0680237,-0.378357,-0.602814,-0.699097,65223,58125,4235,3151,-30125
828,13769,4.21094,8.79512,-0.339746,90.8405,-26.554,141.954,-1.15967,0.305176,0.671387,-0.0679932,-0.378326,-0.602814,-0.699097,65220,58124,4234,3151,-30125
834,13775,4.24443,8.82861,-0.363672,90.8405,-26.554,141.954,-0.976563,0.305176,0.793457,-0.0679626,-0.378326,-0.602814,-0.699127,65218,58121,4233,3151,-30125
840,13781,4.23965,8.83818,-0.382813,90.8405,-26.5594,141.96,-0.671387,0.0610352,0.854492,-0.0679321,-0.378326,-0.602814,-0.699097,65213,58117,4230,3151,-30125
846,13787,4.25879,8.82861,-0.387598,90.8459,-26.5594,141.96,-0.732422,-0.0610352,0.854492,-0.0679016,-0.378326,-0.602844,-0.699097,65212,58116,4227,3151,-30125
852,13793,4.23486,8.79512,-0.382813,90.8459,-26.5594,141.96,-0.610352,-0.0610352,0.854492,-0.0678711,-0.378326,-0.602844,-0.699097,65211,58115,4224,3151,-30125
858,13799,4.27314,8.82861,-0.440234,90.8514,-26.5649,141.96,-0.427246,-0.0610352,0.732422,-0.0678711,-0.378326,-0.602844,-0.699066,65211,58114,4224,3151,-30125
864,13805,4.25879,8.85732,-0.392383,90.8514,-26.5649,141.96,-0.549316,-0.12207,0.915527,-0.0678101,-0.378357,-0.602875,-0.699036,65212,58113,4223,3151,-30125
870,13811,4.25879,8.87168,-0.368457,90.8569,-26.5649,141.965,-0.976563,0.244141,0.915527,-0.0678101,-0.378357,-0.602905,-0.699036,65212,58111,4223,3151,-30125
876,13817,4.24922,8.80469,-0.373242,90.8569,-26.5704,141.965,-0.793457,0.244141,0.915527,-0.0677795,-0.378357,-0.602905,-0.699036,65211,58110,4222,3151,-30125
882,13823,4.23008,8.81426,-0.378027,90.8569,-26.5704,141.965,-0.549316,0.183105,0.976563,-0.067749,-0.378357,-0.602905,-0.699036,65209,58109,4220,3151,-30125
888,13829,4.23008,8.8334,-0.373242,90.8624,-26.5759,141.965,-0.183105,0,1.09863,-0.0677185,-0.378357,-0.602905,-0.699036,65208,58107,4220,3151,-30125
894,13835,4.24922,8.8334,-0.392383,90.8679,-26.5759,141.965,-0.12207,-0.244141,1.15967,-0.0676575,-0.378387,-0.602936,-0.698975,65206,58106,4219,3151,-30125
900,13841,4.28271,8.84775,-0.401953,90.8789,-26.5814,141.965,-0.244141,-0.0610352,1.28174,-0.067627,-0.378418,-0.602966,-0.698975,65205,58102,4222,3151,-30125
906,13847,4.26836,8.84775,-0.378027,90.8789,-26.5869,141.971,-0.305176,0.183105,1.09863,-0.0675659,-0.378418,-0.602997,-0.698944,65205,58101,4222,3151,-30125
912,13853,4.26357,8.84297,-0.373242,90.8844,-26.5924,141.971,-0.183105,0.427246,1.2207,-0.0675354,-0.378448,-0.602997,-0.698914,65207,58100,4225,3151,-30125
918,13859,4.24922,8.80947,-0.354102,90.8844,-26.5924,141.976,-0.183105,0.427246,1.34277,-0.0674744,-0.378448,-0.603027,-0.698914,65209,58099,4226,3151,-30125
924,13865,4.22051,8.83818,-0.378027,90.8899,-26.5979,141.976,-0.0610352,0.244141,1.46484,-0.0673828,-0.378448,-0.603058,-0.698883,65211,58099,4225,3151,-30125
930,13871,4.23008,8.8334,-0.421094,90.9009,-26.6089,141.982,0.244141,0.183105,1.58691,-0.0673218,-0.378479,-0.603058,-0.698853,65218,58099,4218,3151,-30125
936,13877,4.28271,8.84297,-0.440234,90.9064,-26.6144,141.982,0.12207,0.12207,1.46484,-0.0672607,-0.37851,-0.603088,-0.698853,65221,58099,4215,3143,-30124
942,13883,4.2875,8.87646,-0.411523,90.9119,-26.6199,141.982,0,0.488281,1.70898,-0.0671997,-0.37854,-0.603119,-0.698822,65223,58099,4213,3143,-30124
948,13889,4.29229,8.85254,-0.406738,90.9119,-26.6254,141.987,-0.12207,0.732422,1.64795,-0.0671387,-0.37854,-0.603119,-0.698792,65223,58099,4214,3143,-30124
954,13895,4.28271,8.84297,-0.435449,90.9119,-26.6309,141.993,-0.12207,0.854492,1.89209,-0.0669861,-0.378571,-0.603149,-0.698792,65222,58099,4215,3143,-30124
960,13901,4.29229,8.84775,-0.478516,90.9174,-26.6473,142.004,-0.305176,0.976563,1.95313,-0.066925,-0.378571,-0.603149,-0.698792,65217,58099,4215,3143,-30124
966,13907,4.34492,8.84775,-0.488086,90.9174,-26.6528,142.009,-0.488281,0.854492,1.70898,-0.0668335,-0.378571,-0.603149,-0.698792,65215,58099,4213,3143,-30124
972,13913,4.35928,8.89082,-0.531152,90.9174,-26.6583,142.015,-0.488281,1.09863,1.77002,-0.0667725,-0.378601,-0.603149,-0.698792,65213,58098,4213,3143,-30124
978,13919,4.34014,8.90996,-0.550293,90.9174,-26.6638,142.02,-1.09863,1.58691,1.83105,-0.0667114,-0.378601,-0.603149,-0.698792,65212,58097,4214,3143,-30124
984,13925,4.32578,8.84775,-0.425879,90.9064,-26.6693,142.031,-1.64795,1.89209,1.70898,-0.0665588,-0.378571,-0.603088,-0.698883,65212,58097,4216,3143,-30124
990,13931,4.30186,8.80947,-0.368457,90.8844,-26.6803,142.059,-2.31934,2.62451,1.70898,-0.0664673,-0.37851,-0.603058,-0.698944,65211,58172,4219,3143,-30124
996,13937,4.2875,8.74727,-0.368457,90.8734,-26.6858,142.075,-2.01416,2.31934,1.58691,-0.0663757,-0.378448,-0.602997,-0.699005,65212,58204,4219,3143,-30124
1002,13943,4.321,8.75205,-0.411523,90.8679,-26.6913,142.086,-1.52588,1.70898,1.52588,-0.0662842,-0.378418,-0.602966,-0.699097,65211,58233,4221,3143,-30124
1008,13949,4.31621,8.82861,-0.45459,90.8624,-26.6968,142.092,-1.46484,1.70898,1.40381,-0.0662231,-0.378387,-0.602966,-0.699127,65213,58218,4224,3143,-30124
1014,13955,4.33535,8.86689,-0.416309,90.8514,-26.7023,142.108,-1.89209,2.01416,1.28174,-0.0660706,-0.378296,-0.602905,-0.699219,65214,58246,4226,3143,-30124
1020,13961,4.32578,8.81904,-0.392383,90.824,-26.7133,142.136,-2.68555,2.56348,1.46484,-0.0660095,-0.378235,-0.602875,-0.69931,65219,58216,4226,3143,-30124
1026,13967,4.28271,8.79512,-0.330176,90.813,-26.7188,142.147,-2.38037,2.56348,1.46484,-0.0659485,-0.378174,-0.602814,-0.699371,65220,58203,4225,3143,-30124
1032,13973,4.25879,8.81904,-0.368457,90.802,-26.7188,142.163,-2.19727,2.50244,1.28174,-0.0658569,-0.378113,-0.602753,-0.699463,65221,58193,4222,3143,-30124
1038,13979,4.254,8.85254,-0.430664,90.791,-26.7242,142.174,-2.13623,2.38037,1.46484,-0.0657959,-0.378052,-0.602722,-0.699524,65221,58183,4220,3143,-30124
1044,13985,4.32578,8.85732,-0.421094,90.78,-26.7297,142.191,-2.2583,2.50244,1.58691,-0.0656433,-0.37796,-0.602631,-0.699677,65219,58173,4216,3143,-30124
1050,13991,4.34014,8.80947,-0.392383,90.7526,-26.7407,142.218,-2.68555,2.74658,1.34277,-0.0655823,-0.377899,-0.6026,-0.699768,65219,58159,4217,3143,-30124
1056,13997,4.32578,8.79512,-0.354102,90.7361,-26.7462,142.234,-2.56348,2.86865,1.58691,-0.0654907,-0.377838,-0.602539,-0.699829,65221,58153,4221,3143,-30124
1062,14003,4.28271,8.79512,-0.358887,90.7251,-26.7517,142.251,-2.62451,2.99072,1.64795,-0.0654297,-0.377777,-0.602478,-0.699921,65225,58147,4224,3143,-30124
1068,14009,4.24922,8.76162,-0.339746,90.7086,-26.7572,142.262,-2.44141,2.86865,1.52588,-0.0653381,-0.377716,-0.602417,-0.700012,65228,58141,4224,3143,-30124
1074,14015,4.19658,8.83818,-0.258398,90.6976,-26.7627,142.278,-2.38037,2.92969,1.58691,-0.0651855,-0.377594,-0.602325,-0.700195,65230,58135,4221,3143,-30124
1080,14021,4.10088,8.7999,-0.162695,90.6647,-26.7737,142.317,-2.2583,3.78418,1.95313,-0.0650635,-0.377533,-0.602264,-0.700256,65235,58126,4219,3143,-30124
1086,14027,3.98604,8.63721,0.0239258,90.6592,-26.7847,142.344,-0.915527,4.45557,2.38037,-0.0649414,-0.377472,-0.602234,-0.700378,65237,58122,4217,3143,-30124
1092,14033,3.85205,8.67549,0.320605,90.6537,-26.7957,142.366,1.2207,4.82178,2.99072,-0.0647888,-0.37738,-0.602203,-0.700439,65237,58120,4215,3143,-30124
1098,14039,3.8042,8.56065,0.732129,90.6592,-26.8121,142.394,2.50244,3.84521,3.41797,-0.0645447,-0.377289,-0.602264,-0.70047,65236,58117,4211,3143,-30124
1104,14045,3.66064,8.1874,1.07187,90.6812,-26.8286,142.405,4.82178,1.89209,4.5166,-0.0640259,-0.377289,-0.602448,-0.700378,65236,58114,4206,3143,-30124
1110,14051,3.80898,7.7041,0.756055,90.8514,-26.8616,142.35,17.5171,-8.8501,3.90625,-0.0638123,-0.377472,-0.602692,-0.700073,65238,58112,4203,3143,-30124
1116,14057,4.01475,8.16826,0.196191,91.0052,-26.8726,142.278,24.353,-14.1602,3.23486,-0.0636292,-0.377838,-0.60318,-0.699463,65239,58109,4202,3143,-30124
1122,14063,4.11523,8.61807,-0.449805,91.181,-26.8835,142.185,26.6113,-17.7612,3.05176,-0.0634766,-0.378357,-0.603851,-0.698608,65242,58106,4203,3143,-30124
1128,14069,4.78994,9.20186,-1.03838,91.3458,-26.8945,142.097,24.1699,-16.6016,3.72314,-0.0634155,-0.378998,-0.604584,-0.697632,65243,58144,4202,3143,-30124
1134,14075,5.03877,9.37891,-1.58389,91.4832,-26.9055,142.015,20.874,-14.8315,2.80762,-0.0632629,-0.380188,-0.605804,-0.695953,65245,58178,4205,3143,-30124
1140,14081,4.90957,9.4124,-1.14365,91.6644,-26.922,141.943,12.0239,-4.76074,2.74658,-0.0631714,-0.380554,-0.606232,-0.695404,65250,58231,4216,3143,-30124
1146,14087,4.55547,9.17314,-0.669922,91.7139,-26.9385,141.938,9.33838,-0.915527,2.86865,-0.0630188,-0.380768,-0.606567,-0.695007,65250,58254,4225,3151,-30125
1152,14093,4.40713,8.82861,-0.478516,91.7633,-26.9495,141.938,8.91113,-0.366211,2.86865,-0.0628052,-0.38089,-0.606812,-0.694733,65251,58275,4232,3151,-30125
1158,14099,4.23008,8.63242,-0.60293,91.8292,-26.9604,141.927,11.9629,-2.13623,2.92969,-0.062561,-0.380951,-0.607056,-0.694489,65252,58292,4239,3143,-30124
1164,14105,4.45498,9.23535,-1.38291,91.9171,-26.9714,141.905,15.8081,-3.78418,2.92969,-0.0621033,-0.381317,-0.607849,-0.693665,65251,58307,4246,3143,-30124
1170,14111,4.93828,9.24492,-2.16768,92.0874,-26.9934,141.828,11.0474,-7.38525,2.62451,-0.0619202,-0.381622,-0.608246,-0.693146,65249,58331,4260,3143,-30124
1176,14117,5.34023,9.53682,-2.56006,92.1368,-26.9989,141.801,6.46973,-4.82178,1.83105,-0.0618591,-0.381927,-0.608521,-0.692719,65249,58338,4269,3143,-30124
1182,14123,5.56514,9.88135,-2.83281,92.1423,-27.0044,141.795,-0.793457,0.183105,1.28174,-0.0618286,-0.382172,-0.608734,-0.692444,65248,58345,4275,3143,-30124
1188,14129,5.76133,9.93877,-3.11514,92.0874,-27.0044,141.823,-9.70459,6.65283,0.610352,-0.0618286,-0.382202,-0.608704,-0.692413,65247,58351,4282,3143,-30124
1194,14135,5.48857,9.81436,-2.89502,91.9775,-27.0099,141.888,-17.9443,13.3057,-0.183105,-0.0617981,-0.381653,-0.608002,-0.693359,65246,58357,4287,3143,-30124
1200,14141,5.11055,9.96748,-2.05283,91.593,-27.0264,142.163,-30.4565,31.7383,1.15967,-0.061615,-0.380981,-0.60733,-0.694305,65246,58370,4292,3143,-30124
1206,14147,4.72295,9.58945,-1.22979,91.3239,-27.0374,142.361,-37.3535,38.3911,1.83105,-0.0612793,-0.380066,-0.606537,-0.695557,65246,58378,4293,3143,-30124
1212,14153,4.34492,8.85732,-0.354102,91.0272,-27.0538,142.581,-40.8936,42.4194,2.0752,-0.0608826,-0.378967,-0.605499,-0.697083,65247,58386,4292,3143,-30124
1218,14159,3.81855,8.28789,0.564648,90.7416,-27.0703,142.806,-39.3677,42.7856,2.50244,-0.0604248,-0.377716,-0.604401,-0.698761,65252,58395,4290,3143,-30124
1224,14165,3.16299,7.68975,1.53604,90.4834,-27.0868,143.015,-34.3018,39.4287,3.11279,-0.0593567,-0.375305,-0.602386,-0.701874,65257,58405,4286,3143,-30124
1230,14171,2.94287,7.6084,1.67002,90.1318,-27.1307,143.328,-18.6768,25.8179,5.67627,-0.0588379,-0.374359,-0.601624,-0.703064,65268,58343,4282,3143,-30124
1236,14177,3.27305,7.78545,1.56475,90.033,-27.1527,143.421,-12.207,18.1274,4.57764,-0.0583191,-0.373718,-0.601105,-0.703918,65275,58318,4274,3143,-30124
1242,14183,3.39746,7.76152,1.43555,89.989,-27.1692,143.481,-5.5542,10.6201,4.76074,-0.0579224,-0.37326,-0.600739,-0.704498,65283,58295,4267,3143,-30124
1248,14189,3.62715,7.87637,1.14365,89.978,-27.1912,143.509,-0.427246,5.7373,4.94385,-0.0576172,-0.373077,-0.600586,-0.704773,65292,58275,4255,3143,-30124
1254,14195,4.22529,8.28789,0.765625,90,-27.2131,143.52,4.08936,2.56348,4.63867,-0.0570679,-0.373077,-0.600647,-0.704742,65299,58257,4246,3143,-30124
1260,14201,4.1918,8.54629,0.689063,90.0714,-27.2516,143.542,8.8501,2.50244,4.69971,-0.0567932,-0.373138,-0.60083,-0.70459,65314,58226,4229,3151,-30125
1266,14207,4.13438,8.53672,0.488086,90.1208,-27.2681,143.553,9.94873,2.01416,4.76074,-0.0564575,-0.373199,-0.601044,-0.704407,65320,58212,4223,3151,-30125
1272,14213,4.1248,8.46494,0.172266,90.1813,-27.29,143.553,11.8408,0.366211,4.63867,-0.0561218,-0.37326,-0.601318,-0.704163,65327,58199,4219,3151,-30125
1278,14219,4.16787,8.51279,-0.124414,90.2582,-27.3065,143.542,13.7329,-1.58691,4.69971,-0.0557861,-0.373383,-0.601624,-0.703857,65332,58228,4217,3151,-30125
1284,14225,4.47891,8.79512,-0.277539,90.3351,-27.3285,143.525,14.2212,-2.62451,4.82178,-0.0552063,-0.37381,-0.602356,-0.703033,65338,58254,4218,3151,-30125
1290,14231,4.58418,8.76641,-0.416309,90.4889,-27.3669,143.503,13.9771,-1.2207,4.63867,-0.0549316,-0.374054,-0.602722,-0.702637,65349,58299,4225,3151,-30125
1296,14237,4.55547,8.79033,-0.387598,90.5548,-27.3889,143.503,13.1836,0,4.45557,-0.0546265,-0.374237,-0.603088,-0.70224,65352,58318,4227,3151,-30125
1302,14243,4.47891,8.79033,-0.358887,90.6152,-27.4054,143.503,12.0239,0.305176,3.90625,-0.0542908,-0.374359,-0.603424,-0.701904,65356,58334,4229,3151,-30125
1308,14249,4.37842,8.72334,-0.263184,90.6757,-27.4219,143.503,11.9629,0.610352,4.02832,-0.0539856,-0.374481,-0.60376,-0.701599,65360,58347,4232,3151,-30125
1314,14255,4.24922,8.65635,-0.258398,90.7416,-27.4384,143.503,12.146,0.183105,3.66211,-0.0533752,-0.374695,-0.604401,-0.700958,65362,58357,4233,3151,-30125
1320,14261,4.254,8.68027,-0.406738,90.8844,-27.4658,143.47,13.0615,-3.2959,3.60107,-0.0531311,-0.374847,-0.604736,-0.700592,65369,58373,4237,3151,-30125
1326,14267,4.38799,8.75684,-0.703418,90.9613,-27.4768,143.443,12.3291,-5.31006,3.23486,-0.0529175,-0.375061,-0.605072,-0.700195,65372,58380,4240,3151,-30125
1332,14273,4.55547,8.83818,-0.832617,91.0327,-27.4878,143.405,11.0474,-5.79834,3.05176,-0.0527954,-0.375336,-0.605408,-0.699799,65376,58388,4246,3151,-30125
1338,14279,4.69424,8.88125,-0.77998,91.0931,-27.4988,143.372,9.39941,-4.94385,3.05176,-0.0527039,-0.37561,-0.605713,-0.699402,65381,58395,4251,3151,-30125
1344,14285,4.67031,8.79512,-0.488086,91.1426,-27.5098,143.355,7.32422,-2.74658,2.74658,-0.0524902,-0.376038,-0.60614,-0.698822,65334,58400,4255,3151,-30125
1350,14291,4.50762,8.6085,-0.421094,91.203,-27.5262,143.344,4.57764,-0.488281,2.19727,-0.0523987,-0.376129,-0.606262,-0.698639,65255,58409,4264,3151,-30125
1356,14297,4.39756,8.57022,-0.406738,91.2305,-27.5317,143.339,4.63867,-0.976563,1.28174,-0.0522766,-0.376221,-0.606384,-0.698486,65221,58412,4267,3151,-30125
1362,14303,4.34971,8.62764,-0.459375,91.2634,-27.5317,143.322,4.94385,-2.01416,1.15967,-0.0522156,-0.376282,-0.606537,-0.698334,65241,58414,4271,3151,-30125
1368,14309,4.46455,8.6707,-0.569434,91.2964,-27.5317,143.306,4.82178,-3.23486,0.915527,-0.0521545,-0.376373,-0.606689,-0.698181,65258,58416,4273,3151,-30125
1374,14315,4.57939,8.72813,-0.645996,91.3293,-27.5317,143.284,4.15039,-3.2959,0.610352,-0.0521545,-0.376617,-0.606964,-0.697784,65273,58417,4274,3143,-30124
1380,14321,4.58418,8.76641,-0.583789,91.3733,-27.5317,143.245,1.34277,-2.80762,-0.183105,-0.0522156,-0.37674,-0.607056,-0.697662,65302,58419,4274,3143,-30124
1386,14327,4.53633,8.67549,-0.62207,91.3843,-27.5208,143.223,0.549316,-2.68555,-0.854492,-0.0523071,-0.376831,-0.607117,-0.69754,65313,58418,4275,3143,-30124
1392,14333,4.54111,8.65635,-0.76084,91.3953,-27.5153,143.207,0.183105,-2.74658,-1.2207,-0.0524292,-0.376892,-0.607147,-0.697479,65321,58417,4277,3143,-30124
1398,14339,4.52676,8.79033,-0.76084,91.4063,-27.5043,143.185,-0.366211,-2.74658,-1.52588,-0.0525513,-0.376984,-0.607178,-0.697388,65327,58417,4281,3143,-30124
1404,14345,4.39277,8.81904,-0.526367,91.4063,-27.4933,143.168,-1.83105,-2.19727,-1.52588,-0.0528564,-0.377075,-0.607178,-0.697296,65332,58418,4284,3143,-30124
1410,14351,4.31143,8.70898,-0.287109,91.3898,-27.4823,143.146,-3.35693,-0.427246,-0.915527,-0.0530396,-0.377106,-0.607117,-0.697327,65343,58421,4289,3143,-30124
1416,14357,4.21572,8.58457,-0.0287109,91.3843,-27.4713,143.135,-2.74658,-0.488281,-0.976563,-0.0531616,-0.377106,-0.607056,-0.697388,65347,58423,4288,3143,-30124
1422,14363,4.13916,8.51758,-0.0478516,91.3788,-27.4658,143.13,-1.58691,-1.15967,-0.793457,-0.0532837,-0.377106,-0.606995,-0.697418,65353,58424,4288,3143,-30124
1428,14369,4.08174,8.52715,-0.133984,91.3898,-27.4603,143.108,0.305176,-2.62451,-0.610352,-0.0533752,-0.377136,-0.606964,-0.697418,65357,58425,4290,3143,-30124
1434,14375,4.25879,8.68027,-0.320605,91.4117,-27.4548,143.086,1.52588,-3.90625,-0.366211,-0.0535889,-0.377319,-0.607056,-0.697205,65361,58425,4293,3143,-30124
1440,14381,4.36406,8.63721,-0.392383,91.4557,-27.4493,143.026,1.15967,-4.94385,-0.366211,-0.0537415,-0.377472,-0.607117,-0.697083,65365,58424,4304,3143,-30124
1446,14387,4.38799,8.62764,-0.382813,91.4777,-27.4438,142.993,1.0376,-5.18799,-0.305176,-0.053894,-0.377625,-0.607178,-0.69696,65365,58423,4308,3143,-30124
1452,14393,3.675,8.49365,-0.15791,91.5161,-27.4493,142.938,1.95313,-8.97217,1.77002,-0.0540466,-0.377777,-0.607208,-0.696808,65365,58422,4308,3143,-30124
1458,14399,4.08174,8.51279,-0.588574,91.5656,-27.4438,142.877,4.3335,-10.8643,0.305176,-0.0541992,-0.378082,-0.607239,-0.696594,65367,58422,4307,3143,-30124
1464,14405,4.50283,8.93867,-0.693848,91.626,-27.4438,142.806,5.24902,-11.8408,0.671387,-0.054657,-0.378815,-0.607483,-0.695953,65369,58422,4307,3143,-30124
1470,14411,4.78037,8.97695,-0.913965,91.7249,-27.4384,142.679,2.92969,-9.52148,0.488281,-0.0549011,-0.379211,-0.607605,-0.695618,65376,58424,4311,3143,-30124
1476,14417,4.80908,8.93867,-1.03838,91.7468,-27.4384,142.641,0.732422,-6.40869,0.549316,-0.0551147,-0.379517,-0.607697,-0.695374,65376,58425,4315,3143,-30124
1482,14423,4.84736,8.91475,-1.00488,91.7578,-27.4384,142.614,-0.915527,-3.90625,0.305176,-0.0552979,-0.37973,-0.607697,-0.695221,65375,58424,4319,3143,-30124
1488,14429,4.67988,8.9291,-1.01924,91.7578,-27.4384,142.603,-2.44141,-1.46484,0.305176,-0.0554199,-0.379883,-0.607666,-0.69516,65370,58423,4322,3151,-30125
1494,14435,4.5124,8.84775,-0.91875,91.7358,-27.4384,142.603,-4.3335,1.28174,1.15967,-0.055542,-0.379944,-0.607483,-0.695282,65366,58421,4323,3151,-30125
1500,14441,4.3832,8.76641,-0.803906,91.6644,-27.4548,142.635,-6.65283,4.88281,2.19727,-0.055542,-0.379913,-0.6073,-0.695435,65365,58421,4321,3143,-30124
1506,14447,4.34971,8.77598,-0.679492,91.615,-27.4713,142.663,-7.56836,6.34766,3.05176,-0.0555115,-0.379822,-0.607117,-0.695679,65365,58422,4320,3143,-30124
1512,14453,4.30186,8.7042,-0.60293,91.5656,-27.4878,142.696,-8.60596,6.7749,3.78418,-0.0553894,-0.37973,-0.606873,-0.695953,65364,58425,4322,3143,-30124
1518,14459,4.18701,8.64678,-0.521582,91.5051,-27.5098,142.729,-8.97217,7.08008,4.57764,-0.0552673,-0.379639,-0.606598,-0.696259,65363,58427,4322,3143,-30124
1524,14465,4.16309,8.62285,-0.373242,91.4557,-27.5317,142.756,-8.48389,6.28662,5.12695,-0.0549622,-0.379486,-0.605988,-0.696869,65363,58429,4322,3143,-30124
1530,14471,4.17744,8.67549,-0.205762,91.3733,-27.5922,142.795,-6.65283,4.21143,6.46973,-0.0548096,-0.379486,-0.605713,-0.697144,65369,58431,4324,3143,-30124
1536,14477,4.2875,8.69463,-0.368457,91.3403,-27.6251,142.811,-6.28662,3.78418,6.95801,-0.0546265,-0.379517,-0.605438,-0.697357,65373,58431,4327,3143,-30124
1542,14483,4.3832,8.72334,-0.416309,91.3129,-27.6581,142.822,-5.43213,2.86865,7.08008,-0.0544739,-0.379578,-0.605164,-0.697571,65376,58432,4330,3143,-30124
1548,14489,4.47891,8.72813,-0.6125,91.2909,-27.6855,142.828,-4.27246,2.19727,7.14111,-0.0542908,-0.379669,-0.604919,-0.697754,65379,58433,4331,3143,-30124
1554,14495,4.63682,8.87168,-0.727344,91.2799,-27.7185,142.828,-3.54004,1.28174,6.83594,-0.0539551,-0.379944,-0.604523,-0.697968,65381,58433,4331,3143,-30124
1560,14501,4.94785,9.3502,-1.225,91.2415,-27.7734,142.822,-6.04248,1.52588,5.79834,-0.0538635,-0.380127,-0.60434,-0.698029,65384,58434,4330,3143,-30124
1566,14507,4.97656,9.39805,-1.02881,91.1975,-27.7954,142.828,-8.48389,2.68555,4.39453,-0.053772,-0.380249,-0.604095,-0.698181,65386,58435,4327,3143,-30124
1572,14513,4.96699,9.221,-1.08145,91.1371,-27.8119,142.844,-11.8408,4.21143,4.15039,-0.053772,-0.38028,-0.603821,-0.698425,65389,58437,4322,3143,-30124
1578,14519,4.91436,9.11094,-1.04316,91.0657,-27.8229,142.861,-13.9771,5.12695,2.56348,-0.053772,-0.38028,-0.603424,-0.698761,65392,58437,4316,3143,-30124
1584,14525,4.87129,8.96738,-0.708203,90.9778,-27.8339,142.888,-15.564,6.34766,2.2583,-0.053894,-0.380096,-0.602539,-0.699615,65395,58437,4310,3143,-30124
1590,14531,4.51719,9.10615,-0.363672,90.7965,-27.8448,142.96,-16.3574,8.72803,1.2207,-0.0539551,-0.379913,-0.602081,-0.700104,65349,58440,4300,3143,-30124
1596,14537,4.35928,8.9626,-0.287109,90.6976,-27.8503,142.998,-17.7002,8.60596,1.28174,-0.0539856,-0.379669,-0.601624,-0.700623,65306,58443,4296,3143,-30124
1602,14543,4.29229,8.74248,-0.110059,90.5988,-27.8503,143.031,-17.5171,6.71387,1.2207,-0.0540466,-0.379456,-0.601135,-0.701172,65269,58446,4292,3143,-30124
1608,14549,4.30186,8.56543,-0.0287109,90.5219,-27.8558,143.047,-15.8691,3.96729,0.854492,-0.0541687,-0.379272,-0.600616,-0.701691,65235,58449,4289,3143,-30124
1614,14555,4.50762,8.56543,0.0287109,90.4614,-27.8558,143.053,-12.7563,1.34277,0.549316,-0.0544739,-0.379089,-0.599854,-0.702423,65204,58453,4285,3143,-30124
1620,14561,4.65117,8.66592,-0.119629,90.39,-27.8503,143.042,-8.48389,-0.854492,-0.305176,-0.054657,-0.379089,-0.599579,-0.702637,65152,58460,4282,3143,-30124
1626,14567,4.71816,8.75684,-0.234473,90.3625,-27.8448,143.036,-7.56836,-0.244141,-0.671387,-0.0548096,-0.379089,-0.599396,-0.702789,65131,58422,4281,3143,-30124
1632,14573,4.73252,8.82861,-0.234473,90.3296,-27.8339,143.036,-7.38525,0.427246,-1.0376,-0.0549622,-0.379059,-0.599213,-0.702942,65113,58388,4281,3143,-30124
1638,14579,4.70859,8.82383,-0.277539,90.2966,-27.8284,143.042,-7.87354,1.09863,-1.28174,-0.0551147,-0.379028,-0.59906,-0.703094,65097,58357,4280,3143,-30124
1644,14585,4.63682,8.75205,-0.29668,90.2637,-27.8174,143.047,-7.93457,1.70898,-1.95313,-0.0553894,-0.378815,-0.598724,-0.70343,65083,58330,4277,3143,-30124
1650,14591,4.52197,8.73291,-0.282324,90.1978,-27.7899,143.064,-6.83594,1.58691,-2.44141,-0.0555115,-0.378693,-0.598602,-0.703613,65055,58284,4266,3143,-30124
1656,14597,4.53154,8.74727,-0.263184,90.1703,-27.7734,143.069,-6.65283,1.2207,-2.50244,-0.0556641,-0.378571,-0.59848,-0.703766,65042,58305,4262,3143,-30124
1662,14603,4.57461,8.76641,-0.29668,90.1428,-27.7625,143.075,-6.71387,0.976563,-2.50244,-0.0558167,-0.378448,-0.598358,-0.703918,65031,58321,4258,3143,-30124
1668,14609,4.55547,8.7377,-0.320605,90.1154,-27.746,143.08,-6.53076,0.915527,-2.92969,-0.0559387,-0.378357,-0.598267,-0.704071,65020,58337,4255,3143,-30124
1674,14615,4.57939,8.81904,-0.354102,90.0879,-27.7295,143.086,-6.5918,1.0376,-3.2959,-0.0562744,-0.378082,-0.598083,-0.704346,65011,58351,4250,3143,-30124
1680,14621,4.57939,8.86689,-0.545508,90.033,-27.691,143.097,-6.46973,0.732422,-3.84521,-0.056427,-0.37793,-0.597992,-0.704468,64996,58375,4243,3143,-30124
1686,14627,4.56025,9.01523,-0.631641,90.0055,-27.6691,143.102,-7.50732,0.793457,-4.15039,-0.0566101,-0.377808,-0.5979,-0.70459,64990,58387,4238,3143,-30124
1692,14633,4.61768,8.99609,-0.727344,89.9615,-27.6416,143.108,-9.46045,0.549316,-4.5166,-0.0568237,-0.377655,-0.597809,-0.704742,64983,58397,4235,3143,-30124
1698,14639,4.7373,8.90518,-0.904395,89.9176,-27.6196,143.113,-11.1084,0.854492,-4.82178,-0.0570679,-0.377472,-0.597656,-0.704956,64977,58407,4232,3143,-30124
1704,14645,4.87607,9.01523,-0.937891,89.8572,-27.5922,143.124,-11.9629,2.44141,-4.63867,-0.0576172,-0.377075,-0.597229,-0.705475,64971,58375,4224,3143,-30124
1710,14651,4.70859,9.11572,-0.693848,89.6869,-27.5372,143.179,-18.1274,6.34766,-5.79834,-0.0578918,-0.37677,-0.596954,-0.705872,65007,58322,4211,3143,-30124
1716,14657,4.60811,8.78555,-0.507227,89.577,-27.5098,143.218,-20.874,7.14111,-5.67627,-0.058197,-0.376373,-0.596558,-0.70636,64998,58302,4206,3143,-30124
1722,14663,4.39277,8.56543,-0.090918,89.4617,-27.4768,143.256,-21.5454,7.32422,-6.28662,-0.0585022,-0.375977,-0.596069,-0.70697,64992,58283,4204,3151,-30125
1728,14669,4.39756,8.50801,0.00478516,89.3463,-27.4384,143.295,-21.3013,7.32422,-7.08008,-0.0588379,-0.37558,-0.595581,-0.70755,64986,58268,4096,3151,-30125
1734,14675,4.3832,8.61328,-0.0574219,89.2365,-27.4054,143.328,-20.6909,7.14111,-7.26318,-0.0595703,-0.374695,-0.594696,-0.70874,64979,58255,4197,3151,-30125
1740,14681,4.29229,8.60371,-0.133984,89.0222,-27.3285,143.383,-20.752,5.12695,-7.93457,-0.059967,-0.374268,-0.594238,-0.70929,65061,58233,4191,3151,-30125
1746,14687,4.28271,8.54629,-0.0287109,88.9178,-27.2845,143.399,-20.813,4.02832,-7.93457,-0.0603943,-0.373871,-0.593781,-0.709839,65094,58224,4185,3151,-30125
1752,14693,4.54111,8.66592,-0.325391,88.83,-27.2461,143.405,-19.043,2.38037,-8.48389,-0.0608826,-0.373535,-0.593353,-0.710358,65125,58217,4182,3151,-30125
1758,14699,4.56504,8.82383,-0.378027,88.7366,-27.2021,143.41,-19.165,2.44141,-8.60596,-0.0614014,-0.37323,-0.592957,-0.710785,65154,58211,4179,3151,-30125
1764,14705,4.61289,9.21143,-0.368457,88.6377,-27.1582,143.427,-21.0571,3.66211,-8.66699,-0.062439,-0.372559,-0.592102,-0.711761,65179,58206,4174,3151,-30125
1770,14711,4.71816,8.86689,-0.607715,88.363,-27.0703,143.487,-28.1372,8.11768,-9.15527,-0.0629272,-0.372162,-0.591522,-0.712402,65221,58199,4160,3151,-30125
1776,14717,4.92393,8.70898,-0.818262,88.2147,-27.0209,143.525,-27.832,9.33838,-9.94873,-0.0634766,-0.371643,-0.590851,-0.713165,65239,58196,4149,3151,-30125
1782,14723,4.82344,8.90039,-0.913965,88.0554,-26.9659,143.575,-28.9917,11.1694,-11.2305,-0.0639954,-0.371094,-0.59024,-0.713928,65256,58193,4139,3151,-30125
1788,14729,4.69424,9.27363,-0.492871,87.8741,-26.9055,143.63,-32.959,13.0615,-12.207,-0.0645447,-0.370453,-0.589569,-0.714752,65269,58192,4129,3151,-30125
1794,14735,4.61768,9.05352,-0.00957031,87.6709,-26.8396,143.696,-37.1704,14.3433,-12.5122,-0.0657959,-0.368927,-0.587952,-0.716766,65280,58191,4119,3151,-30125
1800,14741,4.24922,8.58457,1.29678,87.215,-26.7133,143.899,-38.208,19.5313,-12.8784,-0.0662231,-0.36795,-0.587067,-0.717957,65298,58194,4094,3151,-30125
1806,14747,3.94775,7.93379,1.6126,87.0117,-26.6528,143.981,-35.0342,17.2729,-11.6577,-0.0667419,-0.366974,-0.586182,-0.719116,65305,58198,4080,3151,-30125
1812,14753,3.89033,7.65625,1.48818,86.8634,-26.5814,144.031,-26.9775,11.4136,-13.6719,-0.0672302,-0.366089,-0.585358,-0.720184,65313,58203,4066,3151,-30125
1818,14759,3.74199,8.06299,1.27285,86.759,-26.5155,144.058,-20.3247,6.5918,-13.2446,-0.0678101,-0.365356,-0.584808,-0.720978,65320,58209,4052,3151,-30125
1824,14765,3.82334,8.45059,0.985742,86.6931,-26.4496,144.047,-15.2588,-0.732422,-13.916,-0.0690613,-0.364471,-0.584229,-0.721771,65325,58214,4035,3151,-30125
1830,14771,4.3832,9.1875,0.224902,86.6052,-26.3177,143.976,-12.8784,-4.76074,-13.4888,-0.0698242,-0.364258,-0.584045,-0.721954,65332,58226,4006,3151,-30125
1836,14777,4.6416,9.23057,-0.0813477,86.5558,-26.2518,143.937,-15.1978,-5.5542,-14.1602,-0.0705566,-0.364044,-0.583893,-0.722137,65333,58231,3993,3151,-30125
1842,14783,4.88564,9.25928,0.0143555,86.4899,-26.1859,143.91,-17.1509,-3.11279,-14.2822,-0.0713806,-0.363861,-0.583649,-0.722321,65332,58195,3980,3151,-30125
1848,14789,4.82822,9.02002,0.205762,86.413,-26.1145,143.893,-18.4326,-0.488281,-14.4043,-0.0721741,-0.363586,-0.583374,-0.722626,65329,58204,3967,3151,-30125
1854,14795,4.53633,9.12529,0.363672,86.3306,-26.0376,143.899,-17.5781,2.38037,-15.5029,-0.0736084,-0.362732,-0.582794,-0.723358,65327,58211,3955,3151,-30125
1860,14801,4.46934,9.01045,0.411523,86.1987,-25.8838,143.893,-12.7563,1.09863,-17.2119,-0.0742493,-0.362305,-0.58252,-0.723724,65325,58146,3936,3151,-30125
1866,14807,4.55068,9.14443,0.44502,86.1877,-25.7849,143.844,-8.78906,-7.14111,-21.4844,-0.0749512,-0.361816,-0.582428,-0.723969,65326,58119,3928,3151,-30125
1872,14813,4.10088,9.26406,0.277539,86.2097,-25.686,143.762,-3.41797,-11.7798,-20.9351,-0.0759583,-0.361542,-0.582489,-0.723938,65325,58097,3919,3151,-30125
1878,14819,4.26357,9.57031,-0.6125,86.2317,-25.5981,143.685,-3.90625,-11.7798,-19.2871,-0.0769348,-0.36142,-0.582703,-0.723724,65323,58077,3912,3151,-30125
1884,14825,4.4167,9.93398,-1.02402,86.2592,-25.5048,143.58,-5.12695,-17.0288,-20.5078,-0.0790405,-0.361389,-0.583038,-0.723267,65319,58058,3907,3151,-30125
1890,14831,5.40723,10.3024,0.277539,86.2592,-25.3015,143.339,-12.8784,-24.8413,-23.7427,-0.0802002,-0.361298,-0.583008,-0.723206,65303,58028,3894,3151,-30125
1896,14837,4.77559,8.92432,0.133984,86.3196,-25.1477,143.146,-6.16455,-32.2266,-33.6304,-0.0817566,-0.361481,-0.582947,-0.722992,65293,58015,3887,3151,-30125
1902,14843,5.35938,8.85732,0.880469,86.3635,-25.0049,142.998,-5.12695,-23.7427,-31.1279,-0.0837097,-0.361664,-0.583191,-0.722473,65282,58005,3878,3151,-30125
1908,14849,6.11064,12.5993,1.81357,86.5393,-24.8181,142.723,10.1318,-46.6919,-41.1377,-0.0853577,-0.361664,-0.583466,-0.722046,65271,57997,3871,3151,-30125
1914,14855,5.79004,11.9725,-0.961816,86.7096,-24.5654,142.394,5.37109,-56.9458,-55.4199,-0.0906982,-0.36264,-0.585144,-0.719574,65310,57990,3867,3151,-30125
1920,14861,9.65645,10.0249,0.90918,86.814,-24.0216,141.877,-17.0898,-31.5552,-61.4624,-0.0939026,-0.362915,-0.585602,-0.718628,65364,57979,3859,3151,-30125
1926,14867,9.69473,9.23057,2.90459,86.8085,-23.6481,141.768,-10.0098,-14.5264,-78.7964,-0.0968628,-0.362366,-0.585876,-0.718292,65381,57974,3854,3151,-30125
1932,14873,7.94814,8.56065,1.1293,86.792,-23.2471,141.773,-3.35693,7.56836,-84.4116,-0.0997925,-0.360901,-0.5867,-0.717957,65391,57970,3846,3151,-30125
1938,14879,5.87139,9.07266,0.124414,86.781,-22.8076,141.839,3.2959,19.3481,-91.5527,-0.102203,-0.358673,-0.587891,-0.717773,65396,57966,3840,3151,-30125
1944,14885,3.58408,10.0488,-0.0717773,86.7865,-22.3407,141.877,4.15039,14.9536,-96.6187,-0.106964,-0.353149,-0.591064,-0.717194,65447,57962,3835,3151,-30125
1950,14891,2.98115,9.64209,0.363672,86.8634,-21.4508,141.702,-0.244141,-18.7378,-93.5059,-0.109833,-0.350891,-0.592468,-0.716705,65519,57955,3829,3151,-30125
1956,14897,4.19658,9.22578,0.47373,86.9513,-21.0059,141.509,3.17383,-29.4189,-93.9941,-0.113159,-0.349213,-0.59375,-0.715942,6,57951,3828,3151,-30125
1962,14903,5.11055,9.36455,1.96191,87.0557,-20.5499,141.317,7.62939,-29.0527,-97.8394,-0.116699,-0.34787,-0.595062,-0.714935,21,57947,3827,3151,-30125
1968,14909,5.79004,9.62295,1.96191,87.1655,-20.0665,141.136,9.52148,-28.3203,-103.21,-0.1203,-0.346436,-0.596558,-0.713806,82,57943,3823,3151,-30125
1974,14915,6.01494,9.49375,1.66523,87.2864,-19.5612,140.977,14.0991,-23.6206,-107.605,-0.127625,-0.343018,-0.600006,-0.711304,129,57940,3820,3151,-30125
1980,14921,5.65127,9.93398,0.746484,87.5336,-18.4735,140.691,19.043,-18.3105,-118.591,-0.131378,-0.341003,-0.601868,-0.709991,239,57931,3814,3151,-30125
1986,14927,5.08184,10.1254,0.679492,87.6599,-17.8912,140.559,17.7002,-19.165,-123.84,-0.135101,-0.338776,-0.604004,-0.708557,298,57926,3811,3151,-30125
1992,14933,4.89522,10.3216,0.0813477,87.8027,-17.287,140.405,20.813,-21.9727,-128.235,-0.139038,-0.336426,-0.60611,-0.707092,343,57922,3810,3151,-30125
1998,14939,4.96699,10.4125,0.512012,87.9675,-16.6608,140.229,23.0103,-27.71,-133.301,-0.143127,-0.334045,-0.608368,-0.705475,379,57917,3811,3151,-30125
2004,14945,5.24453,10.5561,-0.282324,88.1433,-16.0071,140.015,24.8413,-34.668,-139.221,-0.152191,-0.329468,-0.613068,-0.70166,458,57913,3811,3151,-30125
2010,14951,6.02451,11.1542,-0.31582,88.5443,-14.6063,139.526,27.0386,-43.6401,-153.992,-0.157043,-0.327209,-0.615631,-0.699371,564,57981,3817,3151,-30125
2016,14957,6.4791,11.5801,-1.03838,88.775,-13.8428,139.257,33.9966,-45.8374,-161.377,-0.162354,-0.32486,-0.618195,-0.697021,647,58010,3819,3151,-30125
2022,14963,6.46953,11.9103,-1.70352,88.9948,-13.0298,138.966,31.25,-50.7202,-173.218,-0.167847,-0.322449,-0.620972,-0.694336,710,58033,3824,3151,-30125
2028,14969,6.57002,12.4558,-3.59365,89.2035,-12.1564,138.642,28.6255,-57.5562,-184.814,-0.173828,-0.319824,-0.623779,-0.691559,759,58053,3828,3151,-30125
2034,14975,6.72314,13.207,-3.5123,89.3793,-11.2335,138.296,21.7285,-61.1572,-195.557,-0.187469,-0.314148,-0.629242,-0.685638,844,58068,3831,3151,-30125
2040,14981,7.10117,13.8961,-4.9957,89.5551,-9.22302,137.532,0.671387,-70.1294,-218.14,-0.19519,-0.310913,-0.631561,-0.682831,1001,58083,3842,3151,-30125
2046,14987,7.11553,13.8578,-4.55068,89.5331,-8.14087,137.12,-17.8223,-73.3643,-228.638,-0.2034,-0.307465,-0.633728,-0.679993,1073,58085,3846,3151,-30125
2052,14993,7.51748,14.0636,-5.32109,89.4562,-7.00378,136.697,-26.9165,-75.7446,-241.089,-0.21225,-0.30365,-0.635376,-0.677429,1174,58085,3847,3151,-30125
2058,14999,7.06768,13.6855,-4.71816,89.3079,-5.82275,136.263,-41.3818,-75.8057,-250.61,-0.221619,-0.2995,-0.636841,-0.674896,1256,58126,3848,3151,-30125
2064,15005,6.90977,13.676,-5.05312,89.0936,-4.57581,135.824,-52.063,-76.9043,-265.198,-0.231415,-0.294952,-0.637939,-0.672607,1366,58160,3845,3151,-30125
2070,15011,5.81396,14.298,-4.03389,88.5938,-1.99951,134.945,-58.96,-73.7305,-279.236,-0.252167,-0.284637,-0.639496,-0.66806,1601,58207,3836,3151,-30125
2076,15017,5.46943,15.5996,-5.26846,88.3356,-0.670166,134.495,-57.5562,-75.1343,-284.668,-0.262817,-0.279053,-0.640198,-0.665649,1726,58222,3826,3151,-30125
2082,15023,5.39287,16.0973,-6.52217,88.006,0.681152,134.011,-70.4956,-77.7588,-290.649,-0.273621,-0.273315,-0.6409,-0.662994,1871,58233,3811,3151,-30125
2088,15029,5.63691,16.9347,-7.38828,87.583,2.04346,133.511,-87.5854,-80.2612,-292.908,-0.28476,-0.267365,-0.641144,-0.660492,1992,58241,3795,3151,-30125
2094,15035,6.78057,18.7674,-6.29248,87.1051,3.41125,133.011,-96.3745,-76.0498,-295.288,-0.296173,-0.2612,-0.640808,-0.658264,2132,58287,3775,3151,-30125
2100,15041,7.99121,19.8153,-4.44541,86.5393,4.79553,132.523,-137.085,-38.6963,-302.002,-0.319061,-0.247742,-0.63913,-0.654388,2290,58323,3752,3151,-30125
2106,15047,6.5748,18.0927,-4.67988,85.1111,7.59155,131.995,-151.855,-3.60107,-301.514,-0.329926,-0.239441,-0.637726,-0.653473,2556,58370,3584,3151,-30125
2112,15053,4.31621,15.1211,-5.33066,84.3256,8.99231,131.847,-160.95,7.87354,-301.331,-0.339844,-0.229889,-0.636292,-0.653198,2719,58424,3648,3151,-30125
2118,15059,3.05293,13.676,-3.42617,83.562,10.3876,131.677,-156.067,7.99561,-300.964,-0.349487,-0.21991,-0.634644,-0.653137,2859,58470,3608,3151,-30125
2124,15065,2.72275,13.073,-1.04795,82.8369,11.7719,131.402,-143.982,-8.30078,-302.734,-0.358978,-0.209991,-0.633026,-0.652832,3021,58506,3565,3151,-30125
2130,15071,3.56016,12.0538,-1.91406,82.1338,13.1891,131.045,-135.193,-19.7144,-310.486,-0.378967,-0.191559,-0.629791,-0.65033,3152,58533,3519,3151,-30125
2136,15077,4.95264,10.7762,-4.90479,80.722,16.1115,130.045,-121.948,-38.3911,-329.163,-0.389862,-0.182739,-0.62796,-0.648193,3423,58604,3414,3151,-30125
2142,15083,5.98145,11.1973,-3.24434,79.9969,17.6001,129.485,-123.962,-42.2974,-334.961,-0.400787,-0.17392,-0.626312,-0.645538,3566,58643,3357,3151,-30125
2148,15089,6.33076,11.9629,-2.11025,79.2993,19.1437,128.952,-117.798,-30.2124,-346.252,-0.411896,-0.165009,-0.624481,-0.64267,3735,58674,3301,3151,-30125
2154,15095,6.44082,11.5657,-3.48359,78.5468,20.6982,128.298,-119.202,-46.3257,-354.675,-0.422852,-0.155548,-0.622986,-0.639374,3872,58734,3245,3151,-30125
2160,15101,4.5459,9.1875,-4.98613,77.7393,22.2473,127.634,-126.831,-43.1519,-354.187,-0.434357,-0.146301,-0.621063,-0.635712,4029,58778,3191,3151,-30125
2166,15107,-4.21572,7.2543,-7.94814,76.311,25.1532,126.727,-124.329,-1.0376,-317.444,-0.455292,-0.12677,-0.617462,-0.628693,4154,58848,3135,3151,-30125
2172,15113,-6.79014,7.45527,-7.24951,75.4156,26.3342,126.123,-143.494,-32.6538,-281.555,-0.464294,-0.117218,-0.615723,-0.625671,4468,58979,3024,3151,-30125
2178,15119,-8.41709,5.36416,-6.42168,74.295,27.2955,125.217,-162.292,-89.2944,-253.601,-0.473175,-0.109131,-0.612579,-0.623566,4612,59044,2968,3151,-30125
2184,15125,-4.6416,1.55518,-1.84707,72.9053,27.8998,123.975,-183.472,-160.706,-202.698,-0.482849,-0.102936,-0.607544,-0.622131,4779,59135,2910,3151,-30125
2190,15131,0.258398,-1.97148,3.75635,71.3837,28.1964,122.498,-185.608,-215.454,-161.499,-0.493042,-0.0995789,-0.600128,-0.621887,4918,59207,2851,3151,-30125
2196,15137,2.06719,-4.05781,7.90029,69.6698,27.9492,120.344,-39.6118,-146.973,-32.5928,-0.511444,-0.100006,-0.583588,-0.622681,5180,59358,2718,3168,-30127
2202,15143,4.13438,-2.36865,1.46904,69.8291,27.5098,119.8,63.4766,-107.117,23.4375,-0.515808,-0.103729,-0.579468,-0.622314,5304,59437,2644,3168,-30127
2208,15149,4.39277,1.95713,-1.56475,70.318,26.9,119.366,119.08,-99.9756,61.4624,-0.517151,-0.110107,-0.578735,-0.620789,5413,59509,2572,3168,-30127
2214,15155,5.28281,4.13438,-2.98115,70.9277,26.1035,118.982,137.573,-102.905,100.952,-0.516968,-0.11853,-0.579468,-0.618713,5507,59573,2500,3168,-30127
2220,15161,6.53174,6.01016,-4.90479,71.521,25.1202,118.68,125.977,-101.196,141.663,-0.515656,-0.128418,-0.580322,-0.617035,5591,59631,2428,3168,-30127
2226,15167,10.3981,7.36436,-4.94785,72.3999,22.879,118.394,65.0024,-67.8101,185.608,-0.509796,-0.149445,-0.58017,-0.617279,5740,59659,2306,3168,-30127
2232,15173,10.9915,6.33076,-3.23955,72.724,21.7255,118.46,42.4805,-42.4805,194.824,-0.505585,-0.158936,-0.579163,-0.619354,5811,59681,2251,3168,-30127
2238,15179,11.0441,5.06748,-2.25859,73.0261,20.6104,118.625,31.3721,-20.752,193.909,-0.50058,-0.16745,-0.577942,-0.622314,5878,59705,2202,3168,-30127
2244,15185,10.3838,3.60322,-1.86143,73.3502,19.5447,118.856,32.1655,-3.84521,186.829,-0.495056,-0.17511,-0.576813,-0.625641,5894,59693,2160,3168,-30127
2250,15191,9.59424,2.56484,-1.54561,73.7292,18.5449,119.152,39.917,12.4512,177.979,-0.489258,-0.182129,-0.576019,-0.628906,5914,59689,2122,3168,-30127
2256,15197,7.35957,2.10068,-0.416309,74.6741,16.6333,119.894,62.5,38.0249,171.936,-0.476715,-0.194824,-0.576202,-0.634552,5968,59661,2060,3168,-30127
2262,15203,6.46475,2.6127,-0.210547,75.2234,15.6775,120.311,72.7539,44.0674,175.354,-0.469879,-0.200928,-0.577026,-0.636993,5952,59640,2036,3168,-30127
2268,15209,5.94795,3.24434,-0.440234,75.7947,14.6832,120.751,78.6743,48.2788,181.702,-0.462677,-0.207123,-0.578156,-0.639252,5942,59625,2016,3168,-30127
2274,15215,5.66084,3.8042,-0.693848,76.377,13.6505,121.207,81.604,53.2837,191.223,-0.455078,-0.21344,-0.579407,-0.641479,5942,59575,2002,3168,-30127
2280,15221,5.479,4.15352,-0.741699,76.9537,12.5684,121.69,82.0923,58.7158,201.904,-0.447052,-0.219879,-0.580658,-0.643829,5951,59538,1994,3168,-30127
2286,15227,4.76602,4.49326,-0.741699,78.1128,10.2722,122.69,87.0361,63.0493,219.604,-0.429596,-0.233063,-0.582977,-0.648956,5917,59509,1993,3168,-30127
2292,15233,4.52197,4.63682,-0.531152,78.6951,9.06372,123.168,91.0645,61.1572,226.257,-0.420349,-0.239899,-0.584015,-0.651581,5834,59439,2007,3168,-30127
2298,15239,4.16309,4.71816,-0.406738,79.2883,7.83325,123.618,96.4355,57.5562,230.713,-0.410889,-0.246979,-0.584961,-0.654114,5785,59396,2018,3168,-30127
