TimeSinceCollection,Timestamp,AccX,AccY,AccZ,AngleRoll,AnglePitch,AngleYaw,AngularVelX,AngularVelY,AngularVelZ,Q1,Q2,Q3,Q4,MagX,MagY,MagZ,Height,Airpressure
0,62114,2.60791,-9.32148,1.68916,-79.8322,-15.2051,-151.694,-0.244141,0.305176,-0.793457,0.103516,-0.253876,0.591919,-0.757874,-141.992,83.3833,-5.23333,-11195,-28395
6,62120,2.60791,-9.32627,1.67959,-79.8322,-15.2106,-151.699,-0.244141,0.549316,-0.854492,0.103485,-0.253906,0.591919,-0.757874,-142.008,83.3917,-5.25,-11195,-28395
12,62126,2.58398,-9.38369,1.64609,-79.8322,-15.2161,-151.705,0.0610352,0.549316,-1.2207,0.103455,-0.253906,0.591919,-0.757874,-142,83.3917,-5.23333,-11195,-28395
18,62132,2.59355,-9.36455,1.67002,-79.8322,-15.2216,-151.705,0.12207,0.305176,-1.09863,0.103394,-0.253906,0.591888,-0.757874,-141.958,83.3917,-5.20833,-11195,-28395
24,62138,2.59834,-9.35977,1.6748,-79.8322,-15.2271,-151.705,-0.0610352,0.183105,-1.0376,0.103333,-0.253937,0.591858,-0.757904,-141.942,83.3833,-5.13333,-11195,-28395
30,62144,2.59834,-9.38369,1.66523,-79.8322,-15.2325,-151.716,0.0610352,0.427246,-0.854492,0.103271,-0.253967,0.591858,-0.757904,-141.942,83.3667,-5.06667,-11195,-28395
36,62150,2.58398,-9.37891,1.63652,-79.8267,-15.238,-151.716,0.12207,0.305176,-0.793457,0.103241,-0.253967,0.591858,-0.757935,-141.958,83.3583,-5.025,-11195,-28395
42,62156,2.62227,-9.40283,1.64131,-79.8267,-15.2435,-151.716,0.12207,0.183105,-1.2207,0.10321,-0.253967,0.591827,-0.757935,-141.992,83.3417,-5,-11195,-28395
48,62162,2.60791,-9.38369,1.59824,-79.8267,-15.249,-151.716,0.549316,-0.12207,-0.976563,0.103149,-0.253998,0.591827,-0.757935,-142.025,83.325,-4.99167,-11195,-28395
54,62168,2.62705,-9.40283,1.64609,-79.8212,-15.249,-151.721,0.366211,0.12207,-0.732422,0.103119,-0.254059,0.591766,-0.757965,-142.083,83.3333,-5.04167,-11195,-28395
60,62174,2.60313,-9.36455,1.67002,-79.8157,-15.26,-151.721,0.366211,0,-0.671387,0.103088,-0.254059,0.591766,-0.757996,-142.108,83.35,-5.09167,-11195,-28395
66,62180,2.5792,-9.34541,1.65566,-79.8157,-15.26,-151.721,0.549316,0.12207,-0.610352,0.103058,-0.254059,0.591736,-0.757996,-142.125,83.3667,-5.125,-11195,-28395
72,62186,2.62705,-9.36455,1.70352,-79.8157,-15.2655,-151.721,0.488281,-0.0610352,-0.549316,0.103058,-0.254089,0.591705,-0.758026,-142.117,83.3833,-5.175,-11195,-28395
78,62192,2.56006,-9.34541,1.69395,-79.8102,-15.2655,-151.727,0.366211,0.244141,-0.976563,0.103027,-0.254089,0.591705,-0.758026,-142.108,83.3833,-5.19167,-11195,-28395
84,62198,2.54092,-9.3167,1.71309,-79.8102,-15.271,-151.727,0.488281,-0.183105,-0.854492,0.102997,-0.25412,0.591644,-0.758057,-142.108,83.375,-5.225,-11195,-28395
90,62204,2.58877,-9.33584,1.68916,-79.8047,-15.282,-151.727,0.183105,-0.183105,-1.0376,0.102966,-0.25415,0.591614,-0.758057,-142.133,83.3833,-5.225,-11195,-28395
96,62210,2.60313,-9.36934,1.68438,-79.8047,-15.282,-151.721,0.244141,-0.427246,-0.793457,0.102966,-0.254181,0.591614,-0.758087,-142.142,83.4,-5.225,-11195,-28395
102,62216,2.65098,-9.34062,1.66523,-79.8047,-15.2875,-151.721,0.12207,0.0610352,-0.732422,0.102936,-0.254211,0.591583,-0.758087,-142.133,83.4167,-5.23333,-11195,-28395
108,62222,2.63184,-9.37891,1.66523,-79.8047,-15.293,-151.721,0.0610352,-0.0610352,-0.732422,0.102905,-0.254242,0.591583,-0.758087,-142.125,83.4167,-5.25,-11195,-28395
114,62228,2.65098,-9.38369,1.64131,-79.8047,-15.293,-151.727,0.12207,0.244141,-0.793457,0.102875,-0.254272,0.591553,-0.758087,-142.083,83.4167,-5.33333,-11195,-28395
120,62234,2.61748,-9.33584,1.69395,-79.7992,-15.304,-151.727,0.366211,-0.0610352,-0.732422,0.102844,-0.254272,0.591522,-0.758118,-142.058,83.4,-5.35,-11195,-28395
126,62240,2.61748,-9.36455,1.68438,-79.7992,-15.304,-151.727,0.366211,0,-0.427246,0.102844,-0.254303,0.591522,-0.758118,-142.033,83.3917,-5.39167,-11195,-28395
132,62246,2.58877,-9.36934,1.68438,-79.7937,-15.3094,-151.727,0.366211,-0.244141,-0.610352,0.102844,-0.254303,0.591492,-0.758118,-142.017,83.3833,-5.425,-11195,-28395
138,62252,2.65098,-9.35498,1.62217,-79.7937,-15.3094,-151.721,0.244141,-0.305176,-0.427246,0.102814,-0.254333,0.591492,-0.758148,-142,83.35,-5.43333,-11195,-28395
144,62258,2.62227,-9.38848,1.64131,-79.7937,-15.3094,-151.721,0.427246,-0.12207,-0.427246,0.102814,-0.254364,0.591461,-0.758148,-142.017,83.35,-5.525,-11195,-28395
150,62264,2.6127,-9.36455,1.6748,-79.7882,-15.3149,-151.721,0.366211,-0.366211,-0.549316,0.102814,-0.254395,0.591431,-0.758148,-142.025,83.35,-5.55,-11195,-28395
156,62270,2.63184,-9.34541,1.7083,-79.7882,-15.3204,-151.721,0.488281,-0.244141,-0.366211,0.102814,-0.254425,0.5914,-0.758179,-142.042,83.3583,-5.56667,-11195,-28395
162,62276,2.60791,-9.36934,1.68438,-79.7882,-15.3204,-151.716,0.183105,-0.305176,-0.427246,0.102814,-0.254425,0.5914,-0.758179,-142.058,83.3417,-5.55833,-11195,-28395
168,62282,2.64141,-9.36455,1.67959,-79.7882,-15.3259,-151.716,0.427246,-0.427246,-0.366211,0.102814,-0.254456,0.59137,-0.758179,-142.067,83.35,-5.5,-11195,-28395
174,62288,2.5792,-9.35977,1.70352,-79.7827,-15.3259,-151.716,0.366211,-0.12207,-0.183105,0.102814,-0.254486,0.591339,-0.758209,-142.075,83.35,-5.40833,-11195,-28395
180,62294,2.59355,-9.32627,1.71787,-79.7827,-15.3314,-151.716,0.366211,-0.12207,-0.610352,0.102814,-0.254517,0.591339,-0.758209,-142.075,83.3667,-5.38333,-11195,-28395
186,62300,2.58877,-9.32148,1.73701,-79.7827,-15.3314,-151.71,0,-0.427246,-0.244141,0.102783,-0.254517,0.591309,-0.758209,-142.067,83.375,-5.425,-11195,-28395
192,62306,2.62705,-9.30713,1.6748,-79.7827,-15.3369,-151.71,-0.0610352,-0.183105,-0.732422,0.102783,-0.254547,0.591309,-0.758209,-142.075,83.4083,-5.46667,-11195,-28395
198,62312,2.61748,-9.36934,1.66045,-79.7827,-15.3369,-151.71,0,-0.427246,-0.366211,0.102783,-0.254578,0.591309,-0.758209,-142.067,83.4,-5.45833,-11195,-28395
204,62318,2.64141,-9.35498,1.65566,-79.7827,-15.3369,-151.71,0,-0.366211,-0.305176,0.102783,-0.254608,0.591309,-0.758209,-142.108,83.4167,-5.43333,-11195,-28395
210,62324,2.62227,-9.34541,1.67959,-79.7827,-15.3424,-151.705,0.12207,-0.305176,-0.427246,0.102753,-0.254639,0.591278,-0.758209,-142.15,83.4333,-5.44167,-11195,-28395
216,62330,2.6127,-9.3502,1.68438,-79.7827,-15.3479,-151.705,0.244141,-0.488281,-0.671387,0.102753,-0.254669,0.591278,-0.758209,-142.175,83.4583,-5.45833,-11195,-28395
222,62336,2.59834,-9.35498,1.66045,-79.7827,-15.3479,-151.699,0.12207,-0.488281,-0.12207,0.102753,-0.2547,0.591248,-0.758209,-142.183,83.4583,-5.50833,-11195,-28395
228,62342,2.60791,-9.37891,1.68438,-79.7827,-15.3534,-151.699,0.305176,-0.305176,-0.427246,0.102753,-0.2547,0.591248,-0.758209,-142.2,83.4667,-5.55,-11195,-28395
234,62348,2.63662,-9.33105,1.67002,-79.7827,-15.3534,-151.699,0.427246,-0.671387,0,0.102783,-0.254761,0.591217,-0.758209,-142.2,83.45,-5.58333,-11195,-28395
240,62354,2.66533,-9.3502,1.67002,-79.7772,-15.3534,-151.688,0.366211,-0.549316,0,0.102814,-0.254791,0.591187,-0.758209,-142.192,83.4417,-5.575,-11195,-28395
246,62360,2.58398,-9.40762,1.65566,-79.7772,-15.3534,-151.688,0.488281,-0.488281,-0.12207,0.102814,-0.254791,0.591187,-0.758209,-142.2,83.4583,-5.56667,-11195,-28395
252,62366,2.58398,-9.37412,1.63174,-79.7717,-15.3589,-151.683,0.976563,-0.915527,-0.244141,0.102844,-0.254822,0.591156,-0.75824,-142.208,83.475,-5.56667,-11195,-28395
258,62372,2.64141,-9.32148,1.71787,-79.7662,-15.3589,-151.683,1.09863,-0.427246,-0.0610352,0.102844,-0.254852,0.591125,-0.75824,-142.233,83.475,-5.58333,-11195,-28395
264,62378,2.58877,-9.31191,1.78965,-79.7662,-15.3589,-151.677,0.12207,-0.427246,-0.427246,0.102905,-0.254883,0.591064,-0.75827,-142.267,83.475,-5.58333,-11195,-28395
270,62384,2.56963,-9.33584,1.7083,-79.7662,-15.3644,-151.672,0.305176,-0.671387,-0.427246,0.102905,-0.254913,0.591064,-0.75827,-142.267,83.4417,-5.56667,-11195,-28395
276,62390,2.60791,-9.31191,1.69873,-79.7662,-15.3644,-151.666,0,-0.854492,-0.12207,0.102905,-0.254944,0.591034,-0.75827,-142.242,83.425,-5.55,-11195,-28395
282,62396,2.63662,-9.35977,1.71787,-79.7662,-15.3699,-151.666,0,-0.854492,-0.366211,0.102905,-0.254974,0.591034,-0.75827,-142.217,83.3917,-5.53333,-11195,-28395
288,62402,2.59355,-9.36455,1.71309,-79.7717,-15.3699,-151.661,0,-0.488281,-0.366211,0.102936,-0.255005,0.591034,-0.75827,-142.2,83.375,-5.50833,-11195,-28395
294,62408,2.58398,-9.27842,1.72744,-79.7717,-15.3754,-151.661,0.12207,-0.610352,-0.366211,0.102936,-0.255066,0.591003,-0.75824,-142.167,83.3083,-5.45,-11195,-28395
300,62414,2.62227,-9.28799,1.76572,-79.7717,-15.3809,-151.65,-0.244141,-0.915527,-0.610352,0.102936,-0.255096,0.591003,-0.75824,-142.142,83.275,-5.43333,-11195,-28395
306,62420,2.56006,-9.31191,1.66523,-79.7717,-15.3864,-151.65,-0.183105,-0.488281,-0.732422,0.102936,-0.255157,0.591003,-0.75824,-142.142,83.2667,-5.46667,-11195,-28395
312,62426,2.56963,-9.31191,1.73701,-79.7772,-15.3864,-151.644,-0.183105,-0.976563,-0.671387,0.102936,-0.255188,0.590973,-0.75824,-142.133,83.2417,-5.53333,-11195,-28395
318,62432,2.65098,-9.3167,1.79922,-79.7772,-15.3918,-151.644,-0.305176,-0.732422,-0.671387,0.102936,-0.255249,0.590973,-0.758209,-142.125,83.2333,-5.56667,-11195,-28395
324,62438,2.5792,-9.3502,1.76094,-79.7827,-15.3973,-151.639,-1.09863,-1.15967,-0.793457,0.102905,-0.25531,0.590973,-0.758179,-142.108,83.2083,-5.55833,-11195,-28395
330,62444,2.62227,-9.34062,1.72266,-79.7937,-15.4083,-151.628,-0.732422,-1.40381,-1.15967,0.102905,-0.255371,0.591003,-0.758148,-142.092,83.175,-5.525,-11195,-28395
336,62450,2.63662,-9.26885,1.66045,-79.7992,-15.4138,-151.622,-0.915527,-1.58691,-0.549316,0.102905,-0.255463,0.591003,-0.758118,-142.092,83.1583,-5.48333,-11195,-28395
342,62456,2.66055,-9.38369,1.69395,-79.8047,-15.4193,-151.617,-1.09863,-0.854492,-0.793457,0.102905,-0.255524,0.591034,-0.758087,-142.092,83.1583,-5.46667,-11195,-28395
348,62462,2.60313,-9.38369,1.68438,-79.8102,-15.4193,-151.611,-1.15967,-1.34277,-0.671387,0.102905,-0.255585,0.591034,-0.758057,-142.083,83.1583,-5.45833,-11195,-28395
354,62468,2.72754,-9.36934,1.65088,-79.8157,-15.4248,-151.606,-1.28174,-0.793457,-0.427246,0.102905,-0.255707,0.591095,-0.757965,-142.058,83.1833,-5.39167,-11195,-28395
360,62474,2.75146,-9.39326,1.58867,-79.8322,-15.4303,-151.589,-1.15967,-1.64795,-0.12207,0.102905,-0.255737,0.591125,-0.757935,-142.05,83.1833,-5.35,-11195,-28395
366,62480,2.75625,-9.40762,1.67002,-79.8376,-15.4303,-151.584,-1.15967,-1.0376,0,0.102936,-0.255829,0.591156,-0.757904,-142.033,83.1833,-5.23333,-11195,-28395
372,62486,2.65098,-9.46504,1.59346,-79.8431,-15.4303,-151.584,-0.915527,-1.0376,-0.12207,0.102966,-0.255859,0.591187,-0.757843,-142.033,83.175,-5.15,-11195,-28395
378,62492,2.64141,-9.43633,1.65088,-79.8486,-15.4303,-151.573,-0.549316,-2.01416,0.366211,0.102966,-0.25589,0.591187,-0.757813,-142.033,83.175,-5.075,-11195,-28395
384,62498,2.64141,-9.37412,1.58389,-79.8541,-15.4303,-151.562,-0.671387,-1.77002,0.427246,0.103058,-0.256012,0.591217,-0.757751,-142.058,83.2,-5.06667,-11195,-28395
390,62504,2.63184,-9.46504,1.7418,-79.8651,-15.4358,-151.54,-0.183105,-1.89209,0.12207,0.103119,-0.256073,0.591217,-0.757721,-142.067,83.1833,-5.05,-11195,-28395
396,62510,2.64141,-9.30234,1.7083,-79.8651,-15.4303,-151.534,0,-1.58691,0.549316,0.10318,-0.256134,0.591217,-0.75769,-142.075,83.175,-5.025,-11195,-28395
402,62516,2.66055,-9.29277,1.72744,-79.8706,-15.4303,-151.523,-0.671387,-1.58691,0.793457,0.103241,-0.256165,0.591217,-0.75766,-142.083,83.1667,-5.00833,-11195,-28395
408,62522,2.71318,-9.38848,1.69395,-79.8761,-15.4303,-151.518,-0.732422,-1.46484,0.793457,0.103302,-0.256195,0.591248,-0.757629,-142.15,83.1667,-4.975,-11195,-28395
414,62528,2.67012,-9.38848,1.60781,-79.8871,-15.4248,-151.496,-0.366211,-1.77002,1.0376,0.103394,-0.256287,0.591278,-0.757568,-142.158,83.175,-4.96667,-11195,-28395
420,62534,2.71797,-9.32148,1.70352,-79.8926,-15.4193,-151.49,-0.488281,-1.2207,0.732422,0.103455,-0.256317,0.591309,-0.757538,-142.167,83.2,-4.94167,-11195,-28395
426,62540,2.63184,-9.3502,1.68438,-79.8981,-15.4193,-151.485,-0.732422,-1.15967,1.15967,0.103516,-0.256348,0.591309,-0.757507,-142.167,83.2167,-4.93333,-11195,-28395
432,62546,2.69883,-9.37412,1.63652,-79.9036,-15.4138,-151.474,-0.549316,-1.46484,0.610352,0.103577,-0.256348,0.591339,-0.757446,-142.175,83.2417,-4.925,-11195,-28395
438,62552,2.68926,-9.41719,1.62217,-79.9036,-15.4138,-151.469,-0.610352,-1.2207,1.2207,0.103638,-0.256409,0.59137,-0.757416,-142.167,83.2833,-4.94167,-11195,-28395
444,62558,2.66055,-9.32627,1.64131,-79.9146,-15.4028,-151.452,-0.427246,-1.34277,1.09863,0.10376,-0.256409,0.5914,-0.757355,-142.183,83.2833,-4.925,-11195,-28395
450,62564,2.72275,-9.44111,1.6126,-79.92,-15.3973,-151.447,-0.610352,-1.52588,1.40381,0.103821,-0.256439,0.591431,-0.757324,-142.2,83.275,-4.875,-11195,-28395
456,62570,2.66533,-9.46025,1.54561,-79.9255,-15.3918,-151.436,-0.549316,-1.28174,1.40381,0.103882,-0.25647,0.591461,-0.757294,-142.208,83.2583,-4.81667,-11195,-28395
462,62576,2.66055,-9.49854,1.55518,-79.9255,-15.3864,-151.43,-0.244141,-1.2207,1.64795,0.103943,-0.25647,0.591492,-0.757263,-142.225,83.2333,-4.76667,-11195,-28395
468,62582,2.71797,-9.52725,1.56953,-79.9255,-15.3809,-151.419,0.366211,-1.40381,1.89209,0.104034,-0.25647,0.591492,-0.757233,-142.208,83.175,-4.775,-11195,-28395
474,62588,2.72754,-9.42676,1.59824,-79.9255,-15.3644,-151.397,0.793457,-1.64795,2.19727,0.104248,-0.2565,0.591492,-0.757202,-142.167,83.1333,-4.78333,-11195,-28395
480,62594,2.67969,-9.46025,1.59824,-79.9255,-15.3534,-151.392,0.915527,-1.52588,2.19727,0.10437,-0.2565,0.591492,-0.757202,-142.117,83.0917,-4.79167,-11195,-28395
486,62600,2.62227,-9.39326,1.61738,-79.92,-15.3424,-151.381,1.2207,-1.40381,2.38037,0.104492,-0.25647,0.591492,-0.757202,-142.075,83.0667,-4.84167,-11195,-28395
492,62606,2.60791,-9.3502,1.67002,-79.92,-15.3369,-151.37,1.40381,-1.64795,2.31934,0.104614,-0.25647,0.591461,-0.757202,-142.05,83.0583,-4.90833,-11195,-28395
498,62612,2.67969,-9.31191,1.6748,-79.9146,-15.3259,-151.359,1.34277,-1.70898,2.74658,0.104736,-0.25647,0.591431,-0.757202,-142.008,83.0833,-5,-11195,-28395
504,62618,2.55527,-9.40762,1.59346,-79.9091,-15.304,-151.342,1.40381,-1.2207,2.44141,0.105011,-0.256409,0.5914,-0.757202,-142.008,83.075,-4.98333,-11195,-28395
510,62624,2.5792,-9.38848,1.6126,-79.9036,-15.293,-151.331,1.52588,-1.40381,2.50244,0.105133,-0.256378,0.59137,-0.757202,-142,83.0667,-4.94167,-11195,-28395
516,62630,2.72754,-9.46025,1.56475,-79.8981,-15.282,-151.32,1.52588,-1.52588,2.68555,0.105255,-0.256378,0.591339,-0.757233,-142.017,83.0667,-4.85,-11195,-28395
522,62636,2.74668,-9.56074,1.49775,-79.8926,-15.271,-151.315,1.95313,-1.46484,2.80762,0.105377,-0.256348,0.591339,-0.757233,-142.025,83.0583,-4.79167,-11195,-28395
528,62642,2.73232,-9.56553,1.46904,-79.8816,-15.2545,-151.304,2.62451,-1.2207,3.17383,0.10553,-0.256317,0.591278,-0.757233,-142.025,83.0917,-4.76667,-11195,-28395
534,62648,2.71797,-9.56553,1.52168,-79.8596,-15.2271,-151.282,3.60107,-1.70898,3.66211,0.105865,-0.256226,0.591156,-0.757324,-142.008,83.1083,-4.79167,-11195,-28395
540,62654,2.75146,-9.46025,1.55039,-79.8431,-15.2106,-151.265,3.84521,-1.89209,3.90625,0.106079,-0.256195,0.591095,-0.757385,-141.975,83.15,-4.83333,-11195,-28395
546,62660,2.60313,-9.5751,1.64131,-79.8267,-15.1941,-151.254,3.90625,-1.34277,4.39453,0.106293,-0.256134,0.591003,-0.757416,-141.958,83.175,-4.88333,-11195,-28395
552,62666,2.56963,-9.52725,1.6126,-79.8102,-15.1721,-151.243,5.12695,-2.0752,4.21143,0.106506,-0.256073,0.590912,-0.757477,-141.95,83.2,-4.90833,-11195,-28395
558,62672,2.60313,-9.40762,1.62217,-79.7882,-15.1556,-151.227,5.31006,-2.0752,3.96729,0.10675,-0.256012,0.59079,-0.757568,-141.942,83.275,-4.875,-11195,-28395
564,62678,2.51221,-9.37412,1.78486,-79.7443,-15.1227,-151.205,5.24902,-1.15967,3.90625,0.107178,-0.25589,0.590546,-0.757751,-141.942,83.3,-4.85833,-11195,-28395
570,62684,2.53135,-9.36455,1.7418,-79.7223,-15.1062,-151.194,5.31006,-1.77002,3.60107,0.107391,-0.255798,0.590424,-0.757843,-141.917,83.3167,-4.9,-11195,-28395
576,62690,2.63662,-9.4459,1.59346,-79.7003,-15.0897,-151.183,4.82178,-1.83105,3.96729,0.107605,-0.255768,0.590271,-0.757935,-141.908,83.3333,-4.95833,-11195,-28395
582,62696,2.69404,-9.62773,1.54561,-79.6838,-15.0732,-151.166,5.00488,-1.89209,4.3335,0.107849,-0.255707,0.590149,-0.758026,-141.875,83.3417,-5.04167,-11195,-28395
588,62702,2.71797,-9.67559,1.53125,-79.6619,-15.0568,-151.15,5.5542,-2.0752,4.27246,0.108063,-0.255646,0.590027,-0.758087,-141.833,83.4,-5.10833,-11195,-28395
594,62708,2.77539,-9.64209,1.57432,-79.6069,-15.0128,-151.122,6.71387,-2.0752,4.94385,0.108612,-0.255524,0.589752,-0.758301,-141.8,83.425,-5.11667,-11195,-28395
600,62714,2.65098,-9.58945,1.59824,-79.574,-14.9908,-151.106,7.69043,-1.34277,5.37109,0.108887,-0.255432,0.589569,-0.758392,-141.758,83.475,-5.11667,-11195,-28395
606,62720,2.64619,-9.52725,1.70352,-79.541,-14.9689,-151.095,7.8125,-1.77002,5.43213,0.109161,-0.25531,0.589386,-0.758545,-141.725,83.5083,-5.11667,-11195,-28395
612,62726,2.6127,-9.39805,1.69395,-79.5081,-14.9414,-151.078,8.05664,-1.89209,5.37109,0.109467,-0.255219,0.589203,-0.758698,-141.692,83.5333,-5.11667,-11195,-28395
618,62732,2.58398,-9.4459,1.69873,-79.4751,-14.9194,-151.068,7.93457,-1.52588,5.67627,0.109772,-0.255127,0.588989,-0.75885,-141.608,83.5667,-5.1,-11195,-28395
624,62738,2.70361,-9.73779,1.57432,-79.4037,-14.8645,-151.035,8.17871,-2.31934,6.34766,0.110382,-0.254883,0.588593,-0.759125,-141.575,83.6,-5.09167,-11195,-28395
630,62744,2.83281,-9.85264,1.45469,-79.3707,-14.837,-151.013,9.0332,-3.23486,6.71387,0.110718,-0.254791,0.588409,-0.759277,-141.55,83.6583,-5.13333,-11195,-28395
636,62750,2.91416,-9.88613,1.44033,-79.3268,-14.8096,-150.991,10.1929,-2.68555,7.32422,0.111115,-0.2547,0.588165,-0.75943,-141.525,83.7167,-5.15,-11195,-28395
642,62756,2.82803,-9.81914,1.46426,-79.2773,-14.7711,-150.969,11.7188,-2.62451,8.05664,0.111511,-0.254547,0.587921,-0.759613,-141.5,83.7917,-5.19167,-11195,-28395
648,62762,2.71797,-9.73779,1.58867,-79.2224,-14.7327,-150.947,12.5122,-2.68555,8.78906,0.111969,-0.254395,0.587616,-0.759827,-141.4,83.8917,-5.275,-11195,-28395
654,62768,2.58877,-9.54639,1.7083,-79.118,-14.6558,-150.897,12.6343,-3.66211,9.39941,0.112946,-0.254028,0.586975,-0.760284,-141.358,83.9333,-5.34167,-11195,-28395
660,62774,2.56484,-9.62295,1.68438,-79.0631,-14.6118,-150.864,12.6343,-4.45557,9.39941,0.113464,-0.253876,0.58667,-0.760498,-141.308,83.9667,-5.40833,-11195,-28395
666,62780,2.6127,-9.59902,1.67002,-79.0192,-14.5734,-150.826,12.4512,-5.31006,9.82666,0.114014,-0.253723,0.586365,-0.760712,-141.267,84.0083,-5.46667,-11195,-28395
672,62786,2.68926,-9.73779,1.60781,-78.9642,-14.5294,-150.793,13.3667,-4.76074,9.94873,0.114594,-0.253601,0.58606,-0.760895,-141.225,84.05,-5.46667,-11195,-28395
678,62792,2.56484,-9.59424,1.66523,-78.9038,-14.491,-150.76,14.0381,-4.63867,10.3149,0.115173,-0.253479,0.585724,-0.761139,-141.158,84.1583,-5.40833,-11195,-28395
684,62798,2.24902,-9.13965,1.78008,-78.7939,-14.4031,-150.699,13.2446,-2.80762,10.1318,0.116333,-0.253143,0.585022,-0.761566,-141.1,84.2333,-5.40833,-11195,-28395
690,62804,2.03848,-9.02959,1.42119,-78.761,-14.3591,-150.683,8.91113,-1.89209,9.52148,0.116852,-0.25296,0.584717,-0.76181,-141.042,84.3083,-5.44167,-11195,-28395
696,62810,2.84717,-9.48897,1.87578,-78.728,-14.3152,-150.656,8.30078,-2.74658,10.0708,0.11731,-0.252747,0.584534,-0.761932,-140.958,84.3833,-5.51667,-11195,-28395
702,62816,2.89023,-9.52725,1.91406,-78.7006,-14.2603,-150.656,7.20215,1.70898,10.8032,0.117767,-0.252563,0.584381,-0.762054,-140.892,84.45,-5.60833,-11195,-28395
708,62822,2.28252,-9.48897,1.92363,-78.6621,-14.2053,-150.661,7.44629,3.35693,11.1084,0.1185,-0.251801,0.584198,-0.762329,-140.767,84.5667,-5.75,-11195,-28395
714,62828,1.9667,-8.79033,2.30645,-78.6182,-14.101,-150.639,4.3335,-0.366211,11.1084,0.118927,-0.251465,0.584106,-0.762451,-140.725,84.6083,-5.78333,-11195,-28395
720,62834,2.04805,-8.8334,2.24424,-78.6182,-14.0515,-150.628,0.488281,-0.244141,10.6201,0.119324,-0.25119,0.584106,-0.762482,-140.692,84.6417,-5.81667,-11195,-28395
726,62840,1.98584,-9.24492,2.12461,-78.6346,-14.0021,-150.623,-1.89209,0.976563,10.5591,0.119659,-0.250946,0.584198,-0.762421,-140.658,84.6667,-5.86667,-11195,-28395
732,62846,1.66045,-9.48897,1.90928,-78.6566,-13.9526,-150.623,-3.72314,1.83105,9.52148,0.119965,-0.250641,0.584412,-0.762329,-140.617,84.6917,-5.9,-11195,-28395
738,62852,1.60781,-9.0583,1.86621,-78.6676,-13.9142,-150.606,-1.34277,-1.64795,8.91113,0.120483,-0.250214,0.584808,-0.762085,-140.533,84.8,-5.975,-11195,-28395
744,62858,1.85664,-9.24971,2.21074,-78.728,-13.8538,-150.584,-6.16455,-0.305176,5.43213,0.120697,-0.250122,0.585022,-0.761902,-140.467,84.8583,-5.975,-11195,-28395
750,62864,1.85664,-9.44111,2.12939,-78.7665,-13.8373,-150.573,-7.14111,-1.52588,4.45557,0.120819,-0.250031,0.585297,-0.761719,-140.4,84.9167,-5.95833,-11195,-28395
756,62870,2.00498,-9.64688,2.0959,-78.8104,-13.8208,-150.557,-7.75146,-1.89209,3.54004,0.120911,-0.25,0.585571,-0.761475,-140.333,84.9583,-5.94167,-11195,-28395
762,62876,1.9667,-9.88135,1.92363,-78.8544,-13.8098,-150.551,-8.36182,-0.976563,2.13623,0.121002,-0.250031,0.585846,-0.761261,-140.267,84.9917,-5.925,-11195,-28395
768,62882,2.12461,-10.1685,1.94756,-78.8873,-13.8043,-150.551,-6.46973,0,0.549316,0.120972,-0.250061,0.586395,-0.760834,-140.167,85.075,-5.95833,-11195,-28395
774,62888,2.72275,-9.95313,1.62695,-78.9258,-13.8263,-150.573,-3.11279,1.70898,-4.21143,0.12085,-0.250061,0.586578,-0.760712,-140.125,85.1083,-5.99167,-11195,-28395
780,62894,3.14385,-10.6661,1.92363,-78.9148,-13.8538,-150.612,0,6.53076,-7.01904,0.120636,-0.250122,0.586639,-0.760681,-140.075,85.1417,-6.04167,-11195,-28395
786,62900,3.47402,-10.7427,2.25381,-78.8654,-13.8922,-150.677,6.5918,10.6812,-9.64355,0.120239,-0.250061,0.586609,-0.760773,-140.042,85.175,-6.05833,-11195,-28395
792,62906,3.59844,-10.3024,2.12939,-78.7885,-13.9307,-150.771,11.4746,16.2354,-11.4746,0.11972,-0.249939,0.586334,-0.761108,-140,85.2083,-6.06667,-11195,-28395
798,62912,3.6415,-9.47461,2.40215,-78.6841,-13.9856,-150.892,14.7705,21.3623,-15.4419,0.118134,-0.249237,0.585358,-0.762329,-139.942,85.2667,-6.08333,-11195,-28395
804,62918,3.90469,-10.9676,2.11982,-78.4479,-14.1779,-151.238,19.165,29.3579,-28.0151,0.116791,-0.24881,0.584869,-0.763062,-139.925,85.2667,-6.08333,-11195,-28395
810,62924,5.29238,-10.3981,2.0624,-78.2446,-14.2987,-151.43,30.9448,32.6538,-29.7852,0.115295,-0.248474,0.584076,-0.764008,-139.908,85.2667,-6.13333,-11195,-28395
816,62930,5.14404,-8.7377,2.28252,-78.0084,-14.4031,-151.672,35.5835,41.748,-29.7852,0.11377,-0.248016,0.582886,-0.765289,-139.908,85.2417,-6.16667,-11195,-28395
822,62936,4.07695,-7.54619,2.64141,-77.7777,-14.5074,-151.941,33.2031,46.7529,-29.4189,0.112061,-0.247223,0.581573,-0.766785,-139.95,85.2,-6.2,-11195,-28395
828,62942,3.11514,-5.9623,2.89502,-77.569,-14.6118,-152.21,28.5645,46.6309,-29.7241,0.108307,-0.245392,0.579315,-0.769623,-140.075,85.1417,-6.29167,-11195,-28395
834,62948,3.03857,-5.17275,2.6749,-77.2668,-14.837,-152.721,11.2305,42.8467,-32.2876,0.106354,-0.244629,0.5784,-0.770844,-140.167,85.1083,-6.38333,-11195,-28395
840,62954,3.20127,-5.17275,2.66055,-77.2064,-14.9579,-152.974,-1.40381,42.3584,-32.6538,0.104248,-0.243988,0.57785,-0.771729,-140.25,85.0583,-6.54167,-11195,-28395
846,62960,3.49316,-5.57949,2.18203,-77.2064,-15.0842,-153.226,-13.2446,42.4805,-33.02,0.10202,-0.243469,0.577698,-0.772308,-140.333,85.0083,-6.71667,-11195,-28395
852,62966,4.05781,-6.51738,1.83271,-77.2559,-15.2051,-153.484,-23.7427,43.7012,-32.7148,0.0996399,-0.242981,0.577942,-0.772583,-140.417,84.9417,-6.95,-11195,-28395
858,62972,4.63682,-8.26875,1.42119,-77.3218,-15.3259,-153.759,-28.7476,47.6074,-31.9214,0.0944824,-0.241913,0.579315,-0.772552,-140.6,84.7833,-7.41667,-11195,-28395
864,62978,4.14873,-8.63721,1.6126,-77.4536,-15.5292,-154.402,-30.5786,59.3262,-30.8228,0.0917053,-0.241119,0.5802,-0.772461,-140.708,84.6833,-7.65833,-11195,-28395
870,62984,3.63672,-8.80947,1.50732,-77.5195,-15.6281,-154.742,-31.9214,60.9741,-30.7617,0.0887756,-0.240112,0.581085,-0.772461,-140.825,84.5833,-7.90833,-11195,-28395
876,62990,3.75635,-9.0918,1.55518,-77.58,-15.7269,-155.094,-31.5552,62.3779,-30.8228,0.0857849,-0.239044,0.582031,-0.77243,-140.95,84.4583,-8.16667,-11195,-28395
882,62996,3.77549,-9.22578,1.59824,-77.6294,-15.8148,-155.462,-30.3955,65.6128,-29.48,0.0827332,-0.237946,0.582947,-0.7724,-141.075,84.3417,-8.425,-11195,-28395
888,63002,3.07207,-9.31191,1.65088,-77.6788,-15.8972,-155.836,-30.3345,67.2607,-28.2593,0.0766296,-0.235321,0.584808,-0.77243,-141.35,84.1,-8.85833,-11195,-28395
894,63008,2.55049,-9.14443,1.51689,-77.7612,-16.04,-156.594,-29.2969,68.7866,-27.2217,0.0736084,-0.233887,0.585693,-0.772491,-141.467,83.95,-9.09167,-11195,-28395
900,63014,2.14854,-9.36934,1.67959,-77.8107,-16.1224,-156.967,-30.1514,67.5049,-28.7476,0.0705566,-0.232422,0.586609,-0.772522,-141.608,83.775,-9.30833,-11195,-28395
906,63020,1.89014,-9.45068,1.43076,-77.8491,-16.2158,-157.341,-29.2358,66.1621,-31.25,0.0674744,-0.231049,0.587494,-0.772522,-141.767,83.5833,-9.49167,-11195,-28395
912,63026,1.89971,-9.47461,1.33984,-77.8986,-16.3147,-157.709,-29.7241,64.9414,-33.6304,0.0643921,-0.229767,0.588348,-0.772522,-141.942,83.3833,-9.71667,-11195,-28395
918,63032,2.01455,-9.80479,1.25371,-77.948,-16.4301,-158.071,-29.6631,63.4155,-35.5225,0.058075,-0.227448,0.589996,-0.772461,-142.325,83.0333,-10.15,-11195,-28395
924,63038,2.14375,-9.58945,1.20107,-78.0249,-16.6772,-158.769,-26.4893,59.5093,-36.9873,0.0549316,-0.22644,0.590729,-0.77243,-142.508,82.8667,-10.3833,-11195,-28395
930,63044,2.4165,-9.40283,1.2585,-78.0579,-16.7926,-159.104,-25.2686,58.0444,-35.5835,0.0518494,-0.225464,0.5914,-0.7724,-142.683,82.6833,-10.6417,-11195,-28395
936,63050,2.52656,-9.25928,1.17715,-78.0853,-16.897,-159.434,-24.4141,56.7627,-33.2031,0.0488892,-0.224487,0.592041,-0.7724,-142.858,82.4917,-10.9167,-11195,-28395
942,63056,2.42607,-9.12051,1.31592,-78.1238,-16.9904,-159.747,-24.292,54.6265,-30.3955,0.0460205,-0.223511,0.592682,-0.772369,-143.033,82.275,-11.1667,-11195,-28395
948,63062,2.38779,-8.75684,1.2585,-78.1622,-17.0728,-160.043,-24.5972,52.9175,-28.0151,0.0407715,-0.221497,0.594025,-0.772217,-143.35,81.8417,-11.6333,-11195,-28395
954,63068,2.40693,-8.86689,1.24893,-78.2721,-17.2266,-160.604,-27.3438,48.0347,-25.4517,0.0383301,-0.220551,0.594757,-0.772034,-143.492,81.6333,-11.875,-11195,-28395
960,63074,2.33037,-8.98652,1.10059,-78.3325,-17.3035,-160.867,-27.6489,46.4478,-25.6348,0.0359802,-0.219635,0.59552,-0.77182,-143.608,81.4333,-12.0917,-11195,-28395
966,63080,2.3208,-8.9626,1.10059,-78.4039,-17.3914,-161.12,-27.9541,43.9453,-26.7334,0.0336304,-0.21875,0.596313,-0.771545,-143.742,81.2583,-12.3583,-11195,-28395
972,63086,2.31123,-8.91953,1.10059,-78.4753,-17.4847,-161.367,-28.0151,42.1143,-28.3813,0.031311,-0.218018,0.597107,-0.771271,-143.867,81.075,-12.6417,-11195,-28395
978,63092,2.57441,-8.90518,0.985742,-78.5522,-17.5891,-161.603,-28.0762,39.7339,-29.7852,0.0267029,-0.216797,0.598633,-0.770599,-144.167,80.6833,-13.1833,-11195,-28395
984,63098,2.7084,-8.86211,1.08623,-78.7115,-17.7979,-162.048,-28.1372,35.8887,-28.9917,0.0244141,-0.216339,0.599365,-0.770233,-144.325,80.4833,-13.4,-11195,-28395
990,63104,2.8041,-8.68027,1.13887,-78.7939,-17.8967,-162.246,-27.9541,33.7524,-27.0996,0.0222473,-0.215881,0.600128,-0.769836,-144.45,80.2667,-13.575,-11195,-28395
996,63110,2.73711,-8.51279,1.20107,-78.8818,-17.9846,-162.444,-28.7476,32.5317,-25.1465,0.0202026,-0.215454,0.600891,-0.769409,-144.6,80.0583,-13.7417,-11195,-28395
1002,63116,2.6127,-8.42666,1.28721,-78.9807,-18.067,-162.62,-29.7241,30.2124,-23.3765,0.0182495,-0.215027,0.601685,-0.768951,-144.742,79.8333,-13.9333,-11195,-28395
1008,63122,2.4835,-8.42666,1.52646,-79.0906,-18.1439,-162.79,-30.7617,27.8931,-22.3389,0.0146484,-0.214264,0.603424,-0.767883,-145.033,79.4167,-14.3167,-11195,-28395
1014,63128,2.56006,-8.60371,1.62217,-79.3323,-18.3142,-163.076,-32.8979,22.522,-23.4375,0.01297,-0.21402,0.60434,-0.767273,-145.158,79.2083,-14.5,-11195,-28395
1020,63134,2.75625,-8.89082,1.55039,-79.4586,-18.4076,-163.207,-32.7759,20.0806,-24.231,0.0112915,-0.213867,0.605255,-0.766602,-145.275,79.0167,-14.6917,-11195,-28395
1026,63140,2.97637,-9.04395,1.56475,-79.5795,-18.512,-163.328,-31.7383,18.7988,-25.1465,0.00967407,-0.213806,0.606171,-0.76593,-145.383,78.8333,-14.8667,-11195,-28395
1032,63146,3.04336,-9.11094,1.64609,-79.6948,-18.6108,-163.449,-29.8462,18.3716,-25.3296,0.00805664,-0.213837,0.607025,-0.765259,-145.483,78.6417,-15.05,-11195,-28395
1038,63152,5.71826,-10.6278,4.88086,-79.7992,-18.7152,-163.559,-31.311,17.2119,-15.3809,0.00494385,-0.213928,0.608551,-0.764038,-145.675,78.2333,-15.3167,-11195,-28395
1044,63158,5.58906,-10.8767,5.10098,-80.0189,-18.7646,-163.861,-32.7759,36.3159,-5.5542,0.00369263,-0.213745,0.609467,-0.763367,-145.767,78.0333,-15.4,-11195,-28395
1050,63164,3.98125,-9.63252,1.99541,-80.0739,-18.7317,-164.07,-25.5127,40.8325,-0.305176,0.0022583,-0.212677,0.610474,-0.762878,-145.858,77.8333,-15.475,-11195,-28395
1056,63170,3.36875,-9.12051,3.64629,-80.0958,-18.6713,-164.333,-22.0337,50.9033,3.41797,0.000946045,-0.211304,0.611298,-0.762573,-145.942,77.65,-15.5667,-11195,-28395
1062,63176,1.52646,-7.42656,4.04824,-80.1068,-18.5834,-164.641,-24.0479,60.1807,6.28662,-0.000457764,-0.209534,0.61203,-0.762512,-146.008,77.475,-15.625,-11195,-28395
1068,63182,0.980957,-7.31172,2.89502,-80.1892,-18.501,-164.91,-45.8984,42.0532,6.22559,-0.00350952,-0.205353,0.613983,-0.762054,-146.142,77.1667,-15.7833,-11195,-28395
1074,63188,2.25381,-8.99131,3.73242,-80.5078,-18.3582,-165.339,-49.9268,42.5415,7.08008,-0.00479126,-0.203766,0.615479,-0.761261,-146.208,77.0417,-15.9083,-11195,-28395
1080,63194,1.9667,-9.3502,3.02422,-80.6616,-18.2813,-165.553,-47.1802,42.2974,7.20215,-0.00610352,-0.202118,0.617126,-0.760376,-146.283,76.9333,-16.0667,-11195,-28395
1086,63200,1.51211,-9.23535,2.77061,-80.8154,-18.2043,-165.745,-46.0815,38.0249,7.75146,-0.00735474,-0.20047,0.618652,-0.759552,-146.35,76.8333,-16.2,-11195,-28395
1092,63206,1.2585,-8.98174,3.11035,-80.9692,-18.1274,-165.916,-45.2881,34.5459,9.27734,-0.00848389,-0.198944,0.620117,-0.758728,-146.4,76.7333,-16.325,-11195,-28395
1098,63212,0.277539,-9.40283,3.21084,-81.1395,-18.0396,-166.047,-48.5229,19.043,13.7329,-0.0101318,-0.196198,0.623108,-0.756989,-146.483,76.5333,-16.6,-11195,-28395
1104,63218,0.0287109,-10.5943,2.26338,-81.5515,-17.8528,-166.185,-49.3164,11.0474,15.1978,-0.0105286,-0.195099,0.624725,-0.755951,-146.525,76.4167,-16.6917,-11195,-28395
1110,63224,0.665137,-13.073,2.52656,-81.7657,-17.7539,-166.168,-46.5088,-0.244141,16.9678,-0.0106506,-0.194214,0.626343,-0.754822,-146.558,76.3333,-16.7667,-11195,-28395
1116,63230,-0.0526367,-14.6665,-0.645996,-81.958,-17.6935,-166.174,-41.0156,2.0752,8.66699,-0.0103455,-0.193665,0.62793,-0.753662,-146.583,76.2583,-16.7917,-11195,-28395
1122,63236,-0.502441,-13.6903,-0.497656,-82.0514,-17.7209,-166.207,-23.6206,4.08936,-10.7422,-0.0103455,-0.193207,0.629272,-0.752655,-146.583,76.2083,-16.825,-11195,-28395
1128,63242,5.62734,-9.47461,-0.741699,-82.1118,-17.7814,-166.124,-14.5264,-9.27734,-10.8032,-0.0107727,-0.194061,0.630035,-0.75177,-146.567,76.1333,-16.9167,-11195,-28395
1134,63248,5.31152,-10.7905,-1.14844,-82.2437,-17.8363,-166.113,-13.855,4.76074,-6.40869,-0.0108948,-0.19455,0.630402,-0.751343,-146.567,76.1083,-17,-11195,-28395
1140,63254,4.49805,-11.2021,-1.27285,-82.2491,-17.8418,-166.146,-4.27246,6.22559,-4.45557,-0.011261,-0.194458,0.630798,-0.751038,-146.558,76.0917,-17.0417,-11195,-28395
1146,63260,4.56504,-10.7379,-0.583789,-82.2272,-17.8418,-166.19,1.40381,7.56836,-3.2959,-0.0115356,-0.194305,0.63089,-0.750977,-146.558,76.0667,-17.0667,-11195,-28395
1152,63266,4.09609,-10.178,-0.129199,-82.1942,-17.8308,-166.229,4.76074,7.56836,-0.610352,-0.0117798,-0.194092,0.630829,-0.751099,-146.558,75.9667,-17.0833,-11195,-28395
1158,63272,3.73721,-10.0393,0.483301,-82.1558,-17.8088,-166.251,10.437,2.68555,4.76074,-0.0118408,-0.193542,0.630524,-0.751495,-146.55,75.8917,-17.0833,-11195,-28395
1164,63278,3.56494,-9.58945,0.593359,-82.0404,-17.7374,-166.284,12.146,5.06592,5.24902,-0.0116272,-0.193268,0.630249,-0.751801,-146.55,75.8417,-17.125,-11195,-28395
1170,63284,3.32568,-9.44111,0.712988,-81.9745,-17.699,-166.311,11.7798,6.65283,5.7373,-0.0114746,-0.192932,0.629913,-0.752167,-146.55,75.8167,-17.2167,-11195,-28395
1176,63290,3.21563,-9.65645,0.980957,-81.9086,-17.655,-166.339,12.6343,6.28662,6.71387,-0.011322,-0.192505,0.629608,-0.752533,-146.542,75.7917,-17.2667,-11195,-28395
1182,63296,3.25869,-9.58945,1.05273,-81.8262,-17.6111,-166.366,15.1367,5.67627,7.69043,-0.0111389,-0.192078,0.629272,-0.752899,-146.533,75.7667,-17.3917,-11195,-28395
1188,63302,3.08164,-9.09658,1.56475,-81.6724,-17.5122,-166.393,15.1367,2.80762,8.97217,-0.0106201,-0.191254,0.628448,-0.753815,-146.517,75.7333,-17.4417,-11195,-28395
1194,63308,3.14385,-9.0583,1.65088,-81.601,-17.4573,-166.41,13.855,5.12695,9.15527,-0.0102539,-0.190887,0.628082,-0.754242,-146.5,75.7083,-17.5333,-11195,-28395
1200,63314,2.87588,-9.14443,1.4499,-81.5405,-17.4023,-166.426,12.3901,4.27246,9.21631,-0.00997925,-0.19046,0.627716,-0.754639,-146.483,75.7083,-17.6167,-11195,-28395
1206,63320,2.77539,-9.21143,1.68916,-81.4746,-17.3529,-166.448,12.4512,4.94385,8.78906,-0.00967407,-0.190033,0.627411,-0.755005,-146.475,75.7,-17.725,-11195,-28395
1212,63326,2.77539,-9.01523,1.93799,-81.4142,-17.309,-166.454,11.5967,3.2959,8.66699,-0.00939941,-0.189636,0.627106,-0.755371,-146.467,75.725,-17.8417,-11195,-28395
1218,63332,2.67012,-8.97217,1.88057,-81.3373,-17.2211,-166.465,7.01904,1.77002,7.32422,-0.00878906,-0.188965,0.626587,-0.755981,-146.492,75.7583,-17.875,-11195,-28395
1224,63338,2.74668,-9.06309,1.81836,-81.3098,-17.1826,-166.47,5.43213,1.58691,6.7749,-0.00854492,-0.18869,0.626434,-0.756165,-146.5,75.7917,-17.9,-11195,-28395
1230,63344,2.74189,-9.13008,1.59346,-81.2933,-17.1497,-166.47,3.479,1.89209,6.28662,-0.00830078,-0.188416,0.626343,-0.756317,-146.517,75.8167,-17.8917,-11195,-28395
1236,63350,2.83281,-9.25928,1.46904,-81.2769,-17.1167,-166.476,3.17383,1.89209,5.43213,-0.00811768,-0.188171,0.626282,-0.756439,-146.517,75.8417,-17.875,-11195,-28395
1242,63356,2.82324,-9.29277,1.57432,-81.2604,-17.0892,-166.487,3.05176,2.38037,5.06592,-0.00793457,-0.187958,0.626251,-0.756531,-146.508,75.8917,-17.9083,-11195,-28395
1248,63362,2.77539,-9.17314,1.58389,-81.2274,-17.0398,-166.503,2.44141,1.77002,4.27246,-0.00769043,-0.1875,0.626129,-0.756714,-146.508,75.925,-17.9333,-11195,-28395
1254,63368,2.8041,-9.13008,1.62217,-81.2274,-17.0178,-166.509,0.732422,1.89209,3.78418,-0.00756836,-0.187317,0.626099,-0.756805,-146.492,75.9667,-17.9833,-11195,-28395
1260,63374,2.70361,-9.33584,1.56953,-81.2219,-16.9958,-166.514,-0.0610352,1.58691,3.17383,-0.00747681,-0.187134,0.626099,-0.756836,-146.467,75.9833,-18.0333,-11195,-28395
1266,63380,2.59355,-9.33105,1.53125,-81.2219,-16.9849,-166.514,0.183105,0.427246,2.56348,-0.00741577,-0.186981,0.62616,-0.756836,-146.433,76.025,-18.1083,-11195,-28395
1272,63386,2.72754,-9.31191,1.62695,-81.2274,-16.9739,-166.509,-0.0610352,-1.0376,2.0752,-0.00732422,-0.18689,0.62616,-0.756836,-146.375,76.075,-18.2167,-11195,-28395
1278,63392,2.8041,-9.221,1.4834,-81.2384,-16.9519,-166.487,-1.0376,-2.01416,1.46484,-0.0071106,-0.186829,0.626221,-0.756836,-146.358,76.1,-18.175,-11195,-28395
1284,63398,3.029,-9.36455,1.33984,-81.2494,-16.9464,-166.476,-1.89209,-2.0752,1.70898,-0.00701904,-0.186859,0.626251,-0.756775,-146.35,76.1083,-18.1167,-11195,-28395
1290,63404,3.029,-9.37412,1.12451,-81.2659,-16.9354,-166.465,-1.83105,-1.58691,1.95313,-0.00689697,-0.186859,0.626343,-0.756714,-146.35,76.1083,-18.0583,-11195,-28395
1296,63410,3.29697,-9.48897,1.13887,-81.2714,-16.9189,-166.459,-0.732422,-0.671387,2.74658,-0.00680542,-0.186859,0.626434,-0.756653,-146.358,76.125,-18.0083,-11195,-28395
1302,63416,3.02422,-9.44111,1.1915,-81.2714,-16.9025,-166.459,-0.0610352,-0.0610352,3.35693,-0.00668335,-0.186798,0.626465,-0.756622,-146.342,76.175,-17.9667,-11195,-28395
1308,63422,2.91895,-9.39326,1.37334,-81.2714,-16.864,-166.448,0.854492,0,3.72314,-0.00643921,-0.186584,0.626556,-0.756622,-146.3,76.1917,-17.95,-11195,-28395
1314,63428,2.92373,-9.22578,1.55039,-81.2714,-16.8475,-166.448,0.12207,-0.244141,3.66211,-0.00631714,-0.186493,0.626556,-0.756622,-146.275,76.2,-17.9083,-11195,-28395
1320,63434,2.93809,-9.25449,1.50732,-81.2714,-16.8256,-166.448,-0.305176,1.52588,3.72314,-0.00616455,-0.186401,0.626587,-0.756622,-146.25,76.2,-17.8917,-11195,-28395
1326,63440,2.72275,-9.26406,1.40684,-81.2769,-16.8091,-166.454,-0.793457,1.2207,3.41797,-0.00610352,-0.186249,0.626648,-0.756622,-146.233,76.2083,-17.8583,-11195,-28395
1332,63446,2.55049,-9.22578,1.59824,-81.2878,-16.7926,-166.454,-1.58691,-0.12207,3.23486,-0.00601196,-0.186096,0.626709,-0.756622,-146.217,76.275,-17.875,-11195,-28395
1338,63452,2.71797,-9.14443,1.56953,-81.3098,-16.7651,-166.443,-2.68555,-0.0610352,2.38037,-0.00582886,-0.185944,0.626862,-0.756531,-146.2,76.3083,-17.8917,-11195,-28395
1344,63458,2.74189,-9.27842,1.47383,-81.3318,-16.7542,-166.437,-3.60107,-0.793457,2.2583,-0.00576782,-0.185883,0.626953,-0.756439,-146.183,76.3333,-17.9167,-11195,-28395
1350,63464,2.80889,-9.30234,1.45947,-81.3483,-16.7432,-166.432,-3.17383,-1.09863,2.2583,-0.00570679,-0.185852,0.627106,-0.756348,-146.167,76.325,-17.925,-11195,-28395
1356,63470,2.9333,-9.2832,1.46426,-81.3647,-16.7322,-166.426,-3.17383,-0.427246,2.13623,-0.00561523,-0.185822,0.627228,-0.756256,-146.15,76.3167,-17.9167,-11195,-28395
1362,63476,2.91416,-9.37891,1.29199,-81.3812,-16.7212,-166.426,-3.05176,0.366211,2.2583,-0.0055542,-0.18576,0.62735,-0.756165,-146.1,76.325,-17.9083,-11195,-28395
1368,63482,2.86152,-9.4459,1.39727,-81.4142,-16.6992,-166.421,-3.35693,-0.305176,2.2583,-0.00546265,-0.185638,0.627594,-0.755981,-146.1,76.3333,-17.9,-11195,-28395
1374,63488,2.75146,-9.31191,1.31592,-81.4252,-16.6882,-166.415,-2.50244,-0.427246,2.62451,-0.00540161,-0.185608,0.627716,-0.75589,-146.1,76.3667,-17.9,-11195,-28395
1380,63494,2.82324,-9.32148,1.40684,-81.4417,-16.6772,-166.41,-2.99072,-0.854492,2.19727,-0.00531006,-0.185547,0.627808,-0.755829,-146.092,76.3833,-17.875,-11195,-28395
1386,63500,2.74189,-9.27842,1.51211,-81.4636,-16.6663,-166.399,-3.54004,-0.976563,2.01416,-0.00524902,-0.185516,0.62793,-0.755737,-146.083,76.4083,-17.8667,-11195,-28395
1392,63506,2.81367,-9.27842,1.44033,-81.4856,-16.6608,-166.393,-3.479,-1.34277,2.13623,-0.00515747,-0.185486,0.628052,-0.755646,-146.042,76.4167,-17.8917,-11195,-28395
1398,63512,2.72754,-9.3502,1.46426,-81.524,-16.6443,-166.382,-4.08936,-1.28174,1.70898,-0.0050354,-0.185425,0.628326,-0.755432,-146.017,76.45,-17.9167,-11195,-28395
1404,63518,2.73232,-9.30234,1.33984,-81.546,-16.6333,-166.366,-4.02832,-2.2583,1.70898,-0.00497437,-0.185425,0.628479,-0.75531,-146,76.4667,-17.9583,-11195,-28395
1410,63524,2.91416,-9.3167,1.33027,-81.5735,-16.6278,-166.349,-4.3335,-2.68555,1.52588,-0.00488281,-0.185455,0.628632,-0.755188,-145.992,76.5083,-17.9833,-11195,-28395
1416,63530,2.99072,-9.39805,1.24414,-81.5955,-16.6223,-166.339,-4.15039,-2.01416,1.95313,-0.00479126,-0.185486,0.628784,-0.755066,-145.975,76.525,-18,-11195,-28395
1422,63536,2.85674,-9.50811,1.1915,-81.6119,-16.6113,-166.333,-3.05176,-0.976563,1.77002,-0.00469971,-0.185516,0.628937,-0.754913,-145.983,76.5667,-18.025,-11195,-28395
1428,63542,2.86631,-9.28799,1.49297,-81.6559,-16.5948,-166.306,-4.15039,-2.31934,1.95313,-0.00454712,-0.185516,0.62915,-0.75473,-145.983,76.575,-18.025,-11195,-28395
1434,63548,2.82803,-9.36455,1.50254,-81.6779,-16.5894,-166.295,-4.39453,-1.70898,1.58691,-0.00445557,-0.185547,0.629303,-0.754608,-145.958,76.5833,-18.0167,-11195,-28395
1440,63554,2.82803,-9.30713,1.40684,-81.7053,-16.5839,-166.284,-4.27246,-2.19727,1.77002,-0.00439453,-0.185547,0.629456,-0.754486,-145.925,76.575,-18.025,-11195,-28395
1446,63560,2.88545,-9.39326,1.26807,-81.7273,-16.5784,-166.273,-4.76074,-1.70898,1.89209,-0.00430298,-0.185577,0.629608,-0.754364,-145.9,76.575,-18.0333,-11195,-28395
1452,63566,2.83281,-9.52246,1.18193,-81.7548,-16.5674,-166.267,-4.5166,-1.40381,1.77002,-0.00418091,-0.185577,0.629913,-0.754089,-145.833,76.5917,-18.0167,-11195,-28395
1458,63572,2.8376,-9.27842,1.225,-81.7932,-16.5564,-166.245,-3.41797,-1.70898,1.83105,-0.00411987,-0.185577,0.630035,-0.753967,-145.817,76.5917,-17.9583,-11195,-28395
1464,63578,2.86631,-9.28799,1.35898,-81.8152,-16.5454,-166.24,-3.90625,-0.915527,1.64795,-0.00402832,-0.185577,0.630157,-0.753876,-145.817,76.5917,-17.875,-11195,-28395
1470,63584,2.88545,-9.34062,1.36855,-81.8372,-16.5399,-166.234,-4.21143,-1.28174,1.46484,-0.0039978,-0.185577,0.63031,-0.753754,-145.792,76.5833,-17.8,-11195,-28395
1476,63590,2.87109,-9.38369,1.2585,-81.8591,-16.5344,-166.223,-3.96729,-1.40381,2.19727,-0.00393677,-0.185577,0.630463,-0.753632,-145.792,76.575,-17.75,-11195,-28395
1482,63596,2.82324,-9.40283,1.24414,-81.8811,-16.5234,-166.218,-3.78418,-1.15967,1.95313,-0.00378418,-0.185547,0.630737,-0.753418,-145.758,76.5583,-17.7083,-11195,-28395
1488,63602,2.78496,-9.47461,1.44512,-81.925,-16.507,-166.201,-4.21143,-0.976563,1.64795,-0.00372314,-0.185547,0.63089,-0.753296,-145.733,76.55,-17.6833,-11195,-28395
1494,63608,2.56484,-9.2832,1.47861,-81.9415,-16.5015,-166.19,-3.41797,-1.83105,1.77002,-0.00366211,-0.185547,0.631012,-0.753174,-145.708,76.5583,-17.6917,-11195,-28395
1500,63614,2.65098,-9.25928,1.46426,-81.9635,-16.496,-166.174,-4.02832,-2.2583,1.0376,-0.00357056,-0.185577,0.631134,-0.753052,-145.683,76.5583,-17.7,-11195,-28395
1506,63620,2.84238,-9.221,1.56475,-81.991,-16.496,-166.163,-5.00488,-2.56348,0.793457,-0.00350952,-0.185608,0.631287,-0.75293,-145.683,76.575,-17.7,-11195,-28395
1512,63626,2.91416,-9.37891,1.11016,-82.0239,-16.4905,-166.146,-5.18799,-2.80762,1.15967,-0.00338745,-0.18573,0.631622,-0.752625,-145.708,76.5833,-17.7417,-11195,-28395
1518,63632,2.77061,-9.34062,1.22979,-82.0734,-16.485,-166.124,-3.78418,-2.13623,1.0376,-0.00332642,-0.18576,0.631775,-0.752472,-145.708,76.5917,-17.7333,-11195,-28395
1524,63638,2.82803,-9.32627,1.24414,-82.0953,-16.4795,-166.113,-3.96729,-1.58691,1.40381,-0.00326538,-0.185822,0.631897,-0.75235,-145.717,76.5917,-17.725,-11195,-28395
1530,63644,2.86152,-9.3167,1.18672,-82.1173,-16.474,-166.102,-4.21143,-2.2583,1.46484,-0.00320435,-0.185822,0.63205,-0.752228,-145.725,76.6,-17.725,-11195,-28395
1536,63650,3.03379,-9.44111,1.22979,-82.1393,-16.4685,-166.091,-4.45557,-1.58691,1.70898,-0.00314331,-0.185852,0.632202,-0.752106,-145.725,76.5917,-17.7,-11195,-28395
1542,63656,2.91895,-9.45547,1.13408,-82.1613,-16.4575,-166.086,-4.08936,-1.15967,1.95313,-0.00302124,-0.185852,0.632477,-0.751862,-145.725,76.6,-17.65,-11195,-28395
1548,63662,2.73711,-9.31191,1.11494,-82.1997,-16.441,-166.069,-3.05176,-1.34277,2.13623,-0.00296021,-0.185852,0.632629,-0.75177,-145.717,76.6,-17.6333,-11195,-28395
1554,63668,2.75625,-9.37412,1.34941,-82.2162,-16.4301,-166.058,-3.41797,-1.52588,2.01416,-0.00286865,-0.185822,0.632721,-0.751678,-145.717,76.6083,-17.5833,-11195,-28395
1560,63674,2.74668,-9.33105,1.45469,-82.2327,-16.4246,-166.053,-2.31934,-1.34277,1.77002,-0.0027771,-0.185822,0.632843,-0.751556,-145.708,76.6167,-17.5333,-11195,-28395
1566,63680,2.73232,-9.05352,1.29678,-82.2491,-16.4136,-166.036,-2.92969,-2.13623,2.19727,-0.00271606,-0.185822,0.632935,-0.751495,-145.675,76.6333,-17.475,-11195,-28395
1572,63686,2.78975,-9.15879,1.54561,-82.2711,-16.4081,-166.031,-4.45557,-0.854492,1.77002,-0.00256348,-0.185822,0.633209,-0.751282,-145.633,76.6417,-17.2583,-11195,-28395
1578,63692,2.6749,-9.33105,1.225,-82.3151,-16.3971,-166.02,-4.15039,-1.0376,1.15967,-0.00250244,-0.185822,0.633331,-0.75116,-145.633,76.6583,-17.1667,-11195,-28395
1584,63698,2.69883,-9.35498,1.36377,-82.337,-16.3916,-166.009,-4.5166,-1.77002,0.915527,-0.00247192,-0.185822,0.633484,-0.751038,-145.625,76.6583,-17.0917,-11195,-28395
1590,63704,2.72275,-9.40762,1.09102,-82.359,-16.3916,-165.998,-4.15039,-2.19727,0.976563,-0.00244141,-0.185852,0.633636,-0.750916,-145.617,76.6583,-17.025,-11195,-28395
1596,63710,2.72754,-9.37891,1.22021,-82.3865,-16.3861,-165.981,-4.82178,-2.50244,0.793457,-0.00238037,-0.185913,0.633759,-0.750793,-145.6,76.675,-17.0083,-11195,-28395
1602,63716,2.87588,-9.40283,0.995313,-82.4084,-16.3861,-165.97,-3.84521,-2.74658,0.732422,-0.0022583,-0.186035,0.634033,-0.750519,-145.567,76.6667,-16.9667,-11195,-28395
1608,63722,2.75625,-9.50332,1.1293,-82.4524,-16.3806,-165.943,-3.60107,-2.2583,1.0376,-0.00219727,-0.186096,0.634186,-0.750397,-145.525,76.6833,-16.9333,-11195,-28395
1614,63728,2.96201,-9.58945,0.957031,-82.4689,-16.3751,-165.927,-2.13623,-2.74658,1.09863,-0.00210571,-0.186127,0.634308,-0.750275,-145.5,76.6917,-16.8833,-11195,-28395
1620,63734,2.96201,-9.57988,1.00967,-82.4744,-16.3751,-165.921,-0.915527,-1.40381,1.0376,-0.00201416,-0.186188,0.634369,-0.750183,-145.5,76.7083,-16.825,-11195,-28395
1626,63740,2.67969,-9.30234,1.12451,-82.4799,-16.3696,-165.91,-0.793457,-1.77002,1.09863,-0.00195313,-0.186218,0.634399,-0.750153,-145.5,76.725,-16.8083,-11195,-28395
1632,63746,2.8041,-9.43154,1.11973,-82.4963,-16.3641,-165.899,-2.01416,-1.89209,1.0376,-0.00183105,-0.186279,0.634521,-0.750061,-145.508,76.7667,-16.75,-11195,-28395
1638,63752,2.77061,-9.40283,1.13887,-82.5073,-16.3586,-165.883,-0.244141,-1.0376,0.793457,-0.0017395,-0.18631,0.634552,-0.75,-145.5,76.775,-16.7083,-11195,-28395
1644,63758,2.76582,-9.29277,1.27285,-82.5073,-16.3586,-165.883,-0.305176,-0.671387,0.854492,-0.00170898,-0.18634,0.634583,-0.75,-145.508,76.7917,-16.675,-11195,-28395
1650,63764,2.6749,-9.24014,1.3542,-82.5183,-16.3586,-165.877,-2.0752,-0.854492,0.305176,-0.00164795,-0.18634,0.634583,-0.749969,-145.533,76.8,-16.6333,-11195,-28395
1656,63770,2.84238,-9.40283,1.11973,-82.5293,-16.3531,-165.866,-1.09863,-1.46484,1.09863,-0.00164795,-0.186371,0.634644,-0.749908,-145.542,76.8083,-16.6,-11195,-28395
1662,63776,2.68447,-9.29277,1.33027,-82.5348,-16.3531,-165.866,-1.15967,-0.183105,0.366211,-0.00158691,-0.186371,0.634735,-0.749847,-145.517,76.8083,-16.55,-11195,-28395
1668,63782,2.69883,-9.2832,1.37813,-82.5513,-16.3477,-165.861,-2.38037,-0.488281,0.183105,-0.0015564,-0.186371,0.634796,-0.749817,-145.508,76.8083,-16.5417,-11195,-28395
1674,63788,2.54092,-9.30234,1.47383,-82.5677,-16.3477,-165.855,-3.35693,-0.915527,-0.305176,-0.0015564,-0.186371,0.634857,-0.749725,-145.5,76.825,-16.55,-11195,-28395
1680,63794,2.71797,-9.31191,1.20586,-82.5842,-16.3531,-165.844,-2.56348,-2.38037,-0.183105,-0.0015564,-0.186432,0.634949,-0.749634,-145.508,76.8417,-16.5667,-11195,-28395
1686,63800,2.90459,-9.38369,1.18672,-82.6007,-16.3531,-165.839,-2.86865,-1.40381,-0.244141,-0.00152588,-0.186493,0.63504,-0.749542,-145.525,76.8417,-16.6333,-11195,-28395
1692,63806,2.83281,-9.38848,1.13408,-82.6117,-16.3586,-165.833,-2.62451,-0.671387,-0.610352,-0.00152588,-0.186584,0.635193,-0.74939,-145.533,76.8,-16.7667,-11195,-28395
1698,63812,2.78496,-9.37891,1.02881,-82.6392,-16.3641,-165.828,-2.74658,-0.244141,-0.488281,-0.00152588,-0.186646,0.635254,-0.749329,-145.533,76.7583,-16.7667,-11195,-28395
1704,63818,2.57441,-9.49375,1.26807,-82.6447,-16.3696,-165.828,-1.77002,0.12207,-0.671387,-0.0015564,-0.186676,0.635345,-0.749268,-145.492,76.725,-16.7583,-11195,-28395
1710,63824,2.8041,-9.3167,1.18193,-82.6556,-16.3696,-165.822,-1.77002,-1.40381,-0.793457,-0.00161743,-0.186676,0.635376,-0.749207,-145.475,76.7083,-16.75,-11195,-28395
1716,63830,2.81367,-9.46025,1.18672,-82.6666,-16.3751,-165.822,-1.77002,0.183105,-1.0376,-0.00161743,-0.186768,0.635437,-0.749146,-145.467,76.725,-16.75,-11195,-28395
1722,63836,2.87588,-9.51768,1.10537,-82.6721,-16.3806,-165.822,-0.610352,-0.366211,-1.0376,-0.00167847,-0.186798,0.635529,-0.749054,-145.45,76.7583,-16.7333,-11195,-28395
1728,63842,2.73711,-9.38369,1.04316,-82.6776,-16.3861,-165.822,-0.244141,0.12207,-0.488281,-0.00170898,-0.186859,0.635529,-0.749054,-145.442,76.775,-16.725,-11195,-28395
1734,63848,2.75146,-9.46025,1.21543,-82.6831,-16.3916,-165.817,-0.671387,-0.915527,-0.793457,-0.0017395,-0.186859,0.635559,-0.749023,-145.442,76.7667,-16.6667,-11195,-28395
1740,63854,2.8041,-9.42197,1.22021,-82.6831,-16.3971,-165.817,0.12207,-0.549316,-0.976563,-0.0017395,-0.18692,0.635559,-0.749023,-145.433,76.75,-16.6417,-11195,-28395
1746,63860,2.83281,-9.31191,1.14365,-82.6831,-16.4026,-165.811,-0.183105,-0.366211,-1.0376,-0.0017395,-0.186951,0.635559,-0.749023,-145.442,76.7333,-16.6083,-11195,-28395
1752,63866,2.8376,-9.49854,1.17236,-82.6886,-16.4081,-165.811,0,-1.09863,-0.793457,-0.00177002,-0.187042,0.635559,-0.748962,-145.45,76.7083,-16.6083,-11195,-28395
1758,63872,2.85195,-9.34541,1.11973,-82.6886,-16.4136,-165.8,0.12207,-1.15967,-0.671387,-0.00177002,-0.187103,0.635559,-0.748962,-145.458,76.7333,-16.625,-11195,-28395
1764,63878,2.89502,-9.45068,1.20107,-82.6886,-16.4191,-165.795,0.12207,-0.671387,-0.488281,-0.00177002,-0.187164,0.635559,-0.748962,-145.475,76.75,-16.65,-11195,-28395
1770,63884,2.78018,-9.40283,1.1293,-82.6886,-16.4246,-165.795,0.732422,-0.0610352,-0.610352,-0.00177002,-0.187195,0.635529,-0.748962,-145.517,76.7917,-16.6667,-11195,-28395
1776,63890,2.69404,-9.30713,1.28721,-82.6886,-16.4246,-165.795,0.427246,-0.732422,-0.488281,-0.00177002,-0.187225,0.635498,-0.748962,-145.542,76.8,-16.6583,-11195,-28395
1782,63896,2.80889,-9.36934,1.2585,-82.6886,-16.4301,-165.789,-0.427246,-0.793457,-0.854492,-0.00177002,-0.187286,0.635498,-0.748962,-145.55,76.7833,-16.625,-11195,-28395
1788,63902,2.70361,-9.38848,1.23457,-82.6941,-16.4355,-165.784,-0.305176,-0.793457,-0.732422,-0.00177002,-0.187347,0.635498,-0.748962,-145.542,76.7583,-16.6167,-11195,-28395
1794,63908,2.75625,-9.36455,1.21543,-82.6996,-16.441,-165.778,-0.549316,-1.40381,-0.976563,-0.00177002,-0.187378,0.635498,-0.748932,-145.525,76.7417,-16.6417,-11195,-28395
1800,63914,2.84717,-9.42197,1.04795,-82.6996,-16.4465,-165.773,-0.488281,-1.0376,-1.0376,-0.00177002,-0.187469,0.635529,-0.748901,-145.533,76.7333,-16.6167,-11195,-28395
1806,63920,2.79932,-9.42197,1.02881,-82.7051,-16.452,-165.767,0,-1.15967,-0.976563,-0.00177002,-0.187531,0.635529,-0.748901,-145.55,76.7167,-16.55,-11195,-28395
1812,63926,2.68926,-9.32148,1.11494,-82.7051,-16.4575,-165.762,0.12207,-0.732422,-1.2207,-0.00180054,-0.187622,0.635498,-0.748871,-145.567,76.7,-16.4167,-11195,-28395
1818,63932,2.80889,-9.40762,1.15322,-82.7051,-16.4685,-165.751,0.12207,-1.46484,-0.915527,-0.00180054,-0.187683,0.635498,-0.748871,-145.567,76.7,-16.4167,-11195,-28395
1824,63938,2.88545,-9.4124,1.12451,-82.6996,-16.474,-165.751,0.793457,-0.732422,-0.732422,-0.00180054,-0.187744,0.635468,-0.748871,-145.558,76.6917,-16.4417,-11195,-28395
1830,63944,2.76104,-9.35977,1.15322,-82.6996,-16.4795,-165.751,1.15967,-0.305176,-0.732422,-0.00180054,-0.187805,0.635437,-0.748871,-145.575,76.7083,-16.475,-11195,-28395
1836,63950,2.6127,-9.27842,1.23936,-82.6941,-16.485,-165.74,0.671387,-1.34277,-1.09863,-0.00180054,-0.187836,0.635406,-0.748901,-145.583,76.725,-16.5,-11195,-28395
1842,63956,2.81367,-9.36455,1.17715,-82.6996,-16.4905,-165.734,0.12207,-0.854492,-1.15967,-0.00177002,-0.187988,0.635376,-0.748901,-145.592,76.7417,-16.55,-11195,-28395
1848,63962,2.76582,-9.38848,1.16279,-82.6996,-16.5015,-165.723,0.244141,-1.09863,-1.09863,-0.00180054,-0.188049,0.635345,-0.748901,-145.592,76.7333,-16.5583,-11195,-28395
1854,63968,2.75625,-9.30234,1.1915,-82.6996,-16.507,-165.718,0.12207,-1.58691,-1.15967,-0.00180054,-0.18811,0.635345,-0.748901,-145.583,76.7083,-16.55,-11195,-28395
1860,63974,2.87588,-9.32148,1.22979,-82.7051,-16.5125,-165.707,-0.305176,-1.77002,-0.793457,-0.00177002,-0.188202,0.635315,-0.748871,-145.583,76.6833,-16.5417,-11195,-28395
1866,63980,3.00029,-9.36934,1.20586,-82.7106,-16.5179,-165.701,-0.366211,-1.40381,-0.732422,-0.00177002,-0.188293,0.635345,-0.748871,-145.6,76.6583,-16.5333,-11195,-28395
1872,63986,2.83281,-9.42197,1.1293,-82.7106,-16.5234,-165.701,-0.732422,-0.488281,-0.305176,-0.00177002,-0.188354,0.635345,-0.74881,-145.617,76.6833,-16.5667,-11195,-28395
1878,63992,2.87588,-9.38369,1.16279,-82.7216,-16.5234,-165.696,-0.610352,-0.854492,-0.12207,-0.00177002,-0.188385,0.635376,-0.74881,-145.633,76.6833,-16.6,-11195,-28395
1884,63998,2.82324,-9.3167,1.18672,-82.7271,-16.5234,-165.69,-0.915527,-0.549316,-0.0610352,-0.00177002,-0.188416,0.635406,-0.748779,-145.633,76.6833,-16.6167,-11195,-28395
1890,64004,2.73711,-9.35498,1.23936,-82.7325,-16.5289,-165.69,-1.09863,-0.488281,0,-0.00177002,-0.188446,0.635437,-0.748749,-145.633,76.6583,-16.625,-11195,-28395
1896,64010,2.71797,-9.31191,1.27285,-82.738,-16.5289,-165.685,-1.0376,-0.915527,-0.244141,-0.00177002,-0.188477,0.635468,-0.748718,-145.625,76.6,-16.6583,-11195,-28395
1902,64016,2.72754,-9.31191,1.46426,-82.76,-16.5344,-165.674,-1.95313,-1.0376,-0.915527,-0.0017395,-0.188538,0.635529,-0.748627,-145.617,76.5667,-16.6083,-11195,-28395
1908,64022,2.77539,-9.35498,1.40205,-82.771,-16.5399,-165.668,-2.62451,-1.09863,-0.610352,-0.00177002,-0.188599,0.63559,-0.748566,-145.617,76.5417,-16.55,-11195,-28395
1914,64028,2.89023,-9.53203,1.17236,-82.7875,-16.5454,-165.668,-2.86865,-1.15967,-1.15967,-0.00177002,-0.18866,0.635681,-0.748474,-145.608,76.525,-16.4667,-11195,-28395
1920,64034,2.91895,-9.62773,0.913965,-82.7985,-16.5509,-165.657,-2.2583,-1.28174,-0.915527,-0.00180054,-0.188721,0.635742,-0.748383,-145.608,76.525,-16.4083,-11195,-28395
1926,64040,2.97158,-9.63252,0.799121,-82.8094,-16.5564,-165.652,-1.58691,-1.34277,-0.793457,-0.00180054,-0.188782,0.635803,-0.748322,-145.608,76.5083,-16.35,-11195,-28395
1932,64046,2.8376,-9.46504,0.913965,-82.8204,-16.5619,-165.641,-0.183105,-0.854492,-0.12207,-0.00180054,-0.188904,0.635895,-0.74823,-145.608,76.525,-16.4167,-11195,-28395
1938,64052,2.66055,-9.3502,1.10537,-82.8204,-16.5619,-165.635,0.244141,-1.09863,-0.183105,-0.00177002,-0.188934,0.635895,-0.74823,-145.592,76.525,-16.4167,-11195,-28395
1944,64058,2.72275,-9.26885,1.34463,-82.8204,-16.5619,-165.63,0.366211,-1.77002,-0.366211,-0.00177002,-0.188965,0.635895,-0.748199,-145.575,76.5167,-16.4417,-11195,-28395
1950,64064,2.72275,-9.16357,1.37813,-82.8204,-16.5674,-165.624,0,-0.671387,-0.793457,-0.00170898,-0.189026,0.635864,-0.748199,-145.558,76.5333,-16.4667,-11195,-28395
1956,64070,2.6127,-9.22578,1.36377,-82.8314,-16.5729,-165.619,-1.0376,-1.77002,-1.15967,-0.00170898,-0.189087,0.635864,-0.748199,-145.533,76.5417,-16.5583,-11195,-28395
1962,64076,3.04336,-9.36934,1.01924,-82.8424,-16.5839,-165.608,-1.28174,-0.305176,-0.549316,-0.00170898,-0.18927,0.635925,-0.748108,-145.517,76.5583,-16.625,-11195,-28395
1968,64082,2.84717,-9.46504,1.05273,-82.8534,-16.5894,-165.608,-1.52588,-0.366211,-0.793457,-0.0017395,-0.18927,0.635956,-0.748077,-145.5,76.5667,-16.6333,-11195,-28395
1974,64088,2.83281,-9.40762,1.14365,-82.8589,-16.5948,-165.597,-0.915527,-1.64795,-0.915527,-0.00177002,-0.189331,0.636017,-0.748016,-145.483,76.575,-16.625,-11195,-28395
1980,64094,2.91416,-9.25449,1.18672,-82.8644,-16.5948,-165.597,-1.0376,-0.549316,-0.549316,-0.00177002,-0.189392,0.636017,-0.747986,-145.483,76.5833,-16.6083,-11195,-28395
1986,64100,2.76104,-9.31191,1.27764,-82.8754,-16.6003,-165.597,-1.83105,-0.12207,-0.854492,-0.00177002,-0.189423,0.636047,-0.747955,-145.492,76.5833,-16.5667,-11195,-28395
1992,64106,2.8041,-9.39805,1.12451,-82.8918,-16.6113,-165.586,-1.46484,-0.915527,-0.976563,-0.00183105,-0.189484,0.636169,-0.747864,-145.492,76.5917,-16.5667,-11195,-28395
1998,64112,2.8041,-9.43633,1.07187,-82.8973,-16.6168,-165.586,-1.40381,-0.854492,-0.854492,-0.00183105,-0.189545,0.6362,-0.747803,-145.483,76.575,-16.5583,-11195,-28395
2004,64118,2.81367,-9.42676,1.05752,-82.9083,-16.6223,-165.575,-0.854492,-1.52588,-0.915527,-0.00186157,-0.189606,0.63623,-0.747742,-145.467,76.575,-16.5667,-11195,-28395
2010,64124,2.80889,-9.40762,1.08145,-82.9083,-16.6278,-165.569,-0.427246,-1.83105,-1.0376,-0.00186157,-0.189667,0.636261,-0.747711,-145.45,76.55,-16.575,-11195,-28395
2016,64130,2.81367,-9.36455,1.10537,-82.9138,-16.6333,-165.558,-0.305176,-1.70898,-0.915527,-0.00183105,-0.189758,0.636261,-0.747681,-145.467,76.5333,-16.5833,-11195,-28395
2022,64136,2.71318,-9.34062,1.18672,-82.9248,-16.6443,-165.542,-0.732422,-1.89209,-0.976563,-0.00180054,-0.189911,0.636261,-0.74765,-145.492,76.525,-16.55,-11195,-28395
2028,64142,2.83281,-9.37412,1.13408,-82.9303,-16.6498,-165.536,-0.244141,-1.64795,-1.58691,-0.00180054,-0.190002,0.636292,-0.74762,-145.517,76.4917,-16.5,-11195,-28395
2034,64148,2.67969,-9.33105,1.18672,-82.9303,-16.6608,-165.526,-0.305176,-2.38037,-1.52588,-0.00180054,-0.190094,0.636292,-0.747589,-145.542,76.4667,-16.475,-11195,-28395
2040,64154,2.87109,-9.3167,1.20107,-82.9358,-16.6718,-165.515,-0.183105,-1.70898,-1.95313,-0.00180054,-0.190216,0.636292,-0.747559,-145.533,76.4417,-16.4333,-11195,-28395
2046,64160,2.79453,-9.35977,1.08145,-82.9413,-16.6827,-165.515,-0.488281,-1.2207,-1.64795,-0.00180054,-0.190338,0.636261,-0.747559,-145.525,76.425,-16.3667,-11195,-28395
2052,64166,2.69883,-9.42676,1.01445,-82.9413,-16.6992,-165.509,0.427246,-0.488281,-2.0752,-0.00189209,-0.19046,0.636261,-0.747498,-145.525,76.4333,-16.3167,-11195,-28395
2058,64172,2.75625,-9.36934,1.04795,-82.9358,-16.7102,-165.509,1.09863,-0.427246,-2.31934,-0.00192261,-0.190552,0.63623,-0.747528,-145.5,76.4417,-16.2667,-11195,-28395
2064,64178,2.65576,-9.30234,1.15322,-82.9303,-16.7212,-165.509,0.976563,-0.549316,-2.44141,-0.00198364,-0.190613,0.6362,-0.747528,-145.5,76.45,-16.2333,-11195,-28395
2070,64184,2.67969,-9.27842,1.30635,-82.9248,-16.7377,-165.504,1.2207,-1.89209,-2.74658,-0.00204468,-0.190704,0.636139,-0.747559,-145.5,76.4583,-16.2083,-11195,-28395
2076,64190,2.89023,-9.2832,1.15322,-82.9248,-16.7487,-165.493,1.09863,-1.70898,-2.80762,-0.0020752,-0.190826,0.636078,-0.747589,-145.525,76.4583,-16.2,-11195,-28395
2082,64196,2.85195,-9.44111,1.04316,-82.9193,-16.7816,-165.482,0.915527,-2.01416,-2.86865,-0.00213623,-0.191101,0.635986,-0.747589,-145.55,76.4583,-16.225,-11195,-28395
2088,64202,3.16777,-9.38369,0.947461,-82.9193,-16.7926,-165.471,1.2207,-1.52588,-2.2583,-0.00216675,-0.191223,0.635925,-0.747589,-145.567,76.4583,-16.2417,-11195,-28395
2094,64208,2.98594,-9.46504,0.913965,-82.9138,-16.8036,-165.476,1.09863,0.183105,-1.83105,-0.00219727,-0.191345,0.635895,-0.74762,-145.592,76.45,-16.2667,-11195,-28395
2100,64214,2.90937,-9.52246,1.03359,-82.9028,-16.8091,-165.471,2.19727,-1.40381,-1.52588,-0.00222778,-0.191376,0.635834,-0.74765,-145.617,76.4333,-16.2667,-11195,-28395
2106,64220,3.096,-9.3167,1.11016,-82.8918,-16.8146,-165.471,2.92969,-0.305176,-1.58691,-0.00222778,-0.191467,0.635773,-0.747681,-145.625,76.3917,-16.25,-11195,-28395
2112,64226,2.71318,-9.34541,1.27285,-82.8754,-16.8311,-165.465,1.83105,-0.488281,-1.40381,-0.0022583,-0.191559,0.63559,-0.747803,-145.625,76.3667,-16.2167,-11195,-28395
2118,64232,2.83281,-9.35498,1.27285,-82.8644,-16.8365,-165.46,2.13623,-1.40381,-1.52588,-0.00228882,-0.19162,0.635498,-0.747864,-145.625,76.35,-16.175,-11195,-28395
2124,64238,2.94287,-9.30234,1.1915,-82.8589,-16.8475,-165.46,1.70898,-0.549316,-1.58691,-0.00228882,-0.191711,0.635437,-0.747894,-145.617,76.3417,-16.125,-11195,-28395
2130,64244,2.91416,-9.33105,1.23936,-82.8534,-16.853,-165.46,1.15967,-0.12207,-1.52588,-0.00228882,-0.191772,0.635376,-0.747955,-145.617,76.325,-16.0833,-11203,-28394
2136,64250,2.8041,-9.42197,1.13887,-82.8479,-16.8585,-165.46,1.15967,-0.12207,-0.976563,-0.00234985,-0.191803,0.635315,-0.747955,-145.608,76.2833,-16.0917,-11203,-28394
2142,64256,2.93809,-9.29756,1.11016,-82.8369,-16.8695,-165.465,1.0376,1.0376,-0.976563,-0.00238037,-0.191864,0.635223,-0.748016,-145.617,76.2667,-16.1333,-11203,-28394
2148,64262,2.69404,-9.37412,1.21543,-82.8314,-16.875,-165.46,0.732422,-0.427246,-0.976563,-0.00241089,-0.191864,0.635193,-0.748047,-145.617,76.275,-16.1917,-11203,-28394
2154,64268,3.03379,-9.31191,1.21064,-82.8259,-16.8805,-165.46,1.28174,-0.427246,-1.2207,-0.00244141,-0.191925,0.635162,-0.748077,-145.625,76.2917,-16.25,-11203,-28394
2160,64274,2.83281,-9.24492,1.11016,-82.8259,-16.886,-165.465,0.366211,0.549316,-1.0376,-0.00244141,-0.191956,0.635132,-0.748108,-145.625,76.3,-16.275,-11203,-28394
