TimeSinceCollection,Timestamp,AccX,AccY,AccZ,AngleRoll,AnglePitch,AngleYaw,AngularVelX,AngularVelY,AngularVelZ,Q1,Q2,Q3,Q4,MagX,MagY,MagZ,Height,Airpressure
0,98640,4.59854,-8.71855,0.665137,-85.0452,-27.301,-22.6593,1.52588,0.244141,1.2207,0.670837,-0.678131,-0.0415344,-0.297119,-18354,10996,-3708,949,-29861
6,98646,4.59375,-8.64678,0.75127,-85.0342,-27.2955,-22.6263,1.28174,0.0610352,1.77002,0.67099,-0.67807,-0.041687,-0.296906,-18356,10996,-3711,949,-29861
12,98652,4.56025,-8.65156,0.832617,-85.0287,-27.29,-22.5989,0.671387,0.183105,1.83105,0.671112,-0.678009,-0.0418396,-0.296692,-18356,10996,-3713,949,-29861
18,98658,4.51719,-8.76162,0.818262,-85.0177,-27.2736,-22.5385,0.854492,0.12207,1.64795,0.671234,-0.677979,-0.0419617,-0.296448,-18354,10997,-3713,949,-29861
24,98664,4.59854,-8.68506,0.808691,-85.0177,-27.2681,-22.5055,0.488281,0.854492,1.70898,0.671509,-0.677917,-0.0422668,-0.296021,-18353,10997,-3711,949,-29861
30,98670,4.46934,-8.67549,0.818262,-85.0122,-27.2571,-22.478,0.427246,0.793457,1.52588,0.6716,-0.677887,-0.0423889,-0.295807,-18352,10998,-3712,949,-29861
36,98676,4.4502,-8.65635,0.846973,-85.0067,-27.2516,-22.4506,0.183105,0.488281,1.89209,0.671722,-0.677856,-0.042511,-0.295624,-18351,11001,-3714,949,-29861
42,98682,4.47412,-8.69463,0.866113,-85.0067,-27.2406,-22.4231,0.0610352,0.732422,1.2207,0.671844,-0.677826,-0.0426025,-0.29541,-18349,11003,-3720,949,-29861
48,98688,4.41191,-8.73291,0.803906,-84.9957,-27.2296,-22.3682,0.610352,0.610352,1.15967,0.671936,-0.677795,-0.0427551,-0.295227,-18345,11006,-3727,949,-29861
54,98694,4.5459,-8.68506,0.846973,-84.9957,-27.2296,-22.3407,-0.244141,0.244141,1.15967,0.67215,-0.677765,-0.0430298,-0.29483,-18343,11008,-3728,949,-29861
60,98700,4.54111,-8.75684,0.732129,-84.9957,-27.2241,-22.3132,-0.0610352,0.183105,1.28174,0.672211,-0.677734,-0.0431824,-0.294617,-18341,11011,-3733,949,-29861
66,98706,4.56504,-8.78555,0.712988,-84.9957,-27.2186,-22.2803,0.488281,0.488281,1.0376,0.672302,-0.677734,-0.0433044,-0.294434,-18340,11014,-3734,949,-29861
72,98712,4.51719,-8.69941,0.765625,-84.9957,-27.2131,-22.2528,0.488281,0.793457,0.976563,0.672424,-0.677704,-0.043457,-0.29425,-18336,11018,-3734,949,-29861
78,98718,4.46455,-8.71377,0.856543,-84.9847,-27.2021,-22.2034,0.244141,1.0376,1.34277,0.672516,-0.677673,-0.0435791,-0.294067,-18334,11021,-3735,949,-29861
84,98724,4.45977,-8.72334,0.756055,-84.9792,-27.1967,-22.1759,0.732422,0.0610352,0.793457,0.672729,-0.677612,-0.0438538,-0.293701,-18335,11022,-3732,949,-29861
90,98730,4.50283,-8.69941,0.789551,-84.9738,-27.1967,-22.1484,0.488281,0.183105,0.671387,0.672821,-0.677551,-0.0440063,-0.293518,-18336,11022,-3731,949,-29861
96,98736,4.5124,-8.73291,0.77998,-84.9738,-27.1912,-22.121,0.488281,0.488281,0.549316,0.672943,-0.677521,-0.0441589,-0.293335,-18337,11022,-3732,949,-29861
102,98742,4.52676,-8.72334,0.808691,-84.9683,-27.1912,-22.0935,0.732422,0.244141,0.671387,0.673035,-0.67749,-0.0443115,-0.293152,-18338,11021,-3729,949,-29861
108,98748,4.47412,-8.67549,0.827832,-84.9628,-27.1857,-22.0386,0.610352,0.488281,0.488281,0.673248,-0.677429,-0.0446167,-0.292816,-18339,11018,-3724,949,-29861
114,98754,4.40713,-8.7042,0.837402,-84.9573,-27.1857,-22.0166,0.244141,0.488281,0.12207,0.67334,-0.677399,-0.0447998,-0.292664,-18340,11016,-3724,949,-29861
120,98760,4.42148,-8.69941,0.837402,-84.9518,-27.1857,-21.9891,0.488281,0.0610352,-0.183105,0.673401,-0.677368,-0.0449524,-0.292511,-18342,11013,-3723,949,-29861
126,98766,4.45498,-8.68984,0.846973,-84.9518,-27.1857,-21.9617,0.427246,0,0,0.673492,-0.677338,-0.0451355,-0.292358,-18343,11011,-3724,949,-29861
132,98772,4.49805,-8.69463,0.832617,-84.9463,-27.1857,-21.9342,0.244141,-0.244141,-0.305176,0.673584,-0.677307,-0.0453186,-0.292175,-18344,11010,-3722,949,-29861
138,98778,4.52676,-8.68506,0.827832,-84.9463,-27.1857,-21.8738,0.305176,0,-0.244141,0.673737,-0.677277,-0.0456848,-0.29187,-18344,11012,-3716,949,-29861
144,98784,4.5124,-8.72813,0.77041,-84.9408,-27.1912,-21.8463,0.366211,0,-0.183105,0.673828,-0.677246,-0.0458679,-0.291687,-18339,11015,-3714,949,-29861
150,98790,4.54111,-8.7377,0.818262,-84.9408,-27.1912,-21.8188,0.366211,0.12207,-0.366211,0.67392,-0.677216,-0.046051,-0.291534,-18336,11019,-3713,949,-29861
156,98796,4.56504,-8.74248,0.784766,-84.9353,-27.1912,-21.7914,0.305176,0,-0.305176,0.673981,-0.677185,-0.0462341,-0.291382,-18334,11022,-3712,949,-29861
162,98802,4.59854,-8.74248,0.794336,-84.9353,-27.1967,-21.7639,0.183105,-0.183105,-0.244141,0.674072,-0.677155,-0.0464172,-0.291229,-18331,11025,-3715,949,-29861
168,98808,4.58896,-8.72334,0.756055,-84.9298,-27.1967,-21.709,0.244141,0.183105,0.0610352,0.674225,-0.677124,-0.0467529,-0.290924,-18334,11028,-3725,949,-29861
174,98814,4.47891,-8.65635,0.746484,-84.9243,-27.1967,-21.6815,0.610352,0.427246,0.12207,0.674316,-0.677094,-0.046936,-0.290771,-18335,11029,-3731,949,-29861
180,98820,4.50762,-8.66592,0.890039,-84.9243,-27.1967,-21.6541,0.12207,0.366211,-0.183105,0.674408,-0.677032,-0.0470886,-0.290619,-18339,11033,-3732,949,-29861
186,98826,4.43105,-8.68027,0.875684,-84.9188,-27.1967,-21.6321,0.12207,0.305176,-0.366211,0.674469,-0.677032,-0.0472412,-0.290466,-18341,11035,-3731,949,-29861
192,98832,4.42148,-8.71855,0.803906,-84.9188,-27.2021,-21.6046,0.12207,0,-0.366211,0.674561,-0.677002,-0.0474243,-0.290314,-18345,11038,-3735,949,-29861
198,98838,4.49805,-8.69941,0.885254,-84.9133,-27.2021,-21.5497,0,0.244141,-0.549316,0.674683,-0.676971,-0.04776,-0.290039,-18349,11042,-3734,949,-29861
204,98844,4.45498,-8.73291,0.789551,-84.9133,-27.2076,-21.5277,-0.12207,-0.12207,-0.610352,0.674744,-0.676941,-0.0479431,-0.289886,-18348,11043,-3840,949,-29861
210,98850,4.50283,-8.74727,0.832617,-84.9133,-27.2131,-21.5002,0.12207,-0.0610352,-0.305176,0.674805,-0.676941,-0.0481262,-0.289764,-18344,11043,-3735,949,-29861
216,98856,4.44541,-8.7042,0.756055,-84.9133,-27.2131,-21.4728,0.244141,0,-0.854492,0.674896,-0.67691,-0.0483093,-0.289612,-18340,11041,-3737,949,-29861
222,98862,4.47412,-8.73291,0.842188,-84.9133,-27.2186,-21.4453,0.366211,-0.0610352,-1.0376,0.674957,-0.67688,-0.0484924,-0.289459,-18337,11040,-3743,949,-29861
228,98868,4.50762,-8.70898,0.77998,-84.9078,-27.2296,-21.3904,0.244141,-0.427246,-0.976563,0.675079,-0.676849,-0.0488892,-0.289185,-18337,11031,-3751,949,-29861
234,98874,4.55547,-8.69941,0.77041,-84.9023,-27.2351,-21.3629,0.671387,0,-1.28174,0.675171,-0.676819,-0.0491028,-0.289063,-18341,11028,-3751,949,-29861
240,98880,4.52676,-8.72813,0.75127,-84.9023,-27.2406,-21.3354,0.549316,-0.183105,-1.2207,0.675232,-0.676788,-0.0493164,-0.28894,-18344,11028,-3753,949,-29861
246,98886,4.56025,-8.72334,0.799121,-84.8969,-27.2461,-21.308,0.732422,-0.183105,-1.2207,0.675293,-0.676758,-0.0494995,-0.288818,-18346,11030,-3757,949,-29861
252,98892,4.60332,-8.7377,0.794336,-84.8914,-27.2516,-21.2805,0.854492,-0.488281,-1.0376,0.675385,-0.676697,-0.0497131,-0.288696,-18347,11032,-3758,949,-29861
258,98898,4.56982,-8.73291,0.741699,-84.8859,-27.2626,-21.2256,0.976563,-0.183105,-0.854492,0.675537,-0.676636,-0.0501404,-0.288391,-18350,11038,-3768,949,-29861
264,98904,4.58418,-8.73291,0.741699,-84.8804,-27.2626,-21.1981,1.15967,-0.183105,-0.915527,0.675629,-0.676605,-0.0503235,-0.288269,-18349,11037,-3767,949,-29861
270,98910,4.57461,-8.75684,0.75127,-84.8749,-27.2681,-21.1707,1.28174,-0.12207,-0.610352,0.67572,-0.676544,-0.0505371,-0.288116,-18347,11035,-3768,949,-29861
276,98916,4.58896,-8.7377,0.827832,-84.8694,-27.2736,-21.1432,1.15967,-0.0610352,-0.610352,0.675812,-0.676483,-0.0507202,-0.287994,-18344,11032,-3765,949,-29861
282,98922,4.5124,-8.70898,0.861328,-84.8639,-27.2791,-21.1212,1.46484,0.12207,-0.427246,0.675903,-0.676453,-0.0509033,-0.287842,-18342,11027,-3760,949,-29861
288,98928,4.5124,-8.65156,0.923535,-84.8474,-27.2845,-21.0663,1.28174,-0.305176,-0.793457,0.676117,-0.676331,-0.0513,-0.287567,-18343,11023,-3757,949,-29861
294,98934,4.58896,-8.69941,0.808691,-84.8474,-27.2845,-21.0388,0.793457,-0.671387,-0.915527,0.676208,-0.6763,-0.0514832,-0.287415,-18347,11022,-3755,949,-29861
300,98940,4.60332,-8.72813,0.775195,-84.8419,-27.29,-21.0059,0.732422,-0.732422,-0.427246,0.67627,-0.67627,-0.0516968,-0.287262,-18348,11020,-3755,949,-29861
306,98946,4.59375,-8.78555,0.765625,-84.8419,-27.2955,-20.9784,0.793457,-0.366211,-0.427246,0.676361,-0.676239,-0.0519104,-0.287109,-18350,11019,-3754,949,-29861
312,98952,4.59854,-8.77119,0.784766,-84.8364,-27.2955,-20.9509,0.854492,-0.488281,-0.549316,0.676422,-0.676208,-0.0520935,-0.286957,-18349,11015,-3747,949,-29861
318,98958,4.69424,-8.78076,0.717773,-84.8309,-27.301,-20.8905,0.976563,-0.854492,-0.244141,0.676605,-0.676147,-0.0524902,-0.286621,-18349,11011,-3739,949,-29861
324,98964,4.6751,-8.76641,0.76084,-84.8254,-27.301,-20.863,1.52588,-0.427246,0.732422,0.676697,-0.676117,-0.0526733,-0.286438,-18352,11010,-3738,949,-29861
330,98970,4.6416,-8.7377,0.794336,-84.8199,-27.2955,-20.8356,1.34277,-0.671387,0.488281,0.676819,-0.676056,-0.0528259,-0.286255,-18355,11009,-3743,949,-29861
336,98976,4.62725,-8.72334,0.799121,-84.8145,-27.2955,-20.8081,1.28174,-0.854492,0.915527,0.67691,-0.676025,-0.053009,-0.286072,-18355,11010,-3754,949,-29861
342,98982,4.57461,-8.71377,0.842188,-84.809,-27.29,-20.7751,1.2207,-0.366211,1.0376,0.677032,-0.675995,-0.0531616,-0.285889,-18354,11010,-3760,949,-29861
348,98988,4.51719,-8.68984,0.803906,-84.8035,-27.2845,-20.7202,0.976563,-0.549316,0.915527,0.677246,-0.675903,-0.0534668,-0.285492,-18347,11009,-3771,949,-29861
354,98994,4.56025,-8.68506,0.799121,-84.798,-27.2791,-20.6927,0.915527,-0.488281,1.0376,0.677338,-0.675873,-0.0536194,-0.285309,-18344,11008,-3769,949,-29861
360,99000,4.58896,-8.70898,0.827832,-84.798,-27.2791,-20.6653,0.732422,-0.610352,0.854492,0.677429,-0.675842,-0.053772,-0.285126,-18345,11007,-3767,949,-29861
366,99006,4.62725,-8.6707,0.890039,-84.7925,-27.2736,-20.6323,0.549316,0.0610352,0.976563,0.677521,-0.675812,-0.0539246,-0.284943,-18345,11006,-3766,949,-29861
372,99012,4.55547,-8.69941,0.813477,-84.7925,-27.2681,-20.6104,-0.12207,-0.488281,0.976563,0.677612,-0.675781,-0.0540466,-0.28476,-18344,11004,-3765,949,-29861
378,99018,4.61768,-8.87168,0.674707,-84.7925,-27.2571,-20.5554,0,-0.366211,1.52588,0.677765,-0.675781,-0.0542908,-0.284393,-18337,10996,-3768,949,-29861
384,99024,4.61768,-8.80469,0.698633,-84.7925,-27.2516,-20.528,0.854492,0,1.40381,0.677856,-0.675781,-0.0544128,-0.28418,-18332,10993,-3768,949,-29861
390,99030,4.6416,-8.78555,0.784766,-84.787,-27.2461,-20.5005,0.915527,-0.183105,1.77002,0.677979,-0.67572,-0.0545349,-0.283997,-18327,10991,-3771,949,-29861
396,99036,4.70859,-8.7999,0.77998,-84.7815,-27.2406,-20.473,1.0376,-0.549316,1.89209,0.67807,-0.67569,-0.054657,-0.283813,-18320,10990,-3775,949,-29861
402,99042,4.69902,-8.77119,0.703418,-84.776,-27.2186,-20.4181,0.976563,-0.488281,2.31934,0.678192,-0.675659,-0.0547791,-0.2836,-18318,10991,-3775,949,-29861
408,99048,4.62725,-8.78555,0.703418,-84.776,-27.2076,-20.3906,1.64795,-0.244141,2.86865,0.678406,-0.675598,-0.0549927,-0.283142,-18319,10994,-3783,949,-29861
414,99054,4.57939,-8.73291,0.756055,-84.765,-27.1967,-20.3632,1.83105,0,2.92969,0.678558,-0.675568,-0.0550842,-0.282928,-18323,10996,-3782,949,-29861
420,99060,4.54111,-8.71855,0.904395,-84.7595,-27.1857,-20.3412,1.89209,0.12207,2.38037,0.67868,-0.675507,-0.0551453,-0.282684,-18325,10998,-3781,949,-29861
426,99066,4.48369,-8.62764,1.02881,-84.7485,-27.1747,-20.3137,1.77002,0.0610352,2.62451,0.678833,-0.675446,-0.0552673,-0.282501,-18329,11001,-3779,949,-29861
432,99072,4.45977,-8.59893,0.961816,-84.7375,-27.1472,-20.2643,0.854492,0.0610352,2.86865,0.678955,-0.675385,-0.0553589,-0.282288,-18332,11002,-3775,949,-29861
438,99078,4.54111,-8.64199,0.92832,-84.7375,-27.1362,-20.2423,0.183105,0.244141,2.74658,0.679199,-0.675323,-0.0555115,-0.28183,-18338,10999,-3762,949,-29861
444,99084,4.62246,-8.66592,0.894824,-84.7375,-27.1252,-20.2148,-0.0610352,0.0610352,2.92969,0.679291,-0.675323,-0.0555725,-0.281647,-18339,10999,-3757,949,-29861
450,99090,4.75645,-8.72334,0.880469,-84.7375,-27.1088,-20.1929,-0.732422,0.12207,3.72314,0.679382,-0.675323,-0.0556335,-0.281433,-18339,11000,-3754,949,-29861
456,99096,4.7373,-8.73291,0.784766,-84.7375,-27.0923,-20.1654,-0.671387,0.549316,3.90625,0.679443,-0.675323,-0.0556335,-0.281189,-18340,11002,-3754,949,-29861
462,99102,4.74688,-8.77598,0.77998,-84.7485,-27.0538,-20.127,-1.0376,0.854492,4.27246,0.679535,-0.675323,-0.0556641,-0.280945,-18338,11004,-3757,949,-29861
468,99108,4.54111,-8.71855,0.913965,-84.7485,-27.0319,-20.105,-1.46484,1.46484,4.63867,0.679688,-0.675354,-0.055603,-0.280518,-18334,11011,-3757,949,-29861
474,99114,4.46455,-8.6707,0.957031,-84.754,-27.0099,-20.0885,-2.13623,1.0376,4.27246,0.679779,-0.675385,-0.055542,-0.280304,-18333,11013,-3752,949,-29861
480,99120,4.48369,-8.72334,0.894824,-84.7595,-26.9934,-20.072,-2.74658,0.671387,4.57764,0.67981,-0.675446,-0.0555115,-0.28009,-18331,11016,-3749,949,-29861
486,99126,4.56025,-8.80947,0.885254,-84.776,-26.9714,-20.05,-2.86865,0.366211,4.45557,0.67984,-0.675507,-0.055481,-0.279846,-18330,11018,-3750,949,-29861
492,99132,4.58896,-8.86211,0.832617,-84.798,-26.9275,-20.0061,-2.2583,0.427246,4.57764,0.679871,-0.675568,-0.0554504,-0.279602,-18330,11019,-3750,949,-29861
498,99138,4.74209,-9.1875,0.626855,-84.809,-26.9055,-19.9786,-0.366211,0.549316,5.12695,0.679993,-0.67569,-0.0553894,-0.279083,-18331,11019,-3749,949,-29861
504,99144,4.59375,-8.9626,0.435449,-84.809,-26.8835,-19.9567,0.610352,0.305176,5.37109,0.680084,-0.67569,-0.0553589,-0.278839,-18332,11020,-3746,949,-29861
510,99150,4.62246,-9.01045,0.636426,-84.8035,-26.8561,-19.9347,0.854492,0.244141,5.7373,0.680237,-0.675659,-0.0553589,-0.278564,-18333,11022,-3749,949,-29861
516,99156,4.58896,-9.05352,0.727344,-84.8035,-26.8286,-19.9072,2.0752,-0.244141,6.10352,0.680359,-0.675629,-0.0553284,-0.278259,-18331,11025,-3752,949,-29861
522,99162,4.68945,-9.0918,0.598145,-84.7815,-26.7737,-19.8468,3.2959,-1.34277,6.71387,0.680542,-0.675598,-0.0553284,-0.277954,-18326,11029,-3755,949,-29861
528,99168,4.95264,-9.221,0.440234,-84.765,-26.7407,-19.8138,5.37109,-1.70898,8.05664,0.68103,-0.675415,-0.0553894,-0.277191,-18317,11036,-3753,949,-29861
534,99174,5.04834,-9.20186,0.339746,-84.7485,-26.7023,-19.7754,7.32422,-1.77002,9.33838,0.681335,-0.675293,-0.0554199,-0.276764,-18313,11039,-3748,949,-29861
540,99180,5.13447,-9.22578,0.105273,-84.7211,-26.6583,-19.7424,8.78906,-2.0752,10.7422,0.681702,-0.67511,-0.0554199,-0.276306,-18307,11041,-3741,949,-29861
546,99186,5.33066,-9.40762,0.210547,-84.6826,-26.6089,-19.6985,10.0708,-2.2583,11.8408,0.682098,-0.674896,-0.0554199,-0.275787,-18302,11045,-3737,949,-29861
552,99192,5.4168,-9.44111,0.320605,-84.5947,-26.4935,-19.6216,12.6343,-1.83105,13.3667,0.682556,-0.674652,-0.0554199,-0.275238,-18293,11053,-3740,949,-29861
558,99198,4.78516,-9.23057,0.401953,-84.5288,-26.4276,-19.5886,14.9536,-0.0610352,15.7471,0.683716,-0.673981,-0.0552673,-0.274078,-18290,11057,-3745,949,-29861
564,99204,5.23496,-9.15879,1.27285,-84.4629,-26.3507,-19.5612,13.4277,-2.19727,17.8223,0.684357,-0.673584,-0.0551453,-0.273468,-18288,11062,-3750,949,-29861
570,99210,5.00527,-9.03916,1.24893,-84.408,-26.2683,-19.5172,13.2446,-1.83105,19.8364,0.684998,-0.673248,-0.0549927,-0.272736,-18286,11066,-3750,949,-29861
576,99216,4.76602,-8.90518,1.13887,-84.3585,-26.1804,-19.4733,10.9863,-1.52588,21.0571,0.685608,-0.672943,-0.0547791,-0.271942,-18281,11070,-3754,949,-29861
582,99222,4.87129,-9.02481,1.36855,-84.2816,-25.9772,-19.3854,8.97217,-2.68555,22.583,0.686218,-0.672699,-0.0544739,-0.271149,-18273,11079,-3761,949,-29861
588,99228,5.25889,-9.18272,1.74658,-84.2596,-25.8618,-19.3359,5.61523,-2.50244,26.062,0.687256,-0.672363,-0.0538025,-0.269379,-18265,11087,-3763,949,-29861
594,99234,5.29238,-9.24492,1.69873,-84.2487,-25.741,-19.2865,4.39453,-1.52588,28.1982,0.687744,-0.672302,-0.0533447,-0.268433,-18255,11095,-3771,949,-29861
600,99240,5.29238,-9.21621,1.64131,-84.2322,-25.6091,-19.2426,3.96729,-0.427246,29.8462,0.688232,-0.672241,-0.0527954,-0.267456,-18246,11109,-3774,949,-29861
606,99246,5.04834,-9.11094,1.55518,-84.2212,-25.4718,-19.1986,2.92969,0.305176,31.0669,0.688751,-0.67218,-0.0521545,-0.266449,-18237,11123,-3777,949,-29861
612,99252,4.83779,-8.99609,1.58389,-84.2102,-25.1752,-19.1272,1.52588,0.366211,32.2876,0.689209,-0.672119,-0.0514526,-0.265442,-18221,11155,-3772,949,-29861
618,99258,4.87129,-9.04873,1.65566,-84.2157,-25.0159,-19.0887,-0.915527,-0.183105,34.3018,0.690094,-0.67218,-0.0498962,-0.263306,-18212,11168,-3770,949,-29861
624,99264,4.84258,-9.13965,1.54082,-84.2267,-24.8566,-19.0448,-3.17383,-0.12207,35.7056,0.690521,-0.672241,-0.0490723,-0.262207,-18200,11183,-3768,949,-29861
630,99270,4.83301,-9.24014,1.50732,-84.2487,-24.6918,-19.0063,-3.90625,-0.305176,37.4146,0.690857,-0.672394,-0.0482178,-0.261047,-18186,11198,-3771,949,-29861
636,99276,4.83779,-9.24492,1.18193,-84.2706,-24.516,-18.9624,-4.76074,0.0610352,38.0859,0.691223,-0.672546,-0.0472717,-0.259857,-18172,11213,-3775,949,-29861
642,99282,4.72773,-9.40283,1.10537,-84.3311,-24.1534,-18.88,-5.79834,0.12207,39.5508,0.691559,-0.672729,-0.0462952,-0.258667,-18138,11246,-3772,949,-29861
648,99288,4.72773,-9.54639,0.91875,-84.3695,-23.9612,-18.8361,-4.76074,-0.732422,41.1377,0.6922,-0.673187,-0.0442505,-0.256134,-18120,11264,-3770,949,-29861
654,99294,4.65596,-9.46982,0.789551,-84.397,-23.7689,-18.7866,-4.69971,-0.976563,42.3584,0.692566,-0.67337,-0.0432129,-0.254822,-18102,11282,-3766,949,-29861
660,99300,4.72773,-9.47939,0.885254,-84.4299,-23.5712,-18.7372,-5.31006,-1.52588,43.6401,0.692932,-0.673584,-0.0421753,-0.253448,-18083,11302,-3762,949,-29861
666,99306,4.81865,-9.55596,0.885254,-84.4629,-23.3679,-18.6877,-5.37109,-0.915527,45.4102,0.693298,-0.673798,-0.0410767,-0.252045,-18061,11322,-3758,949,-29861
672,99312,4.81387,-9.69473,0.756055,-84.5288,-22.9395,-18.5889,-5.43213,-0.366211,46.4478,0.693695,-0.674011,-0.0399475,-0.25061,-18017,11369,-3755,949,-29861
678,99318,4.78037,-9.80479,0.794336,-84.5618,-22.7142,-18.5449,-3.84521,-0.366211,49.5605,0.694458,-0.674438,-0.0375061,-0.24765,-17991,11393,-3753,949,-29861
684,99324,4.88086,-9.77607,0.846973,-84.5892,-22.4835,-18.4955,-4.21143,0.427246,50.8423,0.694916,-0.674622,-0.0362244,-0.246094,-17967,11416,-3753,949,-29861
690,99330,4.9957,-9.8335,0.636426,-84.6167,-22.2473,-18.4515,-5.18799,1.52588,52.1851,0.695374,-0.674774,-0.0349121,-0.244537,-17941,11440,-3746,949,-29861
696,99336,5.06748,-10.1493,0.660352,-84.6442,-22.0001,-18.4131,-5.18799,2.99072,54.3213,0.695801,-0.674988,-0.0334778,-0.24295,-17916,11466,-3742,949,-29861
702,99342,4.82822,-10.3024,0.46416,-84.6936,-21.4838,-18.3527,-3.479,3.66211,55.8472,0.696259,-0.67514,-0.0319824,-0.241364,-17890,11493,-3840,949,-29861
708,99348,4.75166,-10.0536,0.301465,-84.7046,-21.2146,-18.3252,-0.915527,4.94385,57.6172,0.697327,-0.675354,-0.0288391,-0.238098,-17836,11549,-3733,949,-29861
714,99354,4.58418,-9.93877,0.287109,-84.7046,-20.9454,-18.3032,0,6.34766,57.9834,0.697906,-0.675385,-0.0272217,-0.236481,-17806,11578,-3731,949,-29861
720,99360,4.39277,-9.99619,0.378027,-84.7046,-20.6708,-18.2867,0.610352,6.95801,57.6782,0.698517,-0.675385,-0.0255737,-0.234894,-17777,11607,-3734,949,-29861
726,99366,4.39277,-9.86699,0.411523,-84.6991,-20.4016,-18.2758,2.68555,7.44629,58.0444,0.699127,-0.675354,-0.0238953,-0.233307,-17745,11636,-3733,949,-29861
732,99372,4.35928,-9.58945,0.282324,-84.6552,-19.8578,-18.2648,3.96729,8.54492,57.7393,0.699799,-0.675232,-0.0222168,-0.23175,-17682,11699,-3721,949,-29861
738,99378,4.05303,-9.21621,0.60293,-84.6222,-19.5831,-18.2703,7.26318,10.0708,56.2744,0.701233,-0.674896,-0.0188599,-0.228729,-17650,11731,-3714,949,-29861
744,99384,4.40713,-8.32617,0.732129,-84.5782,-19.3195,-18.2758,10.1929,10.0098,52.7954,0.701996,-0.674622,-0.0172119,-0.227295,-17617,11766,-3710,949,-29861
750,99390,4.88564,-7.20645,0.483301,-84.5233,-19.0778,-18.2813,10.8643,11.4136,48.645,0.70282,-0.674255,-0.015686,-0.225983,-17582,11800,-3708,949,-29861
756,99396,5.35459,-6.71836,0.492871,-84.4574,-18.8525,-18.2977,9.94873,12.5122,43.0908,0.703613,-0.673859,-0.0142822,-0.224823,-17547,11835,-3705,949,-29861
762,99402,5.91445,-6.33555,0.526367,-84.3311,-18.49,-18.3527,9.64355,13.1836,37.3535,0.704315,-0.673462,-0.0130005,-0.223877,-17474,11907,-3697,949,-29861
768,99408,7.3835,-5.50293,0.535937,-84.2761,-18.3582,-18.3911,4.82178,15.564,27.3438,0.705444,-0.672699,-0.0108948,-0.222626,-17439,11943,-3695,949,-29861
774,99414,8.06299,-5.20625,0.497656,-84.2322,-18.2483,-18.4406,2.56348,18.1885,22.522,0.705841,-0.672424,-0.00997925,-0.222321,-17404,11977,-3696,949,-29861
780,99420,8.45537,-4.78516,0.358887,-84.1937,-18.1659,-18.5065,0.366211,22.3999,17.395,0.706085,-0.67218,-0.00912476,-0.22226,-17369,12008,-3698,949,-29861
786,99426,8.53193,-4.50762,0.282324,-84.1608,-18.111,-18.5944,-2.2583,25.9399,11.7798,0.706207,-0.671997,-0.00830078,-0.222504,-17339,12038,-3698,949,-29861
792,99432,8.21133,-4.18701,0.47373,-84.1003,-18.0945,-18.8416,-2.99072,28.9917,5.12695,0.706207,-0.671814,-0.00756836,-0.223053,-17279,12090,-3705,949,-29861
798,99438,6.6418,-3.22998,0.846973,-84.0839,-18.1549,-18.9844,-14.0991,23.5596,-13.9771,0.705841,-0.671539,-0.00650024,-0.225128,-17252,12112,-3706,949,-29861
804,99444,6.99111,-3.27783,0.311035,-84.1113,-18.2648,-19.0942,-19.5313,17.6392,-23.7427,0.7052,-0.671753,-0.00650024,-0.226471,-17229,12131,-3709,949,-29861
810,99450,7.23516,-3.68936,-0.133984,-84.1772,-18.4351,-19.1821,-22.1558,13.0005,-33.0811,0.704346,-0.67215,-0.00695801,-0.227936,-17209,12148,-3708,949,-29861
816,99456,7.50791,-4.07695,-0.177051,-84.2596,-18.6548,-19.2535,-21.8506,6.34766,-40.5273,0.703278,-0.672699,-0.00778198,-0.229584,-17195,12160,-3709,949,-29861
822,99462,7.87637,-4.30186,-0.0382813,-84.4409,-19.2096,-19.303,-20.5078,0.915527,-45.8374,0.702148,-0.673309,-0.00909424,-0.231262,-17175,12177,-3712,949,-29861
828,99468,7.85244,-4.5459,0.220117,-84.5343,-19.5337,-19.2865,-16.4795,-11.5356,-54.1382,0.699799,-0.6745,-0.0126953,-0.23465,-17175,12179,-3711,949,-29861
834,99474,7.68496,-4.63203,0.411523,-84.6277,-19.8743,-19.2371,-13.7939,-16.6626,-58.2886,0.698669,-0.675079,-0.0150146,-0.236267,-17178,12178,-3710,949,-29861
840,99480,7.52705,-4.75166,0.6125,-84.7156,-20.2478,-19.1602,-11.7798,-22.8271,-63.3545,0.69754,-0.675598,-0.0176697,-0.237854,-17185,12172,-3706,949,-29861
846,99486,7.65625,-4.98135,0.851758,-84.8035,-20.6433,-19.0558,-10.3149,-28.7476,-67.8711,0.696411,-0.676147,-0.0206604,-0.23941,-17194,12160,-3697,949,-29861
852,99492,7.83809,-5.31631,1.01445,-84.9847,-21.5167,-18.7537,-8.60596,-33.5083,-72.6929,0.694122,-0.677155,-0.0276489,-0.242432,-17219,12130,-3678,949,-29861
858,99498,8.14434,-6.01494,1.34941,-85.0726,-21.9891,-18.5724,-4.94385,-39.7339,-81.8481,0.692963,-0.677612,-0.0315552,-0.243988,-17238,12106,-3659,949,-29861
864,99504,8.31182,-6.37383,1.43555,-85.1605,-22.4835,-18.3801,-3.54004,-41.1987,-86.731,0.691803,-0.678009,-0.0357056,-0.245575,-17263,12081,-3636,949,-29861
870,99510,8.39316,-6.74707,1.4499,-85.2374,-23.0054,-18.1824,-2.0752,-41.1987,-91.4307,0.690643,-0.678345,-0.0400391,-0.247253,-17293,12050,-3610,949,-29861
876,99516,8.38359,-7.11553,1.36855,-85.3143,-23.5492,-17.9791,0,-40.3442,-96.6187,0.689453,-0.678619,-0.0445557,-0.249084,-17326,12014,-3576,949,-29861
882,99522,8.33096,-7.37871,1.28242,-85.4242,-24.7028,-17.6001,2.19727,-38.6353,-101.135,0.687073,-0.678833,-0.0539246,-0.253204,-17405,11934,-3506,949,-29861
888,99528,7.98164,-7.72803,1.20107,-85.4572,-25.307,-17.4243,4.02832,-34.2407,-107.605,0.685883,-0.678772,-0.0587463,-0.255493,-17451,11888,-3470,949,-29861
894,99534,7.62754,-8.02949,1.08145,-85.4901,-25.9167,-17.265,3.35693,-31.8604,-109.802,0.684662,-0.67865,-0.0635376,-0.257904,-17499,11835,-3436,949,-29861
900,99540,7.12988,-8.27354,0.712988,-85.5176,-26.5375,-17.1167,2.99072,-29.9072,-111.45,0.683411,-0.678497,-0.0682983,-0.260437,-17551,11777,-3402,949,-29861
906,99546,6.704,-8.5415,0.344531,-85.545,-27.1637,-16.9794,2.31934,-28.5645,-112.244,0.682098,-0.678314,-0.0730286,-0.263062,-17604,11714,-3369,949,-29861
912,99552,6.23506,-8.82383,0.15791,-85.611,-28.4106,-16.7212,1.83105,-27.771,-112.366,0.679352,-0.677887,-0.0823059,-0.268402,-17719,11575,-3296,949,-29861
918,99558,5.21104,-9.51768,-0.732129,-85.6494,-29.0259,-16.5948,0.671387,-27.4658,-109.009,0.677948,-0.677704,-0.086853,-0.271027,-17777,11504,-3263,949,-29861
924,99564,4.36406,-9.78564,-0.971387,-85.6934,-29.6191,-16.4685,1.58691,-28.5034,-106.628,0.676544,-0.67749,-0.0912781,-0.27356,-17837,11426,-3228,949,-29861
930,99570,3.6415,-9.86221,-1.10537,-85.7428,-30.2014,-16.3312,1.64795,-30.3345,-103.088,0.67514,-0.677307,-0.0956421,-0.27597,-17899,11344,-3189,949,-29861
936,99576,2.94766,-9.83828,-1.11973,-85.8032,-30.7617,-16.1829,1.0376,-32.3486,-99.2432,0.673798,-0.677155,-0.0999146,-0.278168,-17959,11258,-3146,949,-29861
942,99582,2.32559,-9.84307,-1.18672,-85.9625,-31.7999,-15.8423,-0.244141,-34.4238,-94.4824,0.671082,-0.677032,-0.108124,-0.281952,-18086,11079,-3056,949,-29861
948,99588,1.22979,-9.7043,-0.803906,-86.0724,-32.2778,-15.6445,-4.88281,-38.6963,-85.8154,0.669678,-0.677094,-0.11203,-0.283508,-18148,10993,-3014,949,-29861
954,99594,0.665137,-9.59424,-0.291895,-86.2097,-32.7338,-15.4303,-7.87354,-40.2222,-81.9092,0.668274,-0.677307,-0.115814,-0.284851,-18211,10904,-2971,949,-29861
960,99600,-0.00957031,-9.61816,0.425879,-86.369,-33.1567,-15.2051,-11.5967,-41.4429,-79.7729,0.666809,-0.677643,-0.119446,-0.286011,-18272,10811,-2927,949,-29861
966,99606,-0.957031,-9.81914,1.53125,-86.5558,-33.5687,-14.9689,-14.2212,-43.7622,-78.0029,0.665253,-0.678101,-0.122955,-0.287079,-18335,10717,-2883,949,-29861
972,99612,-2.01455,-10.2354,2.30645,-87.0007,-34.3433,-14.4305,-17.2729,-47.8516,-77.0264,0.661957,-0.679321,-0.129852,-0.288666,-18457,10521,-2792,949,-29861
978,99618,-2.78496,-12.6663,2.39258,-87.2754,-34.7223,-14.1119,-20.5688,-59.5093,-78.6743,0.660187,-0.680176,-0.133392,-0.289215,-18516,10423,-2745,949,-29861
984,99624,-2.10547,-14.0205,1.89971,-87.572,-35.0958,-13.7494,-14.2212,-61.4014,-79.5288,0.658356,-0.68103,-0.137115,-0.28952,-18571,10328,-2699,957,-29862
990,99630,-2.91895,-29.4766,2.98115,-87.8412,-35.4639,-13.3759,-3.84521,-59.2651,-79.7729,0.656738,-0.681732,-0.14093,-0.289734,-18623,10233,-2647,957,-29862
996,99636,-1.79922,-29.5914,2.38779,-88.0609,-35.8209,-13.0078,7.99561,-55.9692,-78.3081,0.655457,-0.682129,-0.144745,-0.289886,-18670,10136,-2591,957,-29862
1002,99642,-0.6125,-14.2406,0.842188,-88.2916,-36.4746,-12.3376,19.043,-51.0254,-74.8901,0.654114,-0.681763,-0.15213,-0.289948,-18766,9942,-2477,949,-29861
1008,99648,-1.18672,-12.5658,0.205762,-88.3136,-36.7603,-12.0465,31.8604,-42.2363,-65.918,0.653961,-0.681152,-0.155579,-0.289917,-18815,9844,-2421,949,-29861
1014,99654,-1.45947,-11.671,-0.215332,-88.3026,-37.0239,-11.7773,33.6914,-39.6118,-60.3027,0.654022,-0.680389,-0.158813,-0.289825,-18865,9745,-2362,949,-29861
1020,99660,-1.76572,-10.7379,-0.583789,-88.2751,-37.2546,-11.5247,32.6538,-36.6821,-52.7954,0.654236,-0.679565,-0.161774,-0.289581,-18911,9652,-2305,949,-29861
1026,99666,-1.88057,-9.90527,-0.555078,-88.2422,-37.4414,-11.2885,28.4424,-34.9731,-45.3491,0.654541,-0.678802,-0.164429,-0.289215,-18953,9558,-2250,949,-29861
1032,99672,-1.86143,-8.79512,-0.334961,-88.2532,-37.6886,-10.8325,21.3013,-33.6304,-36.499,0.654999,-0.677856,-0.16861,-0.288025,-19031,9376,-2151,949,-29861
1038,99678,13.719,-18.1932,1.94277,-88.3136,-37.7435,-10.6183,-14.4043,-80.5664,2.92969,0.65506,-0.677795,-0.170013,-0.28717,-19068,9290,-2105,949,-29861
1044,99684,16.0494,-25.0072,18.2362,-88.6981,-37.6556,-10.0909,-60.5469,-28.5034,97.168,0.654297,-0.679321,-0.171661,-0.284271,-19102,9209,-2058,949,-29861
1050,99690,-2.06719,-10.7427,-5.88096,-89.0991,-37.1008,-9.8877,57.5562,151.672,61.4624,0.653809,-0.682129,-0.168518,-0.280579,-19132,9135,-2013,949,-29861
1056,99696,-6.52217,-0.00478516,-10.4795,-88.2367,-36.6998,-10.8105,36.1938,63.1104,83.9233,0.657623,-0.679077,-0.16272,-0.28241,-19158,9067,-1970,949,-29861
1062,99702,10.1206,-6.56523,7.98164,-87.9071,-35.6396,-11.1456,-13.0615,2.31934,96.6187,0.661438,-0.679016,-0.15509,-0.277954,-19193,8956,-1909,949,-29861
1068,99708,3.15342,-8.78555,1.37813,-87.8302,-35.0629,-11.4148,-23.8037,59.6313,99.3652,0.662689,-0.679657,-0.150116,-0.276184,-19202,8914,-1889,949,-29861
1074,99714,3.73721,-15.5326,0.689063,-87.7423,-34.4916,-11.7389,-34.9731,26.001,98.7549,0.663788,-0.680267,-0.144897,-0.274811,-19209,8883,-1879,949,-29861
1080,99720,7.97686,-15.1785,1.84707,-87.8357,-33.9368,-11.8542,-0.976563,40.4053,86.6089,0.664337,-0.68158,-0.140564,-0.272491,-19213,8865,-1867,949,-29861
1086,99726,6.94326,-11.3791,0.933105,-87.7094,-33.4424,-12.0575,13.5498,72.0215,88.562,0.665802,-0.681641,-0.136597,-0.270782,-19215,8851,-1856,949,-29861
1092,99732,0.421094,-9.90527,6.24941,-87.1161,-32.4207,-12.8265,13.9771,70.8618,89.2944,0.669952,-0.680145,-0.127075,-0.26889,-19205,8853,-1855,949,-29861
1098,99738,0.698633,-9.221,6.21113,-86.9348,-31.9098,-12.9803,22.2778,3.17383,87.5244,0.671906,-0.679718,-0.123413,-0.266754,-19193,8863,-1864,949,-29861
1104,99744,1.48818,-9.90527,3.10078,-86.814,-31.4209,-12.9529,8.54492,-17.2729,82.2144,0.673859,-0.679443,-0.120819,-0.263763,-19179,8880,-1883,941,-29860
1110,99750,2.8041,-12.0921,0.0574219,-86.8195,-30.965,-12.8101,5.31006,-22.644,73.4863,0.675201,-0.679749,-0.118805,-0.260406,-19163,8902,-1901,941,-29860
1116,99756,4.06738,-13.6281,-2.01455,-86.8579,-30.553,-12.6398,3.54004,-6.7749,57.0679,0.6763,-0.680176,-0.117157,-0.257141,-19143,8927,-1916,941,-29860
1122,99762,3.60322,-12.0825,-2.33994,-86.8359,-30.0421,-12.7057,-13.2446,29.1748,25.4517,0.67746,-0.680573,-0.113586,-0.254669,-19101,8987,-1945,941,-29860
1128,99768,3.97168,-9.99141,-1.12451,-86.7261,-29.9213,-12.9034,13.1836,23.6816,11.1084,0.677948,-0.680206,-0.111938,-0.255066,-19079,9021,-1957,941,-29860
1134,99774,5.76133,-7.88115,-0.698633,-86.5942,-29.8169,-13.0188,11.4136,20.0195,14.2212,0.678741,-0.679626,-0.110901,-0.255005,-19057,9056,-1971,941,-29860
1140,99780,5.98145,-8.11563,0.90918,-86.4789,-29.696,-13.1067,7.50732,28.5645,17.5781,0.679474,-0.679138,-0.109863,-0.254791,-19035,9091,-1984,941,-29860
1146,99786,3.8377,-8.51279,2.06719,-86.3635,-29.5587,-13.2495,5.00488,33.5083,15.0146,0.680145,-0.67868,-0.108429,-0.254761,-19018,9123,-1996,941,-29860
1152,99792,3.61279,-7.87158,1.29199,-86.1823,-29.3335,-13.4857,3.35693,16.6626,12.207,0.681213,-0.678009,-0.105988,-0.254761,-18988,9179,-2023,941,-29860
1158,99798,4.63203,-8.99131,0.421094,-86.1768,-29.2291,-13.4747,-4.45557,4.82178,12.4512,0.681488,-0.67807,-0.105408,-0.254089,-18975,9201,-2034,941,-29860
1164,99804,4.56982,-9.29277,-0.172266,-86.1877,-29.1302,-13.4802,-2.86865,13.7939,10.8032,0.681641,-0.678192,-0.104736,-0.253601,-18965,9223,-2047,941,-29860
1170,99810,3.33525,-10.2307,0.31582,-86.1658,-29.0424,-13.5352,2.2583,13.3057,7.26318,0.681885,-0.678192,-0.103882,-0.253418,-18956,9244,-2060,941,-29860
1176,99816,4.14873,-8.84775,0.660352,-86.1163,-28.9655,-13.5901,8.91113,6.89697,6.7749,0.68219,-0.678009,-0.10321,-0.253296,-18946,9263,-2073,941,-29860
1182,99822,4.68467,-8.63721,0.478516,-86.001,-28.8446,-13.6395,6.16455,8.30078,4.82178,0.683075,-0.677429,-0.102417,-0.252747,-18924,9297,-2097,941,-29860
1188,99828,4.34492,-8.89082,0.397168,-85.946,-28.7842,-13.667,4.94385,9.70459,4.21143,0.683441,-0.677185,-0.10199,-0.252563,-18914,9314,-2114,941,-29860
1194,99834,4.14395,-8.97217,0.904395,-85.8966,-28.7347,-13.7054,6.7749,8.48389,2.92969,0.683777,-0.676971,-0.101563,-0.252441,-18904,9329,-2129,941,-29860
1200,99840,4.04346,-8.82383,1.1915,-85.8417,-28.6853,-13.7329,8.17871,7.08008,1.95313,0.684143,-0.676697,-0.101227,-0.252319,-18898,9344,-2140,941,-29860
1206,99846,3.85684,-8.46973,1.60303,-85.7263,-28.6194,-13.7659,7.8125,4.76074,0.12207,0.68454,-0.676361,-0.100983,-0.252197,-18897,9360,-2155,941,-29860
1212,99852,4.15352,-8.45059,1.77051,-85.6989,-28.6029,-13.7494,2.86865,-2.50244,-2.0752,0.68515,-0.675903,-0.100891,-0.251862,-18895,9385,-2176,941,-29860
1218,99858,4.39277,-8.51758,0.990527,-85.6879,-28.5919,-13.7219,1.46484,-4.02832,-2.68555,0.685303,-0.675812,-0.101013,-0.251587,-18894,9395,-2182,941,-29860
1224,99864,4.65117,-8.72813,1.02402,-85.6879,-28.5809,-13.6835,1.77002,-6.16455,-3.11279,0.685425,-0.675781,-0.101196,-0.251312,-18891,9404,-2183,941,-29860
1230,99870,4.66553,-8.56543,1.1293,-85.6879,-28.5809,-13.6285,2.19727,-5.67627,-3.60107,0.685516,-0.675781,-0.101471,-0.250977,-18887,9413,-2184,941,-29860
1236,99876,4.69902,-8.27354,1.09102,-85.7043,-28.5754,-13.5242,0.732422,-7.87354,-2.74658,0.685608,-0.67572,-0.101746,-0.250702,-18883,9421,-2187,941,-29860
1242,99882,4.95264,-8.56065,0.655566,-85.7318,-28.5754,-13.4528,-3.78418,-8.66699,-1.83105,0.685669,-0.675873,-0.102386,-0.249939,-18876,9436,-2199,941,-29860
1248,99888,5.0292,-8.79033,0.478516,-85.7703,-28.5699,-13.3868,-3.35693,-7.93457,-2.13623,0.685577,-0.676056,-0.102661,-0.249542,-18874,9443,-2202,941,-29860
1254,99894,5.10576,-8.79512,0.363672,-85.8032,-28.5645,-13.3264,-2.68555,-7.26318,-0.976563,0.685516,-0.676208,-0.102905,-0.249207,-18872,9452,-2206,941,-29860
1260,99900,5.17275,-8.64678,0.253613,-85.8362,-28.559,-13.2715,-3.23486,-6.53076,-0.366211,0.685486,-0.676331,-0.103149,-0.24884,-18871,9458,-2204,941,-29860
1266,99906,5.40244,-8.85254,0.339746,-85.8856,-28.5315,-13.1671,-2.19727,-5.49316,1.2207,0.685455,-0.676483,-0.103333,-0.248474,-18869,9462,-2203,941,-29860
1272,99912,5.0627,-8.93389,0.258398,-85.9021,-28.5095,-13.1342,-0.12207,-2.74658,3.23486,0.685486,-0.676636,-0.103485,-0.247833,-18866,9459,-2193,941,-29860
1278,99918,5.04834,-8.76641,0.502441,-85.9076,-28.4821,-13.1012,0.549316,-1.89209,3.23486,0.685577,-0.676666,-0.103516,-0.247498,-18864,9457,-2191,941,-29860
1284,99924,5.01963,-8.70898,0.421094,-85.9076,-28.4601,-13.0737,0.183105,-1.09863,4.39453,0.685699,-0.676697,-0.103516,-0.247162,-18863,9455,-2189,941,-29860
1290,99930,5.22061,-8.71855,0.468945,-85.9131,-28.4271,-13.0463,0.305176,-1.0376,5.06592,0.685822,-0.676697,-0.103455,-0.246857,-18861,9456,-2188,941,-29860
1296,99936,5.20625,-8.51279,0.478516,-85.9131,-28.3557,-13.0023,0.488281,-0.610352,6.28662,0.685913,-0.676697,-0.103394,-0.246521,-18858,9455,-2189,941,-29860
1302,99942,4.91436,-8.83818,0.267969,-85.9186,-28.3118,-12.9803,-0.732422,-0.183105,7.50732,0.686157,-0.676758,-0.103119,-0.245819,-18853,9456,-2188,941,-29860
1308,99948,4.72773,-8.97695,0.378027,-85.9241,-28.2678,-12.9584,-0.0610352,0.244141,7.56836,0.686279,-0.676788,-0.102966,-0.245453,-18850,9457,-2184,941,-29860
1314,99954,4.44541,-8.91475,0.60293,-85.9241,-28.2239,-12.9419,1.70898,-0.305176,6.7749,0.686401,-0.676819,-0.102783,-0.245117,-18845,9460,-2179,941,-29860
1320,99960,4.58896,-8.6707,0.77041,-85.9186,-28.1854,-12.9199,1.95313,-1.28174,6.5918,0.686584,-0.676788,-0.102661,-0.244751,-18842,9463,-2175,941,-29860
1326,99966,4.60332,-8.52236,0.679492,-85.9131,-28.114,-12.8705,0.915527,-0.854492,6.22559,0.686737,-0.676758,-0.1026,-0.244385,-18839,9468,-2175,941,-29860
1332,99972,4.58896,-8.8334,0.741699,-85.9131,-28.0756,-12.8485,1.58691,-0.183105,5.43213,0.686981,-0.676788,-0.102448,-0.243713,-18836,9482,-2181,941,-29860
1338,99978,4.43105,-8.63242,0.631641,-85.9076,-28.0481,-12.8265,2.13623,0,4.5166,0.687134,-0.676758,-0.102356,-0.243408,-18831,9488,-2189,941,-29860
1344,99984,4.56025,-8.61328,0.732129,-85.8966,-28.0206,-12.8101,2.31934,-0.488281,4.21143,0.687286,-0.676697,-0.102325,-0.243164,-18826,9492,-2198,941,-29860
1350,99990,4.49326,-8.42188,0.966602,-85.8856,-27.9932,-12.7881,1.95313,-0.915527,3.96729,0.687439,-0.676636,-0.102295,-0.242889,-18819,9493,-2201,941,-29860
1356,99996,4.59854,-8.44102,0.765625,-85.8801,-27.9492,-12.7441,0.732422,-1.34277,3.78418,0.687592,-0.676605,-0.102295,-0.242615,-18810,9497,-2203,941,-29860
1362,100002,4.71338,-8.6707,0.6125,-85.8856,-27.9272,-12.7167,0.427246,-1.83105,3.90625,0.687775,-0.676605,-0.102325,-0.242035,-18807,9501,-2202,941,-29860
1368,100008,4.66553,-8.63721,0.655566,-85.8856,-27.9053,-12.6837,0.854492,-2.0752,4.15039,0.687866,-0.676605,-0.102356,-0.24176,-18805,9506,-2199,941,-29860
1374,100014,4.63203,-8.60371,0.803906,-85.8856,-27.8833,-12.6563,0.793457,-2.80762,4.3335,0.687988,-0.676605,-0.102386,-0.241455,-18803,9511,-2196,941,-29860
1380,100020,4.72773,-8.60371,0.631641,-85.8911,-27.8613,-12.6233,0.671387,-2.68555,4.3335,0.68808,-0.676605,-0.102417,-0.24115,-18802,9517,-2192,941,-29860
1386,100026,4.8043,-8.66592,0.593359,-85.8966,-27.8119,-12.5629,0.976563,-2.31934,4.57764,0.688171,-0.676636,-0.102448,-0.240814,-18800,9526,-2183,941,-29860
1392,100032,5.01484,-8.71855,0.311035,-85.8966,-27.7844,-12.5244,2.13623,-2.68555,5.67627,0.688416,-0.676605,-0.102539,-0.240143,-18801,9531,-2181,941,-29860
1398,100038,4.93828,-8.81426,0.267969,-85.8911,-27.757,-12.4915,2.68555,-1.83105,6.22559,0.688538,-0.676575,-0.102539,-0.239807,-18801,9534,-2182,941,-29860
1404,100044,4.88086,-8.74727,0.401953,-85.8856,-27.7295,-12.464,3.54004,-1.46484,6.89697,0.688721,-0.676544,-0.102539,-0.239441,-18801,9538,-2186,941,-29860
1410,100050,4.88086,-8.66113,0.488086,-85.8746,-27.691,-12.442,3.479,0,7.62939,0.688934,-0.676453,-0.102509,-0.239075,-18800,9541,-2187,941,-29860
1416,100056,4.55547,-8.64199,0.645996,-85.8417,-27.6141,-12.4036,3.17383,-0.244141,7.75146,0.689148,-0.676392,-0.102386,-0.238739,-18796,9550,-2195,941,-29860
1422,100062,4.57461,-8.7377,0.593359,-85.8417,-27.5757,-12.3761,1.89209,0,7.87354,0.689514,-0.6763,-0.102234,-0.238007,-18792,9556,-2195,941,-29860
1428,100068,4.49326,-8.8334,0.535937,-85.8307,-27.5372,-12.3541,2.99072,-1.46484,7.62939,0.689667,-0.676239,-0.102112,-0.237671,-18791,9564,-2194,941,-29860
1434,100074,4.5124,-8.77119,0.679492,-85.8197,-27.4988,-12.3322,3.66211,-1.95313,7.32422,0.68985,-0.676208,-0.102051,-0.237305,-18786,9572,-2189,941,-29860
1440,100080,4.5124,-8.59414,0.741699,-85.8087,-27.4658,-12.2992,3.90625,-1.46484,7.32422,0.690063,-0.676147,-0.10202,-0.236938,-18782,9579,-2180,941,-29860
1446,100086,4.42627,-8.58457,0.732129,-85.7867,-27.3944,-12.2498,2.44141,-1.09863,7.01904,0.690277,-0.676056,-0.101959,-0.236572,-18774,9587,-2175,941,-29860
1452,100092,4.53633,-8.69941,0.579004,-85.7813,-27.3615,-12.2168,2.80762,-2.74658,6.53076,0.690613,-0.675964,-0.101898,-0.23584,-18770,9591,-2172,941,-29860
1458,100098,4.61768,-8.72813,0.60293,-85.7758,-27.334,-12.1838,2.86865,-2.31934,6.65283,0.690765,-0.675934,-0.101929,-0.235474,-18769,9593,-2173,941,-29860
1464,100104,4.53633,-8.68506,0.693848,-85.7703,-27.301,-12.1564,2.38037,-1.34277,6.5918,0.690948,-0.675873,-0.101898,-0.235107,-18765,9598,-2177,941,-29860
1470,100110,4.58896,-8.71377,0.689063,-85.7648,-27.2681,-12.1289,2.50244,-1.15967,6.65283,0.691101,-0.675842,-0.101868,-0.234772,-18761,9603,-2176,941,-29860
1476,100116,4.5459,-8.69463,0.593359,-85.7483,-27.2076,-12.085,2.0752,-1.2207,6.53076,0.691284,-0.675781,-0.101837,-0.234436,-18756,9615,-2186,941,-29860
1482,100122,4.63203,-8.7377,0.45459,-85.7428,-27.1747,-12.0575,1.89209,-1.0376,6.46973,0.691589,-0.67572,-0.101746,-0.233795,-18755,9621,-2191,941,-29860
1488,100128,4.67031,-8.86211,0.526367,-85.7373,-27.1472,-12.0355,2.19727,-0.488281,6.53076,0.691711,-0.67569,-0.101685,-0.23349,-18755,9627,-2196,941,-29860
1494,100134,4.59375,-8.7999,0.650781,-85.7263,-27.1143,-12.0135,3.23486,-0.0610352,6.7749,0.691864,-0.675659,-0.101624,-0.233185,-18754,9633,-2197,941,-29860
1500,100140,4.53154,-8.72334,0.574219,-85.7153,-27.0813,-11.9971,3.84521,-0.732422,7.08008,0.692047,-0.675568,-0.101563,-0.23288,-18750,9640,-2197,941,-29860
1506,100146,4.69424,-8.71855,0.512012,-85.6879,-27.0154,-11.9586,2.92969,-0.610352,6.65283,0.692261,-0.675476,-0.101501,-0.232544,-18741,9657,-2199,941,-29860
1512,100152,4.44063,-8.82383,0.870898,-85.6769,-26.9824,-11.9366,3.72314,-0.793457,7.32422,0.692627,-0.675354,-0.101379,-0.231934,-18736,9661,-2196,941,-29860
1518,100158,4.5124,-8.63242,0.650781,-85.6604,-26.9495,-11.9147,3.2959,-1.77002,7.32422,0.69281,-0.675262,-0.101318,-0.231598,-18732,9664,-2191,941,-29860
1524,100164,4.84258,-8.7377,0.689063,-85.6494,-26.9165,-11.8872,2.01416,-1.15967,8.23975,0.692993,-0.675201,-0.101288,-0.231232,-18727,9666,-2190,941,-29860
1530,100170,4.69424,-8.82861,0.435449,-85.6439,-26.8781,-11.8652,1.70898,0.976563,8.54492,0.693176,-0.675171,-0.101196,-0.230865,-18723,9668,-2190,941,-29860
1536,100176,4.45498,-9.0583,0.411523,-85.6274,-26.7957,-11.8323,2.68555,-0.366211,8.42285,0.693329,-0.67514,-0.101044,-0.23056,-18718,9676,-2191,941,-29860
1542,100182,4.97178,-8.94346,0.15791,-85.611,-26.7517,-11.7993,4.39453,2.19727,11.3525,0.693756,-0.675018,-0.10083,-0.229736,-18716,9680,-2188,941,-29860
1548,100188,4.56982,-9.14922,0.416309,-85.589,-26.6968,-11.7938,5.67627,0.976563,12.3291,0.694031,-0.674896,-0.100555,-0.22937,-18715,9684,-2187,941,-29860
1554,100194,4.67988,-8.95781,0.569434,-85.5615,-26.6364,-11.7828,8.11768,0.12207,13.3667,0.694336,-0.674774,-0.100342,-0.228943,-18712,9690,-2184,941,-29860
1560,100200,4.45498,-8.72334,0.693848,-85.5231,-26.5759,-11.7609,7.38525,1.28174,12.9395,0.694702,-0.674561,-0.100128,-0.228455,-18709,9696,-2180,941,-29860
1566,100206,4.56504,-8.61807,0.91875,-85.4626,-26.4496,-11.7279,6.40869,-0.671387,13.855,0.695068,-0.674377,-0.0998535,-0.227997,-18698,9716,-2173,941,-29860
1572,100212,4.61289,-9.04395,0.531152,-85.4407,-26.3782,-11.7059,5.24902,0.366211,14.8315,0.695709,-0.674164,-0.0993652,-0.226959,-18689,9725,-2172,941,-29860
1578,100218,4.82822,-9.00566,0.478516,-85.4187,-26.3068,-11.6895,6.40869,-1.09863,16.2354,0.696014,-0.674072,-0.0990906,-0.22644,-18681,9733,-2175,941,-29860
1584,100224,4.76123,-9.02002,0.45459,-85.3967,-26.2354,-11.662,7.01904,-0.427246,16.7236,0.69635,-0.67395,-0.0988159,-0.22583,-18674,9740,-2181,941,-29860
1590,100230,4.67031,-9.13008,0.478516,-85.3693,-26.153,-11.64,7.75146,-0.732422,18.0664,0.696747,-0.673798,-0.0985107,-0.22522,-18668,9747,-2186,941,-29860
1596,100236,5.11533,-9.02481,0.617285,-85.3033,-25.9827,-11.5796,8.54492,-2.13623,19.2261,0.697144,-0.673676,-0.098175,-0.224548,-18653,9766,-2204,941,-29860
1602,100242,4.29229,-8.91475,0.746484,-85.2649,-25.8838,-11.5631,7.20215,0.305176,20.6909,0.698029,-0.673309,-0.0974426,-0.223145,-18645,9779,-2213,941,-29860
1608,100248,4.70859,-9.12529,0.411523,-85.2374,-25.7849,-11.5411,7.26318,-2.92969,22.2168,0.698456,-0.673187,-0.0969849,-0.222443,-18637,9791,-2221,941,-29860
1614,100254,5.1584,-9.33584,0.267969,-85.2155,-25.686,-11.4972,8.60596,-1.15967,23.5596,0.698853,-0.673096,-0.0966187,-0.221619,-18630,9802,-2227,941,-29860
1620,100260,4.89522,-9.37891,0.411523,-85.1825,-25.5707,-11.4697,9.82666,0.0610352,25.3296,0.699341,-0.672943,-0.0961609,-0.220795,-18622,9814,-2230,941,-29860
1626,100266,4.62246,-9.36934,0.645996,-85.0946,-25.329,-11.4148,11.4746,-0.610352,26.4282,0.69986,-0.672729,-0.0956116,-0.21994,-18604,9837,-2228,941,-29860
1632,100272,5.39766,-9.74258,0.846973,-85.0616,-25.1971,-11.3818,11.5356,-2.92969,30.9448,0.700958,-0.672363,-0.0945435,-0.218048,-18595,9849,-2228,941,-29860
1638,100278,5.28281,-9.65166,0.531152,-85.0177,-25.0543,-11.3379,13.4277,-1.89209,32.8979,0.701538,-0.67218,-0.0939331,-0.216949,-18585,9861,-2228,941,-29860
1644,100284,5.28281,-9.77607,0.45459,-84.9683,-24.9005,-11.2994,13.5498,-3.11279,35.3394,0.70224,-0.671936,-0.0932922,-0.21579,-18578,9875,-2229,941,-29860
1650,100290,6.92412,-10.7044,1.86143,-84.9188,-24.7357,-11.25,12.207,-6.28662,39.917,0.702942,-0.671692,-0.0926208,-0.214539,-18571,9890,-2231,941,-29860
1656,100296,7.34043,-10.0632,1.49775,-84.8035,-24.3347,-11.1511,17.8833,0.488281,46.0815,0.703613,-0.671539,-0.0918884,-0.213074,-18555,9921,-2236,941,-29860
1662,100302,6.13457,-10.3838,1.65088,-84.7321,-24.0875,-11.1401,13.1226,2.92969,56.2744,0.705444,-0.670868,-0.089447,-0.210083,-18545,9940,-2239,941,-29860
1668,100308,6.33076,-10.1302,2.14375,-84.6771,-23.8239,-11.1127,14.0991,3.479,60.6079,0.70636,-0.670654,-0.0880127,-0.208405,-18532,9961,-2241,941,-29860
1674,100314,6.17285,-9.86699,1.98105,-84.6112,-23.5382,-11.0907,10.8032,4.21143,65.0635,0.707306,-0.67041,-0.0864258,-0.206604,-18514,9984,-2239,941,-29860
1680,100320,6.2207,-9.91963,1.84707,-84.5618,-23.2306,-11.0687,6.04248,4.82178,69.3359,0.708221,-0.670258,-0.0846863,-0.204712,-18499,10010,-2240,941,-29860
1686,100326,6.6083,-10.4508,1.69873,-84.5233,-22.5549,-11.0248,1.70898,5.79834,73.6084,0.709015,-0.670258,-0.0827637,-0.202698,-18465,10070,-2248,932,-29859
1692,100332,7.41699,-11.5992,1.05273,-84.5233,-22.1704,-10.9973,2.2583,7.08008,88.3789,0.71048,-0.670532,-0.0783691,-0.198334,-18447,10107,-2256,932,-29859
1698,100338,7.10117,-11.6519,-0.253613,-84.5123,-21.7529,-10.9808,3.479,7.75146,93.9941,0.711304,-0.670685,-0.0758362,-0.195862,-18429,10150,-2263,932,-29859
1704,100344,6.92412,-11.9007,0.177051,-84.4958,-21.308,-10.9589,8.72803,7.87354,100.464,0.712219,-0.670776,-0.0730896,-0.193237,-18406,10192,-2270,932,-29859
1710,100350,7.06768,-11.3791,1.24414,-84.4574,-20.8301,-10.9369,11.8408,8.60596,106.018,0.713318,-0.670746,-0.0702515,-0.190399,-18381,10238,-2277,932,-29859
1716,100356,7.81416,-10.9054,2.0002,-84.364,-19.7919,-10.8984,8.30078,9.52148,113.342,0.714508,-0.670624,-0.0672302,-0.187378,-18321,10334,-2290,932,-29859
1722,100362,7.53184,-11.4461,1.21064,-84.353,-19.2206,-10.882,-0.671387,10.9863,130.737,0.716705,-0.670715,-0.0603333,-0.180878,-18287,10386,-2298,932,-29859
1728,100368,7.56055,-12.1256,-0.0574219,-84.3585,-18.5999,-10.86,-3.05176,9.76563,139.404,0.717712,-0.670959,-0.056488,-0.177246,-18247,10440,-2308,932,-29859
1734,100374,7.46006,-13.1113,-0.0239258,-84.375,-17.9407,-10.827,2.56348,8.66699,145.264,0.718658,-0.671295,-0.0523987,-0.173309,-18201,10499,-2316,932,-29859
1740,100380,6.23984,-12.5228,-1.41641,-84.375,-17.254,-10.7886,8.48389,6.22559,151.978,0.719788,-0.671448,-0.0482178,-0.169159,-18152,10563,-2324,932,-29859
1746,100386,7.73281,-11.5083,-1.14365,-84.342,-15.7819,-10.6238,6.95801,-2.74658,161.194,0.722382,-0.671539,-0.0397339,-0.15976,-18039,10714,-2347,932,-29859
1752,100392,7.26387,-13.1305,-0.803906,-84.3311,-14.9908,-10.5304,10.376,1.95313,177.246,0.723663,-0.67157,-0.0352173,-0.154663,-17982,10791,-2354,932,-29859
1758,100398,7.82373,-13.164,-0.15791,-84.3036,-14.1614,-10.437,15.8081,-1.77002,188.354,0.725067,-0.671509,-0.0303955,-0.149323,-17918,10875,-2360,932,-29859
1764,100404,7.33086,-13.3027,-0.550293,-84.2596,-13.277,-10.3217,18.6157,0.427246,195.313,0.726654,-0.671295,-0.0254211,-0.143524,-17849,10965,-2370,932,-29859
1770,100410,7.87158,-12.6041,-0.746484,-84.1937,-12.3596,-10.2173,26.123,-1.70898,203.552,0.728271,-0.670929,-0.0202026,-0.137573,-17772,11061,-2378,932,-29859
1776,100416,7.61318,-12.3601,-1.15801,-83.9905,-10.4205,-9.9646,27.4048,-1.89209,211.609,0.731995,-0.669647,-0.00933838,-0.124786,-17597,11266,-2398,932,-29859
1782,100422,8.16826,-13.676,-0.698633,-83.9081,-9.38782,-9.83276,26.6113,-1.95313,231.079,0.733704,-0.669067,-0.00350952,-0.118042,-17508,11367,-2410,932,-29859
1788,100428,8.17783,-14.1354,-1.75137,-83.8092,-8.30566,-9.68994,31.0059,-1.70898,243.103,0.735504,-0.668304,0.00253296,-0.110931,-17410,11473,-2419,932,-29859
1794,100434,8.12041,-14.7957,-2.14854,-83.6884,-7.16858,-9.54163,32.5928,-0.549316,253.784,0.737396,-0.667358,0.00894165,-0.103424,-17303,11583,-2431,932,-29859
1800,100440,8.08691,-14.7574,-2.31602,-83.5565,-5.98206,-9.39331,38.208,-5.18799,265.381,0.739288,-0.66629,0.0156555,-0.0956421,-17185,11697,-2444,932,-29859
1806,100446,8.36445,-14.6761,-2.75625,-83.2269,-3.44971,-9.0033,41.8701,-9.0332,278.442,0.743378,-0.663513,0.0296326,-0.0785828,-16922,11935,-2464,941,-29860
1812,100452,8.33096,-15.7336,-0.91875,-83.0402,-2.09839,-8.78357,43.8232,-11.5967,304.504,0.745422,-0.661835,0.0370483,-0.069458,-16777,12057,-2476,941,-29860
1818,100458,7.80459,-15.6618,-0.0526367,-82.8479,-0.686646,-8.53638,46.4478,-13.1836,313.904,0.747375,-0.660095,0.0447693,-0.0597839,-16634,12179,-2488,941,-29860
1824,100464,8.26396,-13.8147,1.59824,-82.6392,0.76355,-8.2782,48.8892,-15.3198,323.608,0.749329,-0.658142,0.0526733,-0.0497742,-16483,12304,-2501,941,-29860
1830,100470,7.43613,-12.6663,2.28252,-82.4139,2.26318,-7.99255,37.4756,-19.6533,330.994,0.751221,-0.655975,0.06073,-0.0393982,-16318,12435,-2518,941,-29860
1836,100476,8.40752,-13.5707,1.69873,-82.0953,5.35034,-7.3114,25.0244,-27.0386,340.698,0.753693,-0.652374,0.0769653,-0.017395,-15952,12703,-2558,941,-29860
1842,100482,7.90029,-18.6525,0.765625,-82.002,6.94336,-6.94336,16.2964,-27.9541,352.844,0.754272,-0.650879,0.0852966,-0.00592041,-15748,12839,-2579,941,-29860
1848,100488,7.79023,-18.7722,1.11494,-81.8921,8.55835,-6.55884,21.4844,-29.7241,355.713,0.75473,-0.6492,0.0936584,0.0057373,-15530,12973,-2601,941,-29860
1854,100494,7.12988,-18.1836,1.79922,-81.7383,10.1843,-6.15784,18.3105,-29.7241,357.666,0.755188,-0.647217,0.10202,0.0175171,-15316,13101,-2623,941,-29860
1860,100500,6.45518,-18.2745,2.63662,-81.59,11.8103,-5.75134,14.1602,-35.4614,357.239,0.755402,-0.645172,0.110413,0.0293579,-15088,13227,-2635,941,-29860
1866,100506,6.67051,-17.7721,3.02422,-81.2878,15.0183,-4.82849,12.085,-41.1987,352.722,0.755127,-0.640991,0.126282,0.0533142,-14593,13479,-2659,941,-29860
1872,100512,8.48887,-18.3128,2.01455,-81.1176,16.5674,-4.32312,4.39453,-52.9785,340.088,0.754761,-0.638855,0.133667,0.0652466,-14329,13602,-2669,941,-29860
1878,100518,9.93877,-19.5091,0.478516,-80.9528,18.078,-3.7793,3.78418,-46.5088,332.458,0.75412,-0.636749,0.140564,0.0771484,-14059,13724,-2680,941,-29860
1884,100524,11.2355,-19.0545,-0.827832,-80.788,19.5447,-3.26843,17.395,-45.2271,324.036,0.753357,-0.634644,0.14743,0.0885315,-13798,13838,-2689,941,-29860
1890,100530,12.2548,-18.2602,-2.18682,-80.5408,20.9674,-2.75757,26.4282,-44.3115,316.04,0.752808,-0.63208,0.154083,0.0995178,-13526,13950,-2696,941,-29860
1896,100536,14.7431,-16.4849,-2.48828,-79.8157,23.67,-1.64795,43.7622,-61.2183,311.218,0.752533,-0.625549,0.166351,0.120758,-12954,14157,-2707,941,-29860
1902,100542,19.667,-8.03428,-4.57939,-79.2938,24.9719,-0.994263,67.688,-65.4297,305.847,0.752899,-0.62146,0.171906,0.131409,-12658,14251,-2714,941,-29860
1908,100548,23.8444,-0.46416,-10.3599,-78.7006,26.2463,-0.340576,102.539,-63.7817,299.927,0.753448,-0.616974,0.177399,0.141693,-12360,14333,-2722,941,-29860
1914,100554,23.4329,9.53203,-8.45537,-77.926,27.4713,0.318604,154.724,13.1836,278.442,0.754822,-0.611328,0.182892,0.151398,-12062,14410,-2735,949,-29861
1920,100560,-0.200977,11.8146,-2.24424,-77.0911,28.6523,0.543823,146.667,201.66,180.603,0.756989,-0.604645,0.190643,0.157806,-11779,14482,-2751,949,-29861
1926,100566,0.287109,-0.631641,12.4653,-76.8109,29.8993,-1.13159,91.7358,142.639,75.1953,0.758575,-0.598145,0.208069,0.152771,-11207,14605,-2813,949,-29861
1932,100572,10.4938,-2.63184,5.20147,-76.5637,29.8059,-1.13159,19.2261,62.8662,-37.2314,0.76004,-0.596649,0.207794,0.151825,-10929,14659,-2857,949,-29861
1938,100578,2.75146,-3.81377,-1.1293,-76.712,29.5038,-1.56555,9.15527,86.1206,-85.022,0.760345,-0.59729,0.207855,0.147614,-10667,14706,-2907,949,-29861
1944,100584,1.08623,-1.94756,-2.55049,-77.0032,28.9929,-2.19177,14.0991,41.4429,-124.939,0.760468,-0.598846,0.207367,0.141296,-10430,14748,-2960,949,-29861
1950,100590,4.67988,-0.583789,-3.63193,-77.168,28.2349,-2.60925,8.8501,27.2217,-156.25,0.761292,-0.600281,0.204407,0.134796,-10220,14782,-3005,949,-29861
1956,100596,8.58457,-3.33525,-1.89014,-77.547,26.3232,-3.36731,-1.15967,24.7192,-168.091,0.76297,-0.604279,0.195374,0.120239,-9885,14844,-3086,949,-29861
1962,100602,7.90029,-3.16777,-2.67012,-77.7173,25.329,-3.70789,3.78418,12.3291,-162.292,0.763763,-0.606262,0.19046,0.112854,-9763,14874,-3118,949,-29861
1968,100608,7.00547,-2.85195,-2.69404,-77.8546,24.3567,-3.99902,4.21143,0.854492,-155.029,0.764526,-0.608093,0.185455,0.105927,-9672,14903,-3144,949,-29861
1974,100614,6.20635,-1.76572,-2.5792,-77.9645,23.4064,-4.21875,8.11768,-7.62939,-150.208,0.76532,-0.609772,0.180237,0.0995178,-9607,14928,-3163,949,-29861
1980,100620,5.88574,-0.291895,-2.4835,-78.0304,22.4725,-4.37805,9.15527,-17.395,-150.208,0.766174,-0.611206,0.174896,0.0934448,-9567,14948,-3179,949,-29861
1986,100626,6.1585,0.411523,-1.38291,-78.1073,20.5719,-4.57581,7.99561,-22.522,-152.222,0.767914,-0.613861,0.1633,0.0818787,-9540,14982,-3202,949,-29861
1992,100632,5.95752,-0.0957031,-0.583789,-78.1622,19.5831,-4.64722,-1.58691,-29.8462,-164.063,0.768616,-0.615356,0.157104,0.0761108,-9559,14996,-3208,949,-29861
1998,100638,5.79961,-0.325391,-0.392383,-78.2336,18.5559,-4.70215,-6.16455,-30.7007,-175.293,0.769165,-0.616974,0.150543,0.0702209,-9594,15008,-3217,949,-29861
2004,100644,5.94316,-0.47373,-0.497656,-78.3325,17.4738,-4.76257,-12.5122,-31.0059,-189.026,0.769592,-0.618774,0.143616,0.0639954,-9644,15019,-3221,949,-29861
2010,100650,6.36904,-0.76084,-0.593359,-78.4644,16.3257,-4.83398,-18.7988,-28.0762,-204.163,0.769806,-0.620819,0.136292,0.0573425,-9711,15028,-3328,949,-29861
2016,100656,7.44092,-1.26807,-0.794336,-78.8269,13.7988,-5.0647,-23.3765,-22.7661,-222.351,0.769562,-0.625549,0.120575,0.0422668,-9882,15035,-3328,949,-29861
2022,100662,7.68975,-1.63174,-0.483301,-79.0521,12.431,-5.24048,-33.3252,-9.52148,-249.878,0.769104,-0.628204,0.112366,0.0337524,-9988,15032,-3219,949,-29861
2028,100668,7.56055,-1.92842,-0.574219,-79.3048,11.0028,-5.45471,-38.269,-3.11279,-260.01,0.768372,-0.630951,0.103973,0.0245972,-10111,15025,-3206,974,-29864
2034,100674,7.1873,-2.45957,-0.736914,-79.585,9.53064,-5.7019,-44.4946,1.58691,-269.226,0.767334,-0.63382,0.09552,0.0149841,-10249,15013,-3191,974,-29864
2040,100680,6.26377,-3.19648,-0.823047,-79.8926,8.02002,-5.97107,-47.3022,3.84521,-276.917,0.766022,-0.63681,0.0869141,0.00500488,-10402,14995,-3172,974,-29864
2046,100686,4.60332,-4.69424,-1.05273,-80.5243,4.8999,-6.50391,-50.9644,1.46484,-283.691,0.762665,-0.642792,0.0692139,-0.015686,-10753,14941,-3135,974,-29864
2052,100692,3.85205,-5.89531,-1.1293,-80.8484,3.2959,-6.72913,-53.833,-11.0474,-291.992,0.760681,-0.645752,0.0599365,-0.0260315,-10933,14907,-3117,974,-29864
2058,100698,3.57451,-6.9624,-1.1293,-81.167,1.67542,-6.9104,-52.1851,-20.5688,-293.213,0.758514,-0.64859,0.0503235,-0.0362549,-11124,14864,-3090,974,-29864
2064,100704,3.63193,-7.76152,-1.05273,-81.4636,0.0494385,-7.03125,-49.6826,-30.5176,-292.847,0.756317,-0.651245,0.0403748,-0.0461731,-11328,14809,-3057,974,-29864
2070,100710,3.95732,-8.33574,-0.526367,-82.0074,-3.18054,-7.09717,-44.9829,-40.2832,-291.199,0.754028,-0.653717,0.0301514,-0.0557251,-11545,14743,-3024,974,-29864
2076,100716,4.10566,-8.80469,0.186621,-82.2491,-4.78455,-7.04224,-40.2832,-56.6406,-287.842,0.749481,-0.657776,0.00894165,-0.0736389,-12014,14577,-2942,974,-29864
2082,100722,4.04824,-9.43633,0.416309,-82.4854,-6.37756,-6.93787,-38.0859,-64.9414,-286.987,0.747101,-0.659546,-0.00189209,-0.0820313,-12245,14487,-2899,974,-29864
2088,100728,4.06738,-10.0728,0.674707,-82.7161,-7.95959,-6.78406,-35.1563,-72.0825,-285.889,0.74469,-0.661102,-0.0130005,-0.0900879,-12483,14384,-2849,974,-29864
2094,100734,4.321,-10.5991,0.559863,-82.9468,-9.53613,-6.58081,-33.7524,-78.6133,-284.485,0.742249,-0.662445,-0.024292,-0.0978088,-12723,14268,-2795,974,-29864
2100,100740,4.54111,-11.2355,0.679492,-83.4027,-12.6453,-6.04797,-31.3721,-83.9233,-283.386,0.739716,-0.663605,-0.0357056,-0.105194,-12966,14140,-2735,974,-29864
2106,100746,5.21104,-11.3504,1.43076,-83.6279,-14.1724,-5.73486,-28.0151,-89.0503,-278.992,0.734528,-0.665344,-0.0587463,-0.119141,-13449,13840,-2614,974,-29864
2112,100752,5.67998,-11.3265,1.85186,-83.8586,-15.683,-5.39978,-30.8838,-87.1582,-276.428,0.731842,-0.665985,-0.0702209,-0.125793,-13686,13671,-2549,974,-29864
2118,100758,6.11064,-11.6279,2.13418,-84.1113,-17.1716,-5.0592,-35.5835,-82.8247,-274.475,0.729004,-0.666565,-0.0814819,-0.132355,-13908,13504,-2490,974,-29864
2124,100764,6.54609,-11.7332,2.2251,-84.386,-18.6438,-4.73511,-39.3677,-77.2095,-273.682,0.725922,-0.667114,-0.0924988,-0.138916,-14124,13325,-2430,974,-29864
2130,100770,7.25908,-11.5992,2.31123,-84.9902,-21.5387,-4.14734,-44.4336,-69.7632,-273.987,0.722687,-0.667664,-0.103241,-0.145538,-14331,13134,-2370,974,-29864
2136,100776,8.27832,-11.9772,2.49307,-85.3253,-22.9724,-3.90015,-60.3638,-51.0864,-273.01,0.715546,-0.668701,-0.123749,-0.159424,-14718,12730,-2250,974,-29864
2142,100782,8.4458,-12.8529,2.52178,-85.6934,-24.3951,-3.6969,-67.5659,-43.396,-271.545,0.711548,-0.669312,-0.133362,-0.166718,-14896,12519,-2191,991,-29866
2148,100788,8.30225,-13.7813,2.3543,-86.0834,-25.7959,-3.52112,-74.0356,-34.8511,-270.081,0.707336,-0.669983,-0.142609,-0.174164,-15063,12305,-2134,991,-29866
2154,100794,7.92422,-15.2886,2.3543,-86.4899,-27.1802,-3.3783,-78.6133,-28.9307,-269.592,0.702911,-0.670685,-0.151428,-0.181824,-15216,12102,-2083,991,-29866
2160,100800,7.32129,-16.5279,2.05283,-87.3303,-29.9323,-3.15857,-79.5898,-23.4985,-271.179,0.698303,-0.671356,-0.159973,-0.189575,-15362,11901,-2029,991,-29866
2166,100806,6.02451,-18.4181,1.31113,-87.7423,-31.3165,-3.05969,-74.8901,-18.0664,-282.043,0.688843,-0.672272,-0.176636,-0.205536,-15630,11498,-1923,991,-29866
2172,100812,5.19668,-18.6478,1.46904,-88.1378,-32.7228,-2.9718,-74.2188,-18.3105,-291.321,0.684052,-0.672333,-0.185028,-0.213745,-15756,11297,-1874,991,-29866
2178,100818,5.4168,-19.2746,1.43555,-88.5333,-34.173,-2.86743,-66.9556,-16.2354,-301.147,0.679108,-0.672211,-0.193634,-0.222137,-15880,11097,-1827,991,-29866
2184,100824,4.90957,-19.1741,1.78965,-88.8904,-35.6616,-2.76306,-61.6455,-17.0288,-310.913,0.674194,-0.671661,-0.202454,-0.230743,-15996,10909,-1785,991,-29866
2190,100830,4.9,-18.7865,2.45,-89.577,-38.7488,-2.49939,-57.6172,-19.2261,-318.848,0.66925,-0.670746,-0.211548,-0.239502,-16111,10722,-1746,991,-29866
2196,100836,5.52207,-18.3367,3.21084,-89.9231,-40.3363,-2.3291,-53.4058,-21.5454,-328.186,0.659027,-0.668121,-0.230408,-0.25708,-16352,10343,-1676,991,-29866
2202,100842,6.13936,-18.3798,3.61279,-90.2802,-41.9293,-2.13684,-52.002,-21.1182,-328.857,0.653778,-0.666473,-0.23996,-0.265839,-16475,10146,-1640,991,-29866
2208,100848,6.50781,-18.4563,3.85684,-90.6372,-43.5168,-1.93359,-51.2085,-19.043,-327.332,0.648499,-0.664642,-0.249451,-0.274536,-16602,9938,-1600,991,-29866
2214,100854,6.78535,-18.308,3.96689,-90.9888,-45.0879,-1.72485,-52.4292,-15.686,-323.059,0.643158,-0.662659,-0.258759,-0.283173,-16729,9720,-1559,991,-29866
2220,100860,6.72793,-18.9157,4.11523,-91.7139,-48.1586,-1.34033,-54.3213,-11.6577,-319.763,0.637756,-0.660583,-0.267761,-0.291687,-16968,9286,-1488,991,-29866
2226,100866,5.8666,-19.6574,3.42617,-92.0544,-49.6582,-1.16455,-51.8799,-1.83105,-312.683,0.626953,-0.656067,-0.284851,-0.308624,-17081,9056,-1451,991,-29866
2232,100872,5.34023,-20.3082,3.2874,-92.373,-51.1359,-1.02173,-51.8188,2.62451,-307.434,0.621643,-0.653564,-0.292938,-0.317017,-17191,8821,-1413,991,-29866
2238,100878,3.9334,-20.7293,3.16299,-92.6807,-52.5806,-0.900879,-49.1943,6.89697,-300.11,0.616364,-0.65097,-0.300659,-0.325287,-17295,8580,-1376,991,-29866
2244,100884,2.73711,-20.5953,3.27305,-92.9498,-53.9868,-0.802002,-46.9971,9.70459,-289.124,0.611267,-0.648254,-0.307983,-0.333405,-17399,8336,-1344,991,-29866
2250,100890,0.904395,-20.825,3.28262,-93.4552,-56.5851,-0.631714,-45.8984,8.42285,-273.804,0.606323,-0.645508,-0.314911,-0.341187,-17584,7845,-1277,991,-29866
2256,100896,-2.8376,-23.141,1.32549,-93.7189,-57.7332,-0.532837,-44.8608,3.96729,-230.347,0.597107,-0.640503,-0.327118,-0.355072,-17667,7603,-1247,991,-29866
2262,100902,-4.5459,-24.3612,-0.215332,-94.0045,-58.7604,-0.401001,-35.0342,-1.40381,-203.918,0.592926,-0.638458,-0.332306,-0.360931,-17744,7357,-1213,957,-29862
2268,100908,-6.63701,-24.5383,-1.33506,-94.2847,-59.6448,-0.22522,-26.2451,-0.305176,-177.368,0.589325,-0.636597,-0.336975,-0.365723,-17817,7109,-1185,957,-29862
2274,100914,-10.0536,-24.1268,-0.827832,-94.5099,-60.3864,-0.065918,-18.2495,-0.915527,-152.588,0.586395,-0.634918,-0.340973,-0.36969,-17880,6863,-1161,957,-29862
