TimeSinceCollection,Timestamp,AccX,AccY,AccZ,AngleRoll,AnglePitch,AngleYaw,AngularVelX,AngularVelY,AngularVelZ,Q1,Q2,Q3,Q4,MagX,MagY,MagZ,Height,Airpressure
0,222478,9.82871,-0.0861328,-0.0143555,-80.8209,-89.5056,-92.3236,0,0,0,0.0452576,-0.705505,-0.0392151,-0.706116,-111.942,60.4917,-36.6417,-7780,-28809
6,222484,9.80479,-0.0813477,0.00478516,-80.8264,-89.5056,-92.3236,0,0,0,0.0451965,-0.705505,-0.0391541,-0.706116,-111.908,60.5167,-36.6083,-7780,-28809
12,222490,9.82871,-0.0957031,0.00957031,-80.8319,-89.5056,-92.3236,0,0,0,0.0451355,-0.705505,-0.0391235,-0.706116,-111.9,60.525,-36.65,-7780,-28809
18,222496,9.8,-0.0957031,-0.00957031,-80.8429,-89.5056,-92.3291,0,0,0,0.045105,-0.705505,-0.0390625,-0.706116,-111.892,60.5417,-36.675,-7780,-28809
24,222502,9.83828,-0.0861328,0,-80.8539,-89.5056,-92.3236,0,0,0,0.0450439,-0.705505,-0.0390015,-0.706116,-111.875,60.55,-36.6917,-7780,-28809
30,222508,9.8,-0.0717773,0.00478516,-80.8649,-89.5056,-92.3236,0,0,0,0.0449829,-0.705505,-0.0389404,-0.706116,-111.867,60.5417,-36.7167,-7780,-28809
36,222514,9.77129,-0.0717773,0.0143555,-80.8813,-89.5056,-92.3291,0,0,0,0.0448303,-0.705536,-0.0388184,-0.706116,-111.883,60.5167,-36.7,-7780,-28809
42,222520,9.8,-0.0957031,0,-80.8923,-89.5056,-92.3291,0,0,0,0.0447693,-0.705536,-0.0387573,-0.706116,-111.883,60.5167,-36.7083,-7780,-28809
48,222526,9.81914,-0.0861328,0.00478516,-80.9033,-89.5056,-92.3291,0,0,0,0.0447388,-0.705536,-0.0386963,-0.706146,-111.9,60.525,-36.775,-7780,-28809
54,222532,9.80479,-0.0669922,0.00957031,-80.9088,-89.5056,-92.3291,0,0,0,0.0446472,-0.705536,-0.0386353,-0.706146,-111.908,60.5417,-36.8417,-7780,-28809
60,222538,9.82871,-0.0717773,0.0191406,-80.9198,-89.5056,-92.3291,0,0,0,0.0446167,-0.705536,-0.0385742,-0.706146,-111.925,60.5417,-36.875,-7780,-28809
66,222544,9.80957,-0.105273,0.00957031,-80.9363,-89.5056,-92.3291,0,0,0,0.0444946,-0.705536,-0.0384827,-0.706146,-111.95,60.5,-36.9083,-7780,-28809
72,222550,9.80957,-0.0765625,0.0287109,-80.9473,-89.5056,-92.3291,0,0,0,0.0444641,-0.705536,-0.0384216,-0.706146,-111.95,60.4833,-36.9,-7780,-28809
78,222556,9.80957,-0.0813477,0.0382813,-80.9528,-89.5056,-92.3291,0,0,0,0.0444336,-0.705536,-0.0383911,-0.706146,-111.967,60.4833,-36.9,-7780,-28809
84,222562,9.8,-0.0717773,0,-80.9528,-89.5056,-92.3291,0,0,0,0.0444031,-0.705536,-0.0383911,-0.706146,-111.975,60.4833,-36.9083,-7780,-28809
90,222568,9.80957,-0.090918,0,-80.9583,-89.5056,-92.3291,0,0,0,0.0443726,-0.705566,-0.0383606,-0.706146,-111.983,60.4833,-36.925,-7780,-28809
96,222574,9.80479,-0.0574219,0.00478516,-80.9692,-89.5056,-92.3291,0,0,0,0.0443115,-0.705566,-0.0382996,-0.706146,-112.008,60.4917,-36.95,-7780,-28809
102,222580,9.81914,-0.0765625,0.0191406,-80.9747,-89.5056,-92.3291,0,0,0,0.044281,-0.705566,-0.038269,-0.706146,-112,60.5083,-36.9583,-7780,-28809
108,222586,9.81914,-0.0717773,-0.0143555,-80.9747,-89.5056,-92.3291,0,0,0,0.0442505,-0.705566,-0.0382385,-0.706146,-111.983,60.5167,-36.9917,-7780,-28809
114,222592,9.80479,-0.0861328,-0.00957031,-80.9857,-89.5056,-92.3291,0,0,0,0.0441895,-0.705566,-0.0381775,-0.706146,-111.975,60.5417,-37.0083,-7780,-28809
120,222598,9.8,-0.110059,0.00957031,-80.9967,-89.5056,-92.3291,0,0,0,0.0441284,-0.705566,-0.0381165,-0.706177,-111.983,60.5667,-37.025,-7780,-28809
126,222604,9.80957,-0.0861328,0.00957031,-81.0132,-89.5056,-92.3291,0,0,0,0.0440369,-0.705566,-0.0380249,-0.706177,-112.008,60.5917,-37.0333,-7780,-28809
132,222610,9.80957,-0.0669922,0.0143555,-81.0187,-89.5056,-92.3291,0,0,0,0.0439758,-0.705566,-0.0379639,-0.706177,-112.017,60.5917,-37.0167,-7780,-28809
138,222616,9.81914,-0.062207,0.00478516,-81.0242,-89.5056,-92.3291,0,0,0,0.0439453,-0.705566,-0.0379333,-0.706177,-112.017,60.6,-37.0417,-7780,-28809
144,222622,9.81914,-0.0574219,0.0143555,-81.0352,-89.5056,-92.3291,0,0,0,0.0439148,-0.705566,-0.0378723,-0.706177,-111.992,60.6083,-37.0583,-7780,-28809
150,222628,9.80957,-0.0861328,0.0334961,-81.0406,-89.5056,-92.3291,0,0,0,0.0438538,-0.705597,-0.0378418,-0.706177,-111.983,60.65,-37.0917,-7780,-28809
156,222634,9.82393,-0.090918,0.00957031,-81.0461,-89.5056,-92.3291,0,0,0,0.0438232,-0.705597,-0.0378113,-0.706177,-111.95,60.675,-37.0917,-7780,-28809
162,222640,9.81436,-0.0669922,-0.00478516,-81.0461,-89.5056,-92.3291,0,0,0,0.0437927,-0.705597,-0.0377808,-0.706177,-111.933,60.6667,-37.0917,-7780,-28809
168,222646,9.80479,-0.0813477,0.0287109,-81.0516,-89.5056,-92.3291,0,0,0,0.0437622,-0.705597,-0.0377502,-0.706177,-111.933,60.6583,-37.05,-7780,-28809
174,222652,9.80957,-0.0717773,0.00478516,-81.0571,-89.5056,-92.3291,0,0,0,0.0437622,-0.705597,-0.0377502,-0.706177,-111.925,60.6417,-37.05,-7780,-28809
180,222658,9.82871,-0.0765625,0,-81.0626,-89.5056,-92.3291,0,0,0,0.0437317,-0.705597,-0.0377197,-0.706177,-111.9,60.625,-37.0167,-7780,-28809
186,222664,9.81436,-0.0813477,0.00957031,-81.0736,-89.5056,-92.3291,0,0,0,0.0436707,-0.705597,-0.0376587,-0.706177,-111.85,60.625,-37,-7780,-28809
192,222670,9.80957,-0.0717773,0.0239258,-81.0791,-89.5056,-92.3291,0,0,0,0.0436401,-0.705597,-0.0376282,-0.706177,-111.825,60.6083,-36.9667,-7780,-28809
198,222676,9.82393,-0.0574219,0.0191406,-81.0791,-89.5056,-92.3291,0,0,0,0.0436096,-0.705597,-0.0375977,-0.706177,-111.8,60.6,-36.95,-7780,-28809
204,222682,9.81914,-0.0669922,0.0239258,-81.0846,-89.5056,-92.3291,0,0,0,0.0436096,-0.705597,-0.0375977,-0.706207,-111.8,60.5917,-36.95,-7780,-28809
210,222688,9.80479,-0.0957031,0.00957031,-81.0846,-89.5111,-92.3291,0,0,0,0.0435791,-0.705597,-0.0375671,-0.706207,-111.825,60.5667,-36.9417,-7780,-28809
216,222694,9.82393,-0.090918,0.0143555,-81.0901,-89.5056,-92.3291,0,0,0,0.0435791,-0.705597,-0.0375671,-0.706207,-111.858,60.5667,-37,-7780,-28809
222,222700,9.82393,-0.0813477,0.0191406,-81.0901,-89.5056,-92.3236,0,0,0,0.0435486,-0.705597,-0.0375366,-0.706207,-111.867,60.5917,-37.0583,-7780,-28809
228,222706,9.83828,-0.0957031,-0.0143555,-81.0956,-89.5111,-92.3291,0,0,0,0.0435486,-0.705597,-0.0375366,-0.706207,-111.858,60.6167,-37.0917,-7780,-28809
234,222712,9.81914,-0.0813477,0.0239258,-81.1011,-89.5111,-92.3291,0,0,0,0.0434875,-0.705597,-0.0375061,-0.706207,-111.858,60.6417,-37.1167,-7780,-28809
240,222718,9.84307,-0.100488,0.0143555,-81.1066,-89.5056,-92.3291,0,0,0,0.0434875,-0.705597,-0.0374756,-0.706207,-111.858,60.6583,-37.1333,-7780,-28809
246,222724,9.80957,-0.0957031,0.0191406,-81.1066,-89.5111,-92.3291,0,0,0,0.0434265,-0.705597,-0.0374451,-0.706207,-111.875,60.725,-37.0583,-7780,-28809
252,222730,9.8,-0.0717773,0.0191406,-81.1121,-89.5056,-92.3291,0,0,0,0.0434265,-0.705597,-0.0374146,-0.706207,-111.892,60.7333,-36.9917,-7780,-28809
258,222736,9.8,-0.0669922,0,-81.1121,-89.5056,-92.3291,0,0,0,0.043396,-0.705627,-0.037384,-0.706207,-111.892,60.7333,-36.95,-7780,-28809
264,222742,9.79521,-0.0717773,0.0143555,-81.1121,-89.5056,-92.3291,0,0,0,0.043396,-0.705627,-0.037384,-0.706207,-111.883,60.7,-36.8917,-7780,-28809
270,222748,9.80479,-0.062207,0.0191406,-81.1176,-89.5056,-92.3291,0,0,0,0.0433655,-0.705627,-0.0373535,-0.706207,-111.883,60.6667,-36.8833,-7780,-28809
276,222754,9.82393,-0.0861328,0,-81.123,-89.5056,-92.3291,0,0,0,0.043335,-0.705627,-0.037323,-0.706207,-111.9,60.6333,-36.875,-7780,-28809
282,222760,9.82393,-0.0669922,0,-81.1285,-89.5111,-92.3291,0,0,0,0.0433044,-0.705627,-0.037323,-0.706207,-111.908,60.65,-36.9,-7780,-28809
288,222766,9.81436,-0.0861328,-0.00478516,-81.134,-89.5111,-92.3291,0,0,0,0.0432739,-0.705627,-0.0372925,-0.706207,-111.925,60.6667,-36.9083,-7780,-28809
294,222772,9.81914,-0.0765625,0.00957031,-81.1395,-89.5056,-92.3291,0,0,0,0.0432434,-0.705627,-0.0372314,-0.706207,-111.933,60.6667,-36.9417,-7780,-28809
300,222778,9.81914,-0.0861328,-0.00478516,-81.1505,-89.5056,-92.3291,0,0,0,0.0432129,-0.705627,-0.0372009,-0.706207,-111.95,60.65,-36.95,-7780,-28809
306,222784,9.80479,-0.0669922,0.0239258,-81.1615,-89.5111,-92.3291,0,0,0,0.0431213,-0.705627,-0.0371094,-0.706207,-112,60.6333,-36.9833,-7780,-28809
312,222790,9.80479,-0.0861328,0,-81.1615,-89.5056,-92.3291,0,0,0,0.0430908,-0.705627,-0.0370789,-0.706207,-112.017,60.625,-36.95,-7780,-28809
318,222796,9.82393,-0.0765625,0.0334961,-81.167,-89.5056,-92.3291,0,0,0,0.0430603,-0.705627,-0.0370483,-0.706207,-112.033,60.625,-36.9083,-7780,-28809
324,222802,9.81914,-0.0717773,0,-81.1725,-89.5111,-92.3291,0,0,0,0.0430298,-0.705627,-0.0370178,-0.706207,-112.042,60.5917,-36.8333,-7780,-28809
330,222808,9.80957,-0.0813477,0.00478516,-81.1835,-89.5111,-92.3291,0,0,0,0.0429993,-0.705627,-0.0369873,-0.706238,-112.05,60.5667,-36.8,-7780,-28809
336,222814,9.80957,-0.0765625,0.00957031,-81.189,-89.5056,-92.3291,0,0,0,0.0429382,-0.705627,-0.0369263,-0.706238,-112.025,60.5667,-36.775,-7771,-28810
342,222820,9.81914,-0.0861328,0.00957031,-81.189,-89.5111,-92.3291,0,0,0,0.0429077,-0.705627,-0.0369263,-0.706238,-112.017,60.5833,-36.775,-7771,-28810
348,222826,9.80479,-0.0957031,0.00478516,-81.1945,-89.5111,-92.3291,0,0,0,0.0429077,-0.705658,-0.0368958,-0.706238,-112.008,60.5917,-36.7417,-7771,-28810
354,222832,9.79521,-0.090918,0.0143555,-81.2,-89.5111,-92.3291,0,0,0,0.0428772,-0.705658,-0.0368652,-0.706238,-112.008,60.6083,-36.7,-7771,-28810
360,222838,9.80957,-0.100488,0.00957031,-81.2109,-89.5111,-92.3291,0,0,0,0.0428467,-0.705658,-0.0368347,-0.706238,-112,60.6,-36.65,-7771,-28810
366,222844,9.8,-0.0574219,0.0239258,-81.2109,-89.5056,-92.3291,0,0,0,0.0427856,-0.705658,-0.0368042,-0.706238,-111.975,60.6,-36.5917,-7771,-28810
372,222850,9.80479,-0.090918,0.0334961,-81.2109,-89.5111,-92.3291,0,0,0,0.0427856,-0.705658,-0.0368042,-0.706238,-111.942,60.6083,-36.5833,-7771,-28810
378,222856,9.80957,-0.0861328,0,-81.2109,-89.5056,-92.3291,0,0,0,0.0427856,-0.705658,-0.0368042,-0.706238,-111.908,60.625,-36.6,-7771,-28810
384,222862,9.80957,-0.0813477,0.0430664,-81.2109,-89.5111,-92.3291,0,0,0,0.0427856,-0.705658,-0.0368042,-0.706238,-111.892,60.6417,-36.65,-7771,-28810
390,222868,9.82393,-0.0861328,0.00957031,-81.2054,-89.5111,-92.3291,0,0,0,0.0428162,-0.705658,-0.0368042,-0.706238,-111.858,60.6833,-36.7917,-7771,-28810
396,222874,9.81436,-0.0717773,0.00478516,-81.2054,-89.5111,-92.3291,0,0,0,0.0428467,-0.705658,-0.0368347,-0.706238,-111.875,60.6917,-36.875,-7771,-28810
402,222880,9.82393,-0.0813477,0.0143555,-81.2,-89.5056,-92.3291,0,0,0,0.0428467,-0.705658,-0.0368347,-0.706238,-111.892,60.6833,-36.9333,-7771,-28810
408,222886,9.79521,-0.0861328,0,-81.2,-89.5111,-92.3291,0,0,0,0.0428467,-0.705658,-0.0368652,-0.706238,-111.933,60.6833,-36.9833,-7771,-28810
414,222892,9.81436,-0.105273,0.0239258,-81.2,-89.5111,-92.3291,0,0,0,0.0428467,-0.705658,-0.0368652,-0.706238,-111.975,60.675,-37.0167,-7771,-28810
420,222898,9.82871,-0.0861328,0.0191406,-81.2,-89.5111,-92.3291,0,0,0,0.0428772,-0.705658,-0.0368652,-0.706238,-112.025,60.6833,-37.0583,-7771,-28810
426,222904,9.78086,-0.0861328,0.00478516,-81.1945,-89.5056,-92.3291,0,0,0,0.0429077,-0.705658,-0.0368958,-0.706238,-112.033,60.6667,-37.05,-7771,-28810
432,222910,9.80957,-0.100488,0,-81.1945,-89.5056,-92.3236,0,0,0,0.0429077,-0.705627,-0.0368958,-0.706238,-112.042,60.6333,-37.0417,-7771,-28810
438,222916,9.82871,-0.0861328,0.0334961,-81.1945,-89.5111,-92.3291,0.183105,0.244141,-0.305176,0.0429077,-0.705627,-0.0368958,-0.706238,-112.067,60.6,-36.9917,-7771,-28810
444,222922,9.8,-0.0861328,0.00478516,-81.0242,-89.5111,-92.4939,-0.12207,0.0610352,-0.0610352,0.0429382,-0.705627,-0.0369263,-0.706238,-112.067,60.5917,-36.9417,-7771,-28810
450,222928,9.8,-0.100488,0.00957031,-81.0516,-89.5111,-92.4664,0,-0.12207,0,0.0429382,-0.705627,-0.0369568,-0.706238,-112.067,60.625,-36.925,-7771,-28810
456,222934,9.79521,-0.0957031,0.0239258,-81.0516,-89.5111,-92.4664,0.0610352,0.244141,0,0.0429382,-0.705627,-0.0369263,-0.706238,-112.042,60.65,-36.9583,-7780,-28809
462,222940,9.82393,-0.0813477,0.0287109,-80.9088,-89.5111,-92.6093,0.12207,0,-0.12207,0.0429382,-0.705627,-0.0369263,-0.706238,-112.017,60.675,-37,-7780,-28809
468,222946,9.82871,-0.090918,0,-80.8978,-89.5111,-92.6202,0,0,0,0.0429382,-0.705627,-0.0369568,-0.706238,-112.008,60.6583,-37.0167,-7780,-28809
474,222952,9.80957,-0.100488,0.0191406,-80.8978,-89.5111,-92.6202,0,-0.0610352,0,0.0429382,-0.705627,-0.0369263,-0.706238,-111.975,60.6417,-37.025,-7780,-28809
480,222958,9.81436,-0.0813477,0.0143555,-80.8539,-89.5111,-92.6587,0,0.12207,-0.0610352,0.0429382,-0.705627,-0.0369263,-0.706238,-111.975,60.6,-36.9917,-7780,-28809
486,222964,9.79521,-0.0430664,0,-80.8539,-89.5111,-92.6587,0.0610352,-0.0610352,-0.0610352,0.0429382,-0.705627,-0.0369568,-0.706238,-111.958,60.5833,-36.975,-7780,-28809
492,222970,9.82393,-0.0957031,0.00478516,-80.8868,-89.5111,-92.6312,0,-0.183105,0.0610352,0.0429382,-0.705627,-0.0369568,-0.706238,-111.942,60.5417,-36.9333,-7780,-28809
498,222976,9.8335,-0.0478516,0,-80.9967,-89.5111,-92.5214,-0.0610352,0.12207,0,0.0429382,-0.705627,-0.0369568,-0.706238,-111.925,60.5083,-36.9083,-7780,-28809
504,222982,9.81914,-0.0717773,0.0143555,-80.9253,-89.5111,-92.5928,0.0610352,0,-0.183105,0.0429382,-0.705627,-0.0369568,-0.706238,-111.883,60.4667,-36.875,-7780,-28809
510,222988,9.77607,-0.0717773,0.00478516,-80.8704,-89.5111,-92.6477,0,0.0610352,-0.0610352,0.0429077,-0.705627,-0.0369568,-0.706238,-111.833,60.4167,-36.825,-7780,-28809
516,222994,9.81914,-0.0957031,0,-80.8923,-89.5111,-92.6257,0,0,0,0.0429077,-0.705627,-0.0369263,-0.706238,-111.808,60.4083,-36.8333,-7780,-28809
522,223000,9.79043,-0.0765625,0.00478516,-80.8923,-89.5111,-92.6257,0,-0.0610352,0.305176,0.0429077,-0.705627,-0.0369263,-0.706238,-111.808,60.4167,-36.8417,-7780,-28809
528,223006,9.80957,-0.0813477,0,-80.9583,-89.5056,-92.5598,0,-0.0610352,-0.0610352,0.0429077,-0.705627,-0.0368958,-0.706238,-111.808,60.4333,-36.875,-7780,-28809
534,223012,9.81914,-0.0861328,0.00478516,-80.9912,-89.5056,-92.5323,0.0610352,0,0.0610352,0.0429077,-0.705627,-0.0368958,-0.706238,-111.817,60.4333,-36.9083,-7780,-28809
540,223018,9.81436,-0.0861328,0.0191406,-80.9637,-89.5056,-92.5653,0,0.0610352,0,0.0428772,-0.705627,-0.0368652,-0.706238,-111.842,60.3917,-36.9167,-7780,-28809
546,223024,9.80957,-0.0861328,0.0287109,-80.9473,-89.5111,-92.5818,0.183105,0.12207,-0.0610352,0.0428467,-0.705627,-0.0368652,-0.706238,-111.85,60.375,-36.95,-7780,-28809
552,223030,9.82871,-0.105273,0.00957031,-80.8704,-89.5111,-92.6587,0.0610352,-0.0610352,-0.244141,0.0428467,-0.705627,-0.0368652,-0.706238,-111.858,60.375,-36.9417,-7780,-28809
558,223036,9.80957,-0.0861328,0,-80.8813,-89.5111,-92.6477,-0.0610352,0.12207,0,0.0428467,-0.705627,-0.0368652,-0.706238,-111.867,60.4,-36.975,-7780,-28809
564,223042,9.81914,-0.0957031,0.00957031,-80.8154,-89.5111,-92.7136,0,0,-0.12207,0.0428467,-0.705627,-0.0368652,-0.706238,-111.875,60.425,-37.025,-7771,-28810
570,223048,9.83828,-0.0765625,0,-80.755,-89.5111,-92.7795,0.12207,0.12207,0.183105,0.0428162,-0.705627,-0.0368347,-0.706238,-111.908,60.4167,-37.075,-7780,-28809
576,223054,9.82393,-0.0813477,0.00478516,-80.7605,-89.5111,-92.7795,0,-0.12207,0,0.0427551,-0.705627,-0.0367737,-0.706268,-111.908,60.4,-37.075,-7780,-28809
582,223060,9.82871,-0.0957031,0.0143555,-80.8374,-89.5111,-92.7081,0.0610352,-0.12207,-0.12207,0.0427246,-0.705627,-0.0367432,-0.706268,-111.908,60.3917,-37.0667,-7780,-28809
588,223066,9.80957,-0.110059,0.0143555,-80.9033,-89.5111,-92.6477,0,-0.0610352,0,0.0426941,-0.705627,-0.0367126,-0.706268,-111.908,60.375,-37.075,-7780,-28809
594,223072,9.82393,-0.0861328,0.00478516,-80.9473,-89.5111,-92.6147,-0.0610352,0,0.0610352,0.0426636,-0.705658,-0.0366821,-0.706268,-111.9,60.3583,-37.075,-7780,-28809
600,223078,9.81914,-0.0717773,0.00957031,-80.9637,-89.5111,-92.6093,0.0610352,0,0,0.0426331,-0.705658,-0.0366516,-0.706268,-111.908,60.3333,-37.0583,-7780,-28809
606,223084,9.81914,-0.0813477,0.00957031,-81.0187,-89.5111,-92.5543,0,0,0,0.042572,-0.705658,-0.0365906,-0.706268,-111.917,60.3417,-37.0417,-7780,-28809
612,223090,9.80479,-0.0669922,0.00478516,-81.0242,-89.5111,-92.5543,0,-0.0610352,0,0.042572,-0.705658,-0.0365601,-0.706268,-111.917,60.3667,-37.0083,-7780,-28809
618,223096,9.81436,-0.0765625,-0.0143555,-81.0626,-89.5111,-92.5214,0.0610352,0,0.183105,0.0425415,-0.705658,-0.0365295,-0.706268,-111.908,60.4,-36.9833,-7780,-28809
624,223102,9.79521,-0.062207,0,-81.0846,-89.5056,-92.5049,0,-0.12207,0.12207,0.0424805,-0.705658,-0.036499,-0.706268,-111.892,60.4167,-36.9583,-7780,-28809
630,223108,9.81436,-0.0957031,0.0143555,-81.0736,-89.5056,-92.5269,0,0.183105,0,0.04245,-0.705658,-0.036438,-0.706268,-111.867,60.45,-36.9167,-7780,-28809
636,223114,9.8335,-0.0813477,0.0191406,-81.0956,-89.5056,-92.5159,0,0,0.183105,0.0423584,-0.705658,-0.0363464,-0.706268,-111.867,60.475,-36.8833,-7780,-28809
642,223120,9.8,-0.105273,0,-81.1176,-89.5056,-92.4994,0,0.0610352,-0.0610352,0.0423279,-0.705658,-0.0362854,-0.706268,-111.867,60.4833,-36.8833,-7780,-28809
648,223126,9.81914,-0.0717773,0.0191406,-81.0846,-89.5056,-92.5378,0,-0.0610352,0.244141,0.0422668,-0.705658,-0.0362549,-0.706268,-111.85,60.4833,-36.85,-7780,-28809
654,223132,9.80957,-0.0861328,0.00478516,-81.1505,-89.5056,-92.4829,-0.0610352,0.183105,-0.427246,0.0422363,-0.705688,-0.0361938,-0.706268,-111.858,60.475,-36.8,-7780,-28809
660,223138,9.81914,-0.090918,-0.00478516,-81.0571,-89.5056,-92.5928,0,-0.0610352,0,0.0421753,-0.705658,-0.0361633,-0.706268,-111.833,60.4833,-36.7417,-7780,-28809
666,223144,9.80479,-0.0717773,0.0143555,-80.9967,-89.5056,-92.6642,0.12207,0,0,0.0420837,-0.705688,-0.0360718,-0.706299,-111.833,60.5,-36.7167,-7780,-28809
672,223150,9.81436,-0.105273,0,-81.0022,-89.5056,-92.6642,0.12207,0,0.305176,0.0420532,-0.705688,-0.0360107,-0.706299,-111.833,60.5167,-36.7333,-7780,-28809
678,223156,9.81436,-0.0717773,0.00478516,-81.0352,-89.5056,-92.6367,0.0610352,0,-0.183105,0.0419922,-0.705688,-0.0359497,-0.706299,-111.833,60.525,-36.7167,-7771,-28810
684,223162,9.81436,-0.100488,0.0239258,-81.0297,-89.5056,-92.6532,0,-0.0610352,0,0.0419312,-0.705688,-0.0359192,-0.706299,-111.85,60.5333,-36.675,-7771,-28810
690,223168,9.80957,-0.0765625,0.00957031,-81.1395,-89.5056,-92.5543,0,-0.12207,-0.12207,0.0418396,-0.705688,-0.0358276,-0.706299,-111.85,60.5667,-36.6583,-7771,-28810
696,223174,9.80957,-0.0669922,0.0478516,-81.167,-89.5056,-92.5378,0,0,-0.244141,0.0418091,-0.705688,-0.0357666,-0.706299,-111.858,60.5833,-36.6667,-7771,-28810
702,223180,9.80957,-0.062207,0.0143555,-81.1505,-89.5056,-92.5598,-0.0610352,-0.12207,0.12207,0.0417786,-0.705688,-0.0357361,-0.706299,-111.85,60.6,-36.6917,-7771,-28810
708,223186,9.82393,-0.062207,0.0239258,-81.2329,-89.5056,-92.4774,0,0,-0.12207,0.041748,-0.705719,-0.0357056,-0.706299,-111.85,60.6333,-36.7167,-7771,-28810
714,223192,9.81436,-0.062207,0.00478516,-81.2219,-89.5056,-92.4884,0,-0.0610352,0,0.041748,-0.705719,-0.0357056,-0.706299,-111.858,60.65,-36.7,-7771,-28810
720,223198,9.82393,-0.0813477,0.00957031,-81.2219,-89.5056,-92.4939,0.0610352,0.0610352,-0.0610352,0.0417175,-0.705719,-0.0357056,-0.706299,-111.85,60.6417,-36.7917,-7771,-28810
726,223204,9.80957,-0.100488,0.0191406,-81.3153,-89.5056,-92.406,0,-0.0610352,-0.183105,0.041687,-0.705719,-0.035675,-0.706299,-111.817,60.625,-36.8167,-7771,-28810
732,223210,9.81914,-0.0669922,0,-81.3373,-89.5056,-92.3895,-0.0610352,-0.0610352,0.12207,0.0416565,-0.705719,-0.0356445,-0.706299,-111.767,60.6083,-36.8417,-7771,-28810
738,223216,9.80957,-0.0717773,0,-81.3867,-89.5056,-92.3456,0,-0.12207,-0.183105,0.041626,-0.705719,-0.035614,-0.706299,-111.742,60.5917,-36.8417,-7771,-28810
744,223222,9.82393,-0.100488,-0.00478516,-81.4471,-89.5111,-92.2906,0.0610352,0.0610352,0,0.0415955,-0.705719,-0.0355835,-0.706299,-111.717,60.575,-36.825,-7771,-28810
750,223228,9.82393,-0.0813477,0,-81.3043,-89.5111,-92.45,0.12207,0.183105,-0.244141,0.0414734,-0.705719,-0.0354919,-0.706299,-111.683,60.5333,-36.7,-7771,-28810
756,223234,9.81914,-0.090918,0.00957031,-81.2549,-89.5056,-92.5049,0.12207,0,-0.12207,0.0414124,-0.705719,-0.0354004,-0.706329,-111.683,60.5,-36.6583,-7771,-28810
762,223240,9.8,-0.0765625,0,-81.2549,-89.5111,-92.5159,0.0610352,0,-0.183105,0.0413513,-0.705719,-0.0353699,-0.706329,-111.683,60.475,-36.6083,-7771,-28810
768,223246,9.81914,-0.0861328,0.0382813,-81.2494,-89.5111,-92.5323,0.0610352,-0.0610352,-0.0610352,0.0412903,-0.705719,-0.0352783,-0.706329,-111.7,60.4333,-36.55,-7771,-28810
774,223252,9.80957,-0.0717773,0.0191406,-81.2878,-89.5111,-92.5049,0,0,0,0.0412292,-0.705719,-0.0352478,-0.706329,-111.725,60.4,-36.55,-7771,-28810
780,223258,9.80957,-0.0861328,0.00957031,-81.3043,-89.5111,-92.4994,0.0610352,0,0.0610352,0.0411682,-0.70575,-0.0351868,-0.706329,-111.783,60.35,-36.5917,-7771,-28810
786,223264,9.80479,-0.0765625,0.0143555,-81.2549,-89.5111,-92.5488,0,0,0.183105,0.0411377,-0.70575,-0.0351563,-0.706329,-111.817,60.3583,-36.6167,-7771,-28810
792,223270,9.8,-0.090918,0.0191406,-81.2769,-89.5111,-92.5323,0,0.12207,0,0.0411072,-0.70575,-0.0351257,-0.706329,-111.842,60.3833,-36.6,-7771,-28810
798,223276,9.82871,-0.090918,0.0239258,-81.2109,-89.5111,-92.6038,0,-0.12207,0,0.0410767,-0.70575,-0.0350952,-0.706329,-111.858,60.4083,-36.5667,-7771,-28810
804,223282,9.83828,-0.0861328,0.0143555,-81.2823,-89.5111,-92.5323,0,0,0,0.0410767,-0.70575,-0.0350952,-0.706329,-111.875,60.425,-36.5667,-7771,-28810
810,223288,9.79521,-0.0957031,0,-81.4307,-89.5111,-92.395,0.0610352,-0.244141,0,0.0410767,-0.70575,-0.0350647,-0.706329,-111.917,60.4583,-36.575,-7771,-28810
816,223294,9.80957,-0.0765625,0.0239258,-81.5076,-89.5111,-92.3181,0,0.0610352,-0.183105,0.0410767,-0.70575,-0.0350647,-0.706329,-111.925,60.475,-36.6,-7771,-28810
822,223300,9.8335,-0.105273,-0.00478516,-81.4526,-89.5111,-92.3676,0,0,0.12207,0.0410461,-0.70575,-0.0350647,-0.706329,-111.925,60.5,-36.6167,-7771,-28810
828,223306,9.81436,-0.0765625,0.00478516,-81.4636,-89.5111,-92.3566,0,0.0610352,0,0.0410461,-0.70575,-0.0350647,-0.706329,-111.917,60.5333,-36.6417,-7771,-28810
834,223312,9.8,-0.0813477,-0.0143555,-81.4307,-89.5111,-92.3895,0,0.0610352,0.183105,0.0410461,-0.70575,-0.0350342,-0.706329,-111.9,60.5667,-36.675,-7771,-28810
840,223318,9.79043,-0.0861328,0,-81.4581,-89.5111,-92.373,0.12207,-0.0610352,0,0.0409851,-0.70575,-0.0350037,-0.706329,-111.875,60.625,-36.725,-7771,-28810
846,223324,9.81436,-0.0957031,0,-81.4581,-89.5111,-92.373,0,0,0.0610352,0.0409851,-0.70575,-0.0349731,-0.706329,-111.875,60.6333,-36.7583,-7771,-28810
852,223330,9.80479,-0.0813477,0.0143555,-81.4691,-89.5111,-92.3676,0,-0.0610352,0.0610352,0.0409546,-0.70575,-0.0349426,-0.706329,-111.867,60.6333,-36.775,-7771,-28810
858,223336,9.80479,-0.0669922,0.00478516,-81.5131,-89.5056,-92.3291,0.0610352,0,0,0.0409241,-0.70575,-0.0349121,-0.706329,-111.842,60.5833,-36.7833,-7771,-28810
864,223342,9.82871,-0.062207,0.00957031,-81.5186,-89.5056,-92.3291,0,0,-0.12207,0.0409241,-0.70575,-0.0349121,-0.706329,-111.817,60.5667,-36.8,-7771,-28810
870,223348,9.81914,-0.0813477,0.0287109,-81.5845,-89.5056,-92.2687,-0.0610352,-0.12207,0,0.0408936,-0.70578,-0.0348816,-0.706329,-111.817,60.5333,-36.8583,-7771,-28810
876,223354,9.81914,-0.0957031,0.00478516,-81.546,-89.5111,-92.3016,0.0610352,0.0610352,0,0.0408936,-0.70575,-0.0348816,-0.706329,-111.833,60.5417,-36.9333,-7771,-28810
882,223360,9.80479,-0.0717773,0.0143555,-81.5131,-89.5056,-92.3346,0.0610352,-0.183105,0.12207,0.0408936,-0.70575,-0.0348816,-0.706329,-111.833,60.5417,-37.0167,-7771,-28810
888,223366,9.84307,-0.0813477,0,-81.6284,-89.5056,-92.2192,-0.0610352,0,0,0.0408936,-0.70578,-0.0348816,-0.706329,-111.825,60.5333,-37.0833,-7771,-28810
894,223372,9.82871,-0.090918,0.0143555,-81.6284,-89.5111,-92.2192,0,0.12207,0,0.0408936,-0.70578,-0.0348816,-0.706329,-111.817,60.525,-37.125,-7771,-28810
900,223378,9.81914,-0.100488,0,-81.557,-89.5056,-92.2906,0,0,0,0.0408936,-0.70575,-0.0348816,-0.706329,-111.792,60.5167,-37.15,-7771,-28810
906,223384,9.80479,-0.0813477,0.0287109,-81.4911,-89.5056,-92.3621,0,0,0,0.0408936,-0.70575,-0.0348816,-0.706329,-111.783,60.5,-37.1417,-7771,-28810
912,223390,9.81436,-0.0957031,0.0191406,-81.4911,-89.5056,-92.3621,0.12207,0.0610352,0.244141,0.0408936,-0.70575,-0.0348816,-0.706329,-111.792,60.4833,-37.1167,-7780,-28809
918,223396,9.81436,-0.090918,0.0191406,-81.4746,-89.5056,-92.373,0.0610352,-0.0610352,-0.0610352,0.0408936,-0.70575,-0.0348511,-0.706329,-111.8,60.475,-37.1333,-7780,-28809
924,223402,9.80957,-0.0813477,0,-81.5021,-89.5056,-92.3456,0.0610352,0.0610352,0.12207,0.0408936,-0.70575,-0.0348816,-0.706329,-111.808,60.45,-37.1333,-7780,-28809
930,223408,9.81914,-0.090918,0.0239258,-81.5076,-89.5056,-92.3401,0,-0.0610352,0.0610352,0.0409241,-0.70575,-0.0348816,-0.706329,-111.8,60.4333,-37.15,-7780,-28809
936,223414,9.80479,-0.0957031,0.00478516,-81.546,-89.5056,-92.3016,0.0610352,0,-0.183105,0.0409241,-0.70575,-0.0348816,-0.706329,-111.792,60.425,-37.125,-7780,-28809
942,223420,9.80957,-0.0574219,0.0143555,-81.5295,-89.5056,-92.3126,0.0610352,0.0610352,0.12207,0.0409241,-0.70575,-0.0348816,-0.706329,-111.792,60.4167,-37.0917,-7780,-28809
948,223426,9.80957,-0.0574219,0.00957031,-81.5076,-89.5056,-92.3401,-0.12207,0,-0.244141,0.0409241,-0.70575,-0.0348816,-0.706329,-111.792,60.4,-37.075,-7780,-28809
954,223432,9.82393,-0.0526367,0.0382813,-81.5845,-89.5056,-92.2522,0,-0.183105,0,0.0409241,-0.70575,-0.0349121,-0.706329,-111.8,60.3833,-37.025,-7780,-28809
960,223438,9.8335,-0.090918,0.0143555,-81.5625,-89.5056,-92.2742,0.12207,0.0610352,0.183105,0.0409851,-0.70575,-0.0349731,-0.706329,-111.783,60.4417,-37,-7780,-28809
966,223444,9.81914,-0.0574219,0.0191406,-81.4581,-89.5056,-92.3676,0,0.12207,-0.0610352,0.0410156,-0.70575,-0.0349731,-0.706329,-111.783,60.475,-37,-7780,-28809
972,223450,9.83828,-0.0861328,0,-81.3812,-89.5056,-92.4445,0,-0.0610352,0,0.0410461,-0.70575,-0.0350037,-0.706329,-111.8,60.5167,-37.0417,-7780,-28809
978,223456,9.83828,-0.062207,0.0239258,-81.4142,-89.5056,-92.406,0,-0.0610352,0,0.0410767,-0.70575,-0.0350342,-0.706329,-111.808,60.55,-37.0917,-7780,-28809
984,223462,9.82871,-0.0526367,0.0191406,-81.4032,-89.5056,-92.406,0,0.0610352,0,0.0411072,-0.70575,-0.0350647,-0.706329,-111.825,60.5583,-37.0833,-7780,-28809
990,223468,9.81914,-0.0861328,0.00478516,-81.4142,-89.5056,-92.395,0,0,-0.0610352,0.0411682,-0.70575,-0.0351257,-0.706329,-111.817,60.5833,-37.1,-7780,-28809
996,223474,9.82871,-0.0765625,-0.00957031,-81.4032,-89.5056,-92.395,-0.0610352,-0.0610352,0,0.0411987,-0.70575,-0.0351563,-0.706329,-111.808,60.6,-37.0833,-7780,-28809
1002,223480,9.82393,-0.090918,0.00957031,-81.4362,-89.5056,-92.3621,0,-0.0610352,0,0.0412292,-0.70575,-0.0351868,-0.706329,-111.817,60.6167,-37.0417,-7780,-28809
1008,223486,9.81914,-0.0813477,0,-81.4691,-89.5056,-92.3291,0.305176,0,0.183105,0.0412292,-0.70575,-0.0351868,-0.706329,-111.825,60.6333,-36.975,-7780,-28809
1014,223492,9.82393,-0.0861328,0.0191406,-81.5186,-89.5056,-92.2797,0.0610352,-0.0610352,0,0.0412598,-0.70575,-0.0351868,-0.706329,-111.833,60.6417,-36.9333,-7780,-28809
1020,223498,9.80957,-0.0669922,0.00957031,-81.4966,-89.5056,-92.2906,0.183105,0.0610352,0,0.0412598,-0.70575,-0.0352173,-0.706299,-111.85,60.6167,-36.8833,-7780,-28809
1026,223504,9.80957,-0.0526367,0,-81.4581,-89.5056,-92.3291,0,0,0,0.0412903,-0.70575,-0.0352478,-0.706299,-111.842,60.6167,-36.8917,-7780,-28809
1032,223510,9.78564,-0.062207,0.0334961,-81.4581,-89.5056,-92.3291,0,0,0,0.0412903,-0.70575,-0.0352478,-0.706299,-111.825,60.6,-36.9,-7780,-28809
1038,223516,9.81436,-0.0861328,0,-81.4581,-89.5056,-92.3291,-0.0610352,0.0610352,0,0.0413208,-0.70575,-0.0352783,-0.706299,-111.808,60.5917,-36.925,-7780,-28809
1044,223522,9.8335,-0.0669922,0.0191406,-81.3263,-89.5056,-92.45,0.12207,0.12207,-0.183105,0.0413208,-0.70575,-0.0352783,-0.706299,-111.775,60.6,-36.95,-7780,-28809
1050,223528,9.82393,-0.0813477,0.0239258,-81.3593,-89.5056,-92.4115,0.0610352,0,0.183105,0.0413513,-0.705719,-0.0353088,-0.706329,-111.767,60.6417,-36.9917,-7780,-28809
1056,223534,9.8,-0.0765625,-0.0143555,-81.3757,-89.5056,-92.4005,0,0.0610352,0,0.0413818,-0.705719,-0.0353394,-0.706299,-111.792,60.6667,-37.0083,-7780,-28809
1062,223540,9.81436,-0.090918,0.0334961,-81.3373,-89.5056,-92.4335,0.0610352,0.0610352,0,0.0413818,-0.705719,-0.0353394,-0.706329,-111.808,60.7,-36.9917,-7780,-28809
1068,223546,9.80957,-0.0813477,0.00957031,-81.3043,-89.5056,-92.4664,0,0,0.12207,0.0413818,-0.705719,-0.0353394,-0.706329,-111.85,60.7167,-36.9667,-7780,-28809
1074,223552,9.8335,-0.0861328,0.0143555,-81.3318,-89.5056,-92.439,0,-0.0610352,-0.183105,0.0413818,-0.705719,-0.0353394,-0.706329,-111.908,60.6917,-36.9083,-7780,-28809
1080,223558,9.81914,-0.0813477,0.00478516,-81.3098,-89.5056,-92.4554,0.0610352,-0.183105,0,0.0413818,-0.705719,-0.0353699,-0.706299,-111.9,60.675,-36.8917,-7780,-28809
1086,223564,9.80957,-0.0861328,0,-81.4142,-89.5056,-92.3511,0,-0.183105,0,0.0414124,-0.705719,-0.0354004,-0.706299,-111.892,60.65,-36.8583,-7780,-28809
1092,223570,9.79521,-0.0813477,0.0143555,-81.524,-89.5056,-92.2467,0,-0.0610352,0.12207,0.0414124,-0.70575,-0.0354004,-0.706299,-111.892,60.6667,-36.85,-7780,-28809
1098,223576,9.81914,-0.090918,0.0287109,-81.568,-89.5056,-92.1973,0,0.244141,0,0.0414124,-0.70575,-0.0354004,-0.706299,-111.9,60.6667,-36.8417,-7780,-28809
1104,223582,9.8,-0.062207,0,-81.4581,-89.5056,-92.3071,0,-0.0610352,0,0.0414124,-0.705719,-0.0354004,-0.706299,-111.933,60.6667,-36.875,-7780,-28809
1110,223588,9.80957,-0.0765625,0.00957031,-81.4581,-89.5056,-92.3016,0.12207,0,-0.12207,0.0414429,-0.705719,-0.0354309,-0.706299,-111.95,60.65,-36.8667,-7780,-28809
1116,223594,9.81436,-0.0717773,0,-81.4417,-89.5056,-92.3126,0,0,0,0.0414429,-0.705719,-0.0354309,-0.706299,-111.942,60.625,-36.825,-7780,-28809
1122,223600,9.81914,-0.0957031,0,-81.4417,-89.5056,-92.3181,0,0.12207,0,0.0414429,-0.705719,-0.0354309,-0.706299,-111.95,60.6083,-36.7833,-7780,-28809
1128,223606,9.80957,-0.0861328,0.0334961,-81.3757,-89.5111,-92.384,0,0.0610352,-0.244141,0.0414429,-0.705719,-0.0354309,-0.706299,-111.942,60.5917,-36.7333,-7780,-28809
1134,223612,9.81436,-0.0669922,0.0143555,-81.3702,-89.5056,-92.384,0,-0.0610352,0.244141,0.0414429,-0.705719,-0.0354309,-0.706299,-111.908,60.625,-36.7833,-7780,-28809
1140,223618,9.85264,-0.090918,0,-81.3977,-89.5111,-92.3621,-0.12207,0,0.12207,0.0414734,-0.705719,-0.0354614,-0.706299,-111.875,60.6667,-36.8333,-7780,-28809
1146,223624,9.81914,-0.100488,-0.00957031,-81.4032,-89.5056,-92.3511,0,-0.12207,0,0.0414734,-0.705719,-0.0354614,-0.706299,-111.85,60.6917,-36.9167,-7780,-28809
1152,223630,9.81914,-0.0669922,0.00957031,-81.4746,-89.5056,-92.2797,0.12207,0,0.183105,0.0414734,-0.705719,-0.0354614,-0.706299,-111.842,60.7,-36.9333,-7780,-28809
1158,223636,9.81436,-0.0813477,0.0430664,-81.4911,-89.5056,-92.2632,0,-0.183105,0,0.0414734,-0.705719,-0.0354614,-0.706299,-111.825,60.6917,-36.9583,-7780,-28809
1164,223642,9.82871,-0.0717773,0.0191406,-81.5735,-89.5111,-92.1753,0.0610352,0,-0.183105,0.0415039,-0.70575,-0.0354919,-0.706299,-111.808,60.6917,-36.975,-7780,-28809
1170,223648,9.83828,-0.090918,0.00957031,-81.5625,-89.5056,-92.1808,0,0.12207,0,0.0415649,-0.705719,-0.035553,-0.706299,-111.817,60.6833,-36.9833,-7780,-28809
1176,223654,9.80957,-0.0669922,0.0191406,-81.4856,-89.5111,-92.2522,0,0.12207,0,0.0415955,-0.705719,-0.0355835,-0.706299,-111.833,60.675,-36.9833,-7780,-28809
1182,223660,9.82871,-0.0669922,0.0239258,-81.4087,-89.5056,-92.3181,0,-0.0610352,0,0.041626,-0.705719,-0.035614,-0.706299,-111.833,60.6667,-37.0083,-7780,-28809
1188,223666,9.81436,-0.0813477,0.00478516,-81.4362,-89.5056,-92.2852,0,0,0,0.041687,-0.705719,-0.035675,-0.706299,-111.85,60.6583,-37.0333,-7780,-28809
1194,223672,9.81914,-0.0813477,0.0239258,-81.4252,-89.5111,-92.2852,0,0,0,0.0417175,-0.705719,-0.0357056,-0.706299,-111.842,60.6583,-37.1333,-7780,-28809
1200,223678,9.82871,-0.0813477,0.0382813,-81.4526,-89.5056,-92.2467,0,0.12207,0,0.0418091,-0.705719,-0.0357971,-0.706268,-111.808,60.65,-37.1167,-7780,-28809
1206,223684,9.80957,-0.0574219,0.0191406,-81.3702,-89.5111,-92.3181,0,0.0610352,0,0.0418701,-0.705719,-0.0358582,-0.706268,-111.783,60.6333,-37.075,-7780,-28809
1212,223690,9.82871,-0.0765625,0.0191406,-81.3263,-89.5111,-92.3566,-0.0610352,0.12207,-0.366211,0.0419312,-0.705688,-0.0359192,-0.706268,-111.733,60.625,-37.0333,-7780,-28809
1218,223696,9.82393,-0.0717773,0.0191406,-81.2109,-89.5111,-92.4609,0,0,0.12207,0.0419922,-0.705688,-0.0360107,-0.706268,-111.7,60.6,-36.9667,-7780,-28809
1224,223702,9.80957,-0.0861328,0.00957031,-81.2,-89.5111,-92.45,0,0,0,0.0420532,-0.705688,-0.0360718,-0.706268,-111.7,60.6,-36.9333,-7780,-28809
1230,223708,9.81436,-0.0813477,0.0191406,-81.2219,-89.5056,-92.4115,0,0.0610352,0,0.0422058,-0.705688,-0.0361938,-0.706268,-111.708,60.6167,-36.9417,-7780,-28809
1236,223714,9.82393,-0.0957031,0,-81.178,-89.5056,-92.45,-0.0610352,-0.183105,0,0.0422668,-0.705688,-0.0362549,-0.706268,-111.717,60.65,-36.9667,-7780,-28809
1242,223720,9.84785,-0.0861328,-0.00478516,-81.2714,-89.5111,-92.3456,0,0,-0.244141,0.0423279,-0.705688,-0.0363159,-0.706268,-111.717,60.6583,-36.9583,-7780,-28809
1248,223726,9.82393,-0.0765625,0.0430664,-81.2439,-89.5111,-92.3676,-0.0610352,-0.12207,0.0610352,0.0423584,-0.705688,-0.036377,-0.706268,-111.725,60.65,-36.9417,-7780,-28809
1254,223732,9.82393,-0.062207,0.0143555,-81.2219,-89.5111,-92.373,-0.0610352,0.12207,-0.12207,0.0424194,-0.705688,-0.0364075,-0.706238,-111.75,60.6333,-36.9083,-7780,-28809
1260,223738,9.81436,-0.0813477,0,-81.1835,-89.5111,-92.4005,0,-0.0610352,0,0.042511,-0.705658,-0.0365295,-0.706238,-111.767,60.6417,-36.9083,-7780,-28809
1266,223744,9.8335,-0.0717773,0,-81.2109,-89.5111,-92.3621,0.12207,-0.0610352,0,0.042572,-0.705658,-0.0365601,-0.706238,-111.775,60.625,-36.9,-7780,-28809
1272,223750,9.81914,-0.0717773,0.0191406,-81.2439,-89.5111,-92.3291,0,-0.0610352,0.244141,0.0426025,-0.705658,-0.0365906,-0.706238,-111.767,60.625,-36.8833,-7780,-28809
1278,223756,9.81436,-0.0813477,0,-81.2933,-89.5111,-92.2742,-0.0610352,0.183105,-0.12207,0.0426331,-0.705658,-0.0366211,-0.706238,-111.783,60.625,-36.9,-7780,-28809
1284,223762,9.82871,-0.0861328,0.00478516,-81.2,-89.5111,-92.3566,0.12207,-0.0610352,-0.0610352,0.0426636,-0.705658,-0.0366516,-0.706238,-111.783,60.6167,-36.9167,-7780,-28809
1290,223768,9.82871,-0.0813477,0.0191406,-81.1945,-89.5111,-92.3566,0.12207,0,0,0.0426941,-0.705658,-0.0367126,-0.706238,-111.783,60.6,-36.9583,-7780,-28809
1296,223774,9.81914,-0.0861328,0.00957031,-81.189,-89.5111,-92.3621,0,0.12207,0,0.0427246,-0.705658,-0.0367432,-0.706238,-111.767,60.575,-37.0167,-7780,-28809
1302,223780,9.82871,-0.0717773,0.0478516,-81.1176,-89.5111,-92.428,0.12207,0.12207,0.244141,0.0427551,-0.705658,-0.0367432,-0.706238,-111.767,60.575,-37.025,-7780,-28809
1308,223786,9.81914,-0.0717773,0.0143555,-81.0626,-89.5056,-92.4774,-0.12207,-0.0610352,0.12207,0.0427856,-0.705627,-0.0368042,-0.706238,-111.767,60.575,-37.0583,-7780,-28809
1314,223792,9.81914,-0.0813477,0.00478516,-81.1285,-89.5056,-92.395,0.12207,-0.0610352,0,0.0428467,-0.705627,-0.0368347,-0.706238,-111.75,60.5833,-37.0667,-7780,-28809
1320,223798,9.81436,-0.0717773,-0.00957031,-81.1121,-89.5111,-92.406,0.0610352,-0.183105,0.0610352,0.0429077,-0.705627,-0.0369263,-0.706238,-111.725,60.5917,-37.0583,-7780,-28809
1326,223804,9.80957,-0.0765625,0,-81.2219,-89.5111,-92.2961,0.12207,0,-0.12207,0.0429382,-0.705658,-0.0369263,-0.706238,-111.7,60.6,-37.025,-7780,-28809
1332,223810,9.80479,-0.062207,0,-81.2054,-89.5111,-92.3071,-0.12207,0.12207,0.183105,0.0429382,-0.705627,-0.0369568,-0.706238,-111.658,60.6,-37.0167,-7780,-28809
1338,223816,9.80957,-0.0717773,0.00957031,-81.156,-89.5111,-92.3621,0,0.12207,0,0.0429688,-0.705627,-0.0369568,-0.706238,-111.667,60.6083,-36.9917,-7780,-28809
1344,223822,9.79521,-0.0861328,0.00957031,-81.0791,-89.5056,-92.428,0,0,0,0.0429688,-0.705627,-0.0369568,-0.706238,-111.65,60.575,-36.9417,-7780,-28809
1350,223828,9.80957,-0.0813477,0.00957031,-81.0297,-89.5111,-92.4829,0,0,0.244141,0.0429688,-0.705627,-0.0369568,-0.706238,-111.642,60.5667,-36.925,-7780,-28809
1356,223834,9.80957,-0.0861328,0.0239258,-81.0516,-89.5056,-92.4609,0.0610352,0.183105,0,0.0429688,-0.705627,-0.0369568,-0.706238,-111.617,60.5583,-36.925,-7780,-28809
1362,223840,9.81436,-0.0813477,0,-80.9473,-89.5056,-92.5653,0,0,0,0.0429688,-0.705627,-0.0369568,-0.706238,-111.592,60.5667,-36.9167,-7780,-28809
1368,223846,9.81914,-0.0813477,0.0143555,-80.9473,-89.5111,-92.5653,0.0610352,-0.0610352,0,0.0429382,-0.705627,-0.0369568,-0.706238,-111.592,60.6,-36.8833,-7780,-28809
1374,223852,9.81914,-0.0813477,0,-80.9967,-89.5056,-92.5214,0,0,0.12207,0.0429382,-0.705627,-0.0369263,-0.706238,-111.633,60.675,-36.8,-7780,-28809
1380,223858,9.78564,-0.090918,0.00957031,-80.9747,-89.5056,-92.5433,0,0.0610352,-0.305176,0.0429382,-0.705627,-0.0369263,-0.706238,-111.667,60.6917,-36.775,-7771,-28810
1386,223864,9.81436,-0.0574219,-0.00478516,-80.9143,-89.5111,-92.6093,0,0,0.0610352,0.0429077,-0.705627,-0.0368958,-0.706238,-111.692,60.7,-36.7833,-7771,-28810
1392,223870,9.82393,-0.0861328,0.00957031,-80.9198,-89.5056,-92.6038,0.0610352,0.12207,-0.12207,0.0428772,-0.705627,-0.0368958,-0.706238,-111.708,60.7,-36.8167,-7771,-28810
1398,223876,9.82393,-0.0861328,0.0334961,-80.8429,-89.5056,-92.6862,-0.0610352,0,0.183105,0.0428772,-0.705627,-0.0368652,-0.706238,-111.742,60.6917,-36.8833,-7771,-28810
1404,223882,9.8,-0.062207,0.0334961,-80.8649,-89.5056,-92.6642,0.0610352,0,0,0.0428772,-0.705627,-0.0368652,-0.706238,-111.767,60.675,-36.9167,-7771,-28810
1410,223888,9.82871,-0.105273,0,-80.8704,-89.5056,-92.6532,-0.12207,0.183105,-0.12207,0.0428772,-0.705627,-0.0368652,-0.706238,-111.767,60.6833,-36.925,-7771,-28810
1416,223894,9.80957,-0.0717773,0.0191406,-80.755,-89.5056,-92.774,0,0,0.183105,0.0428772,-0.705627,-0.0368652,-0.706268,-111.75,60.6833,-36.925,-7771,-28810
1422,223900,9.84785,-0.090918,0.0334961,-80.7715,-89.5056,-92.7576,-0.12207,0,0.12207,0.0428772,-0.705627,-0.0368652,-0.706268,-111.742,60.7,-36.9417,-7771,-28810
1428,223906,9.79521,-0.0765625,0.00478516,-80.7825,-89.5056,-92.7411,0.0610352,0.0610352,0,0.0429077,-0.705627,-0.0368652,-0.706238,-111.725,60.7,-36.9833,-7771,-28810
1434,223912,9.82871,-0.0861328,0.0574219,-80.7056,-89.5056,-92.8125,-0.12207,0.0610352,0,0.0429382,-0.705627,-0.0369263,-0.706268,-111.675,60.6917,-37.0083,-7771,-28810
1440,223918,9.8335,-0.090918,0.0382813,-80.722,-89.5056,-92.7905,0,0,0,0.0429993,-0.705627,-0.0369568,-0.706238,-111.658,60.6833,-36.9917,-7771,-28810
1446,223924,9.80479,-0.0574219,0.0191406,-80.7111,-89.5056,-92.7905,0,0,0,0.0430298,-0.705597,-0.0370178,-0.706238,-111.633,60.675,-36.9583,-7771,-28810
1452,223930,9.80957,-0.100488,0.0287109,-80.7001,-89.5056,-92.7905,0,0,0,0.0430908,-0.705597,-0.0370789,-0.706238,-111.617,60.6667,-36.9417,-7771,-28810
1458,223936,9.81914,-0.100488,0.0191406,-80.6946,-89.5056,-92.7905,0,0,0,0.0431519,-0.705597,-0.0371399,-0.706238,-111.592,60.675,-36.975,-7771,-28810
1464,223942,9.8,-0.0813477,0.0143555,-80.6726,-89.5056,-92.7905,0,0,0,0.0432739,-0.705597,-0.037262,-0.706238,-111.558,60.675,-37.0167,-7771,-28810
1470,223948,9.8,-0.0957031,-0.00478516,-80.6671,-89.5056,-92.7905,0,0,0,0.043335,-0.705597,-0.0372925,-0.706238,-111.558,60.6583,-37.0167,-7771,-28810
1476,223954,9.82393,-0.0861328,0,-80.6561,-89.5056,-92.7905,0,0,0,0.0433655,-0.705597,-0.0373535,-0.706238,-111.583,60.65,-37.0083,-7771,-28810
1482,223960,9.78086,-0.0813477,0.0382813,-80.6506,-89.5056,-92.7905,0,0,0,0.043396,-0.705597,-0.037384,-0.706238,-111.592,60.625,-36.9583,-7771,-28810
1488,223966,9.8,-0.062207,0.0143555,-80.6451,-89.5056,-92.7905,0,0,0,0.043457,-0.705597,-0.0374146,-0.706238,-111.6,60.6083,-36.9167,-7771,-28810
1494,223972,9.8,-0.0669922,0.0143555,-80.6287,-89.5056,-92.7905,0,0,0,0.0435486,-0.705566,-0.0375061,-0.706207,-111.625,60.5917,-36.8833,-7771,-28810
1500,223978,9.81436,-0.0861328,0.0143555,-80.6232,-89.5056,-92.7905,0,0,0,0.0436096,-0.705566,-0.0375671,-0.706207,-111.65,60.5917,-36.9,-7771,-28810
1506,223984,9.81914,-0.0717773,0.0287109,-80.6122,-89.5056,-92.7905,0,0,0,0.0436401,-0.705566,-0.0376282,-0.706207,-111.667,60.5917,-36.9417,-7771,-28810
1512,223990,9.80479,-0.0861328,0.00478516,-80.6012,-89.5056,-92.7905,0,0,0,0.0437012,-0.705566,-0.0376892,-0.706207,-111.7,60.575,-36.9333,-7771,-28810
1518,223996,9.82393,-0.0765625,0.0287109,-80.5957,-89.5056,-92.7905,0,0,0,0.0437622,-0.705566,-0.0377197,-0.706207,-111.733,60.5667,-36.9667,-7771,-28810
1524,224002,9.80957,-0.0813477,0,-80.5737,-89.5056,-92.7905,0,0,0,0.0438538,-0.705566,-0.0378418,-0.706207,-111.783,60.5583,-37.0167,-7771,-28810
1530,224008,9.83828,-0.0813477,0.0382813,-80.5682,-89.5056,-92.7905,0,0,0,0.0439148,-0.705566,-0.0378723,-0.706207,-111.8,60.575,-37.0167,-7771,-28810
1536,224014,9.83828,-0.0813477,0.0191406,-80.5627,-89.5056,-92.7905,0,0,0,0.0439758,-0.705566,-0.0379333,-0.706207,-111.8,60.6,-37.0333,-7771,-28810
1542,224020,9.81914,-0.090918,0.00957031,-80.5518,-89.5056,-92.7905,0,0,0,0.0440369,-0.705536,-0.0379944,-0.706207,-111.792,60.6083,-37.0083,-7771,-28810
1548,224026,9.82393,-0.062207,0.00957031,-80.5408,-89.5056,-92.7905,0,0,0,0.0440674,-0.705536,-0.0380554,-0.706207,-111.808,60.6333,-36.9833,-7771,-28810
1554,224032,9.8335,-0.090918,0.0191406,-80.5243,-89.5056,-92.7905,0,0,0,0.0441895,-0.705536,-0.038147,-0.706177,-111.8,60.7083,-36.9833,-7771,-28810
1560,224038,9.80479,-0.0717773,0.0239258,-80.5133,-89.5056,-92.7905,0,0,0,0.0442505,-0.705536,-0.038208,-0.706177,-111.8,60.725,-37,-7771,-28810
1566,224044,9.81914,-0.0813477,0.00478516,-80.5023,-89.5056,-92.7905,0,0,0,0.0443115,-0.705536,-0.038269,-0.706177,-111.792,60.7333,-37.0083,-7771,-28810
1572,224050,9.78564,-0.100488,0.0191406,-80.4968,-89.5056,-92.7905,0,0,0,0.044342,-0.705536,-0.0383301,-0.706177,-111.792,60.7417,-37,-7771,-28810
1578,224056,9.80479,-0.090918,0.0334961,-80.4749,-89.5056,-92.7905,0,0,0,0.0444031,-0.705536,-0.0383911,-0.706177,-111.792,60.7167,-36.9417,-7771,-28810
1584,224062,9.81914,-0.114844,0,-80.4639,-89.5056,-92.7905,0,0,0,0.0445251,-0.705505,-0.0385132,-0.706177,-111.758,60.6833,-36.9,-7771,-28810
1590,224068,9.80957,-0.0717773,0.0239258,-80.4584,-89.5056,-92.7905,0,0,0,0.0445862,-0.705505,-0.0385742,-0.706177,-111.733,60.6667,-36.8833,-7771,-28810
1596,224074,9.82393,-0.0765625,0.0239258,-80.4474,-89.5056,-92.7905,0,0,0,0.0446472,-0.705505,-0.0386353,-0.706146,-111.708,60.6583,-36.9083,-7771,-28810
1602,224080,9.80957,-0.0813477,0.0334961,-80.4364,-89.5056,-92.796,0,0,0,0.0447083,-0.705505,-0.0386963,-0.706146,-111.692,60.6667,-36.975,-7771,-28810
1608,224086,9.81914,-0.0717773,0.0287109,-80.4144,-89.5056,-92.796,0,0,0,0.0447998,-0.705505,-0.0387573,-0.706146,-111.692,60.6917,-37.0083,-7771,-28810
1614,224092,9.79521,-0.0574219,0.0191406,-80.3979,-89.5056,-92.7905,0,0,0,0.0449524,-0.705505,-0.0389099,-0.706146,-111.658,60.7167,-37.1083,-7780,-28809
1620,224098,9.81914,-0.0957031,0.0143555,-80.387,-89.5056,-92.796,0,0,0,0.0450439,-0.705475,-0.0390015,-0.706146,-111.633,60.725,-37.1833,-7780,-28809
1626,224104,9.82871,-0.0957031,-0.00478516,-80.3705,-89.5056,-92.7905,0,0,0,0.045105,-0.705475,-0.039093,-0.706146,-111.608,60.7417,-37.275,-7780,-28809
1632,224110,9.80957,-0.0669922,0.00957031,-80.365,-89.5056,-92.796,0,0,0,0.045166,-0.705475,-0.0391541,-0.706146,-111.608,60.7583,-37.325,-7780,-28809
1638,224116,9.80957,-0.0813477,-0.00957031,-80.3485,-89.5056,-92.796,0,0,0,0.0452271,-0.705475,-0.0392151,-0.706116,-111.592,60.775,-37.3167,-7780,-28809
1644,224122,9.79043,-0.0957031,0.0191406,-80.343,-89.5056,-92.796,0,0,0,0.0452881,-0.705475,-0.0392761,-0.706116,-111.592,60.7583,-37.1667,-7780,-28809
1650,224128,9.81914,-0.090918,0.00957031,-80.3375,-89.5056,-92.796,0,0,0,0.0453186,-0.705475,-0.0393066,-0.706116,-111.592,60.7417,-37.075,-7780,-28809
1656,224134,9.81436,-0.0669922,0.0191406,-80.3375,-89.5056,-92.796,0,0,0,0.0453491,-0.705475,-0.0393066,-0.706116,-111.6,60.725,-37.0167,-7780,-28809
1662,224140,9.80479,-0.0813477,0,-80.332,-89.5056,-92.7905,0,0,0,0.0453796,-0.705475,-0.0393372,-0.706116,-111.617,60.7083,-36.9833,-7780,-28809
1668,224146,9.81436,-0.090918,0.0143555,-80.3265,-89.5056,-92.7905,0,0,0,0.0453796,-0.705475,-0.0393677,-0.706116,-111.608,60.6917,-36.975,-7780,-28809
1674,224152,9.81436,-0.0813477,0,-80.321,-89.5056,-92.796,0,0,0,0.0454407,-0.705475,-0.0393982,-0.706116,-111.633,60.7,-36.9,-7780,-28809
1680,224158,9.85264,-0.0861328,0.0239258,-80.3156,-89.5056,-92.796,0,0,0,0.0454407,-0.705444,-0.0394287,-0.706116,-111.633,60.7,-36.8667,-7780,-28809
1686,224164,9.82393,-0.0957031,0.0143555,-80.3101,-89.5056,-92.796,0,0,0,0.0454712,-0.705444,-0.0394287,-0.706116,-111.625,60.7083,-36.825,-7780,-28809
1692,224170,9.8335,-0.0717773,0.0287109,-80.3101,-89.5056,-92.796,0,0,0,0.0455017,-0.705444,-0.0394592,-0.706116,-111.608,60.6833,-36.825,-7780,-28809
1698,224176,9.81436,-0.0813477,0.0478516,-80.2936,-89.5056,-92.796,0,0,0,0.0455322,-0.705444,-0.0394897,-0.706116,-111.6,60.6667,-36.85,-7780,-28809
1704,224182,9.79521,-0.0813477,0,-80.2881,-89.5056,-92.796,0,0,0,0.0456238,-0.705444,-0.0395813,-0.706116,-111.617,60.6583,-36.8333,-7780,-28809
1710,224188,9.80957,-0.0717773,0.0239258,-80.2826,-89.5056,-92.796,0,0,0,0.0456543,-0.705444,-0.0396423,-0.706116,-111.633,60.675,-36.8167,-7780,-28809
1716,224194,9.82871,-0.062207,0,-80.2771,-89.5056,-92.7905,0,0,0,0.0457153,-0.705444,-0.0396729,-0.706116,-111.667,60.7,-36.8,-7780,-28809
1722,224200,9.8335,-0.0669922,0,-80.2716,-89.5056,-92.796,0,0,0,0.0457458,-0.705444,-0.0397034,-0.706116,-111.675,60.7083,-36.7917,-7780,-28809
1728,224206,9.80479,-0.0669922,0.00478516,-80.2606,-89.5056,-92.796,0,0,0,0.0457764,-0.705444,-0.0397339,-0.706085,-111.683,60.7333,-36.85,-7780,-28809
1734,224212,9.80957,-0.0861328,0.0239258,-80.2606,-89.5056,-92.796,0,0,0,0.0458069,-0.705444,-0.0397949,-0.706085,-111.683,60.7167,-36.8917,-7780,-28809
1740,224218,9.8,-0.0813477,-0.0143555,-80.2551,-89.5056,-92.796,0,0,0,0.0458374,-0.705444,-0.0397949,-0.706085,-111.675,60.7083,-36.9333,-7780,-28809
1746,224224,9.81436,-0.090918,0.0382813,-80.2551,-89.5056,-92.796,0,0,0,0.0458374,-0.705444,-0.0397949,-0.706085,-111.658,60.6917,-36.9583,-7780,-28809
1752,224230,9.81914,-0.0765625,0,-80.2496,-89.5056,-92.796,0,0,0,0.0458374,-0.705444,-0.0398254,-0.706085,-111.642,60.6917,-36.9917,-7780,-28809
1758,224236,9.81914,-0.0765625,0.0143555,-80.2496,-89.5056,-92.796,0,0,0,0.0458374,-0.705444,-0.0398254,-0.706085,-111.592,60.7,-37.0417,-7780,-28809
1764,224242,9.82393,-0.0765625,0.0239258,-80.2441,-89.5056,-92.796,0,0,0,0.0458679,-0.705444,-0.039856,-0.706085,-111.575,60.725,-37.075,-7780,-28809
1770,224248,9.81436,-0.0717773,0.0191406,-80.2386,-89.5056,-92.796,0,0,0,0.0458984,-0.705414,-0.0398865,-0.706085,-111.558,60.7167,-37.1083,-7780,-28809
1776,224254,9.81914,-0.0717773,0,-80.2332,-89.5056,-92.796,0,0,0,0.045929,-0.705414,-0.039917,-0.706085,-111.533,60.7,-37.1417,-7780,-28809
1782,224260,9.80957,-0.0813477,0,-80.2332,-89.5056,-92.796,0,0,0,0.0459595,-0.705414,-0.039917,-0.706085,-111.525,60.7,-37.1833,-7780,-28809
1788,224266,9.82393,-0.0957031,-0.0191406,-80.2386,-89.5056,-92.796,0,0,0,0.0459595,-0.705414,-0.0399475,-0.706085,-111.5,60.7167,-37.275,-7780,-28809
1794,224272,9.81914,-0.0478516,0.00478516,-80.2386,-89.5056,-92.796,0,0,0,0.045929,-0.705414,-0.039917,-0.706085,-111.475,60.725,-37.3167,-7780,-28809
1800,224278,9.80957,-0.0957031,-0.00478516,-80.2386,-89.5056,-92.796,0,0,0,0.045929,-0.705414,-0.0398865,-0.706085,-111.475,60.7333,-37.3417,-7780,-28809
1806,224284,9.80957,-0.0813477,0.00478516,-80.2441,-89.5056,-92.796,0,0,0,0.0458984,-0.705444,-0.039856,-0.706085,-111.467,60.7083,-37.3583,-7780,-28809
1812,224290,9.80479,-0.0861328,0.0239258,-80.2496,-89.5056,-92.796,0,0,0,0.0458679,-0.705444,-0.0398254,-0.706085,-111.475,60.675,-37.3333,-7780,-28809
1818,224296,9.81436,-0.100488,0.0143555,-80.2551,-89.5056,-92.796,0,0,0,0.0458374,-0.705444,-0.0398254,-0.706085,-111.483,60.6333,-37.275,-7780,-28809
1824,224302,9.80479,-0.0669922,0.00957031,-80.2551,-89.5056,-92.796,0,0,0,0.0458069,-0.705444,-0.0397949,-0.706085,-111.492,60.625,-37.25,-7780,-28809
1830,224308,9.81914,-0.0765625,0,-80.2606,-89.5056,-92.796,0,0,0,0.0458069,-0.705444,-0.0397644,-0.706085,-111.5,60.6167,-37.2167,-7780,-28809
1836,224314,9.80957,-0.0717773,0.0143555,-80.2606,-89.5056,-92.796,0,0,0,0.0457764,-0.705444,-0.0397644,-0.706085,-111.517,60.6083,-37.1667,-7780,-28809
1842,224320,9.80479,-0.0717773,0.0239258,-80.2661,-89.5056,-92.796,0,0,0,0.0457764,-0.705444,-0.0397339,-0.706085,-111.533,60.5917,-37.1333,-7780,-28809
1848,224326,9.79521,-0.0861328,0.0191406,-80.2661,-89.5056,-92.796,0,0,0,0.0457458,-0.705444,-0.0397339,-0.706085,-111.575,60.575,-37.1083,-7780,-28809
1854,224332,9.8,-0.0861328,0.0334961,-80.2661,-89.5056,-92.796,0,0,0,0.0457458,-0.705444,-0.0397339,-0.706085,-111.6,60.5667,-37.1167,-7780,-28809
1860,224338,9.81436,-0.0861328,0.0382813,-80.2661,-89.5056,-92.796,0,0,0,0.0457764,-0.705444,-0.0397339,-0.706085,-111.617,60.5667,-37.1333,-7780,-28809
1866,224344,9.81914,-0.090918,0,-80.2606,-89.5056,-92.796,0,0,0,0.0458069,-0.705444,-0.0397644,-0.706085,-111.625,60.575,-37.175,-7780,-28809
1872,224350,9.80957,-0.0765625,0,-80.2551,-89.5056,-92.796,0,0,0,0.0458069,-0.705444,-0.0397949,-0.706085,-111.642,60.5833,-37.1833,-7780,-28809
1878,224356,9.80957,-0.0717773,0.0143555,-80.2496,-89.5056,-92.796,0,0,0,0.0458069,-0.705444,-0.0397949,-0.706085,-111.675,60.6083,-37.1167,-7780,-28809
1884,224362,9.82393,-0.100488,0.0239258,-80.2496,-89.5056,-92.796,0,0,0,0.0458374,-0.705444,-0.0398254,-0.706085,-111.683,60.6167,-37.1,-7780,-28809
1890,224368,9.8335,-0.090918,0.0239258,-80.2441,-89.5056,-92.796,0,0,0,0.0458679,-0.705444,-0.039856,-0.706085,-111.675,60.6333,-37.0917,-7780,-28809
1896,224374,9.80957,-0.0813477,0.0287109,-80.2441,-89.5056,-92.796,0,0,0,0.0458984,-0.705444,-0.039856,-0.706085,-111.675,60.6583,-37.0833,-7780,-28809
1902,224380,9.80957,-0.090918,-0.00957031,-80.2386,-89.5056,-92.796,0,0,0,0.045929,-0.705414,-0.0398865,-0.706085,-111.675,60.6667,-37.0833,-7780,-28809
1908,224386,9.79521,-0.0669922,0.0191406,-80.2332,-89.5056,-92.796,0,0,0,0.045929,-0.705414,-0.039917,-0.706085,-111.642,60.6667,-37.1583,-7780,-28809
1914,224392,9.80479,-0.0813477,0.0143555,-80.2277,-89.5056,-92.796,0,0,0,0.0459595,-0.705414,-0.0399475,-0.706085,-111.617,60.65,-37.2083,-7780,-28809
1920,224398,9.81914,-0.0765625,0.00957031,-80.2277,-89.5056,-92.796,0,0,0,0.04599,-0.705414,-0.0399475,-0.706085,-111.6,60.6417,-37.2583,-7780,-28809
1926,224404,9.82393,-0.0717773,0.0239258,-80.2277,-89.5056,-92.796,0,0,0,0.04599,-0.705414,-0.039978,-0.706085,-111.592,60.6417,-37.2667,-7780,-28809
1932,224410,9.81914,-0.110059,0.0191406,-80.2222,-89.5056,-92.796,0,0,0,0.0460205,-0.705414,-0.0400085,-0.706085,-111.592,60.625,-37.2333,-7780,-28809
1938,224416,9.8,-0.0861328,-0.00478516,-80.2222,-89.5056,-92.796,0,0,0,0.0460205,-0.705414,-0.0400085,-0.706085,-111.617,60.5917,-37.15,-7780,-28809
1944,224422,9.80957,-0.0861328,0.0430664,-80.2222,-89.5056,-92.796,0,0,0,0.0460205,-0.705414,-0.0400085,-0.706085,-111.633,60.5583,-37.1083,-7780,-28809
1950,224428,9.81914,-0.0957031,0.0239258,-80.2222,-89.5056,-92.796,0,0,0,0.046051,-0.705414,-0.0400085,-0.706085,-111.667,60.5583,-37.0917,-7780,-28809
1956,224434,9.81436,-0.0765625,0.0239258,-80.2167,-89.5056,-92.796,0,0,0,0.046051,-0.705414,-0.0400391,-0.706085,-111.7,60.5667,-37.1333,-7780,-28809
1962,224440,9.8335,-0.0574219,0.0191406,-80.2112,-89.5056,-92.796,0,0,0,0.0460815,-0.705414,-0.0400696,-0.706085,-111.717,60.6,-37.15,-7780,-28809
1968,224446,9.80479,-0.100488,0,-80.2057,-89.5056,-92.796,0,0,0,0.0461121,-0.705414,-0.0400696,-0.706085,-111.7,60.65,-37.1917,-7780,-28809
1974,224452,9.79043,-0.0669922,-0.00957031,-80.2057,-89.5056,-92.796,0,0,0,0.0461121,-0.705414,-0.0401001,-0.706085,-111.667,60.6583,-37.2083,-7780,-28809
1980,224458,9.82871,-0.0669922,0.0287109,-80.2057,-89.5056,-92.796,0,0,0,0.0461121,-0.705414,-0.0401001,-0.706085,-111.633,60.6583,-37.25,-7780,-28809
1986,224464,9.80957,-0.090918,0.0143555,-80.2057,-89.5056,-92.796,0,0,0,0.0461121,-0.705414,-0.0401001,-0.706085,-111.625,60.65,-37.2833,-7780,-28809
1992,224470,9.8,-0.114844,0.00478516,-80.2002,-89.5056,-92.796,0,0,0,0.0461426,-0.705414,-0.0401001,-0.706085,-111.642,60.6417,-37.2833,-7780,-28809
1998,224476,9.8,-0.0574219,0.0287109,-80.2002,-89.5056,-92.796,0,0,0,0.0461426,-0.705414,-0.0401001,-0.706085,-111.683,60.625,-37.2417,-7780,-28809
2004,224482,9.79521,-0.0813477,0.00957031,-80.2002,-89.5056,-92.796,0,0,0,0.0461426,-0.705414,-0.0401306,-0.706085,-111.692,60.6167,-37.2167,-7780,-28809
2010,224488,9.80957,-0.090918,0,-80.1947,-89.5056,-92.796,0,0,0,0.0461731,-0.705414,-0.0401306,-0.706085,-111.7,60.6333,-37.225,-7780,-28809
2016,224494,9.80957,-0.0813477,0.0239258,-80.1947,-89.5056,-92.8015,0,0,0,0.0461731,-0.705414,-0.0401306,-0.706085,-111.683,60.65,-37.2583,-7780,-28809
2022,224500,9.80957,-0.0526367,0.0334961,-80.1947,-89.5056,-92.8015,0,0,0,0.0461731,-0.705414,-0.0401611,-0.706085,-111.675,60.675,-37.3,-7780,-28809
2028,224506,9.80957,-0.105273,0.00478516,-80.1892,-89.5056,-92.8015,0,0,0,0.0462036,-0.705414,-0.0401917,-0.706085,-111.642,60.6917,-37.3917,-7780,-28809
2034,224512,9.80479,-0.0861328,-0.00957031,-80.1892,-89.5056,-92.8015,0,0,0,0.0462036,-0.705414,-0.0401917,-0.706085,-111.633,60.6833,-37.4167,-7780,-28809
2040,224518,9.81914,-0.100488,0.0334961,-80.1892,-89.5056,-92.8015,0,0,0,0.0462036,-0.705414,-0.0401917,-0.706085,-111.608,60.6667,-37.475,-7780,-28809
2046,224524,9.81436,-0.105273,0.0143555,-80.1892,-89.5056,-92.796,0,0,0,0.0462036,-0.705414,-0.0401611,-0.706085,-111.6,60.65,-37.5083,-7780,-28809
2052,224530,9.79521,-0.0957031,0.00957031,-80.1892,-89.5056,-92.8015,0,0,0,0.0462036,-0.705414,-0.0401611,-0.706085,-111.6,60.625,-37.4833,-7780,-28809
2058,224536,9.80957,-0.0861328,0.0191406,-80.1892,-89.5056,-92.8015,0,0,0,0.0462036,-0.705414,-0.0401611,-0.706085,-111.608,60.5833,-37.4167,-7780,-28809
2064,224542,9.82871,-0.0957031,0,-80.1892,-89.5056,-92.8015,0,0,0,0.0462036,-0.705414,-0.0401611,-0.706085,-111.592,60.5583,-37.375,-7780,-28809
2070,224548,9.83828,-0.0717773,0,-80.1892,-89.5056,-92.8015,0,0,0,0.0462036,-0.705414,-0.0401611,-0.706085,-111.583,60.5333,-37.35,-7780,-28809
2076,224554,9.81914,-0.0765625,-0.00478516,-80.1892,-89.5056,-92.8015,0,0,0,0.0461731,-0.705414,-0.0401611,-0.706085,-111.583,60.5417,-37.375,-7780,-28809
2082,224560,9.81436,-0.0813477,0.0143555,-80.1947,-89.5056,-92.8015,0,0,0,0.0461731,-0.705414,-0.0401306,-0.706085,-111.583,60.5417,-37.3917,-7780,-28809
2088,224566,9.79521,-0.0765625,0.0191406,-80.2002,-89.5056,-92.8015,0,0,0,0.0461121,-0.705414,-0.0401001,-0.706085,-111.575,60.5333,-37.4167,-7780,-28809
2094,224572,9.78564,-0.0813477,-0.00957031,-80.2057,-89.5056,-92.8015,0,0,0,0.0460815,-0.705414,-0.0400696,-0.706085,-111.55,60.525,-37.4083,-7780,-28809
2100,224578,9.81914,-0.110059,0.0143555,-80.2112,-89.5056,-92.8015,0,0,0,0.046051,-0.705414,-0.0400085,-0.706085,-111.525,60.5083,-37.375,-7780,-28809
2106,224584,9.80957,-0.0669922,0,-80.2167,-89.5056,-92.8015,0,0,0,0.0460205,-0.705414,-0.039978,-0.706085,-111.517,60.5083,-37.3667,-7780,-28809
2112,224590,9.8,-0.0957031,0.0287109,-80.2222,-89.5056,-92.8015,0,0,0,0.0459595,-0.705414,-0.0399475,-0.706085,-111.517,60.5083,-37.3917,-7780,-28809
2118,224596,9.8,-0.0813477,0.0287109,-80.2386,-89.5056,-92.8015,0,0,0,0.0458984,-0.705414,-0.0398865,-0.706085,-111.533,60.5083,-37.4083,-7780,-28809
2124,224602,9.77607,-0.0861328,0.00957031,-80.2386,-89.5056,-92.8015,0,0,0,0.0458984,-0.705444,-0.039856,-0.706085,-111.533,60.5167,-37.3917,-7780,-28809
2130,224608,9.82871,-0.105273,0.0143555,-80.2386,-89.5056,-92.8015,0,0,0,0.0458679,-0.705444,-0.0398254,-0.706085,-111.533,60.525,-37.375,-7780,-28809
2136,224614,9.80957,-0.0813477,0.0239258,-80.2441,-89.5056,-92.8015,0,0,0,0.0458679,-0.705444,-0.0398254,-0.706085,-111.533,60.5333,-37.325,-7780,-28809
2142,224620,9.8,-0.0957031,0.00478516,-80.2441,-89.5056,-92.8015,0,0,0,0.0458374,-0.705444,-0.0397949,-0.706085,-111.533,60.5417,-37.3,-7780,-28809
2148,224626,9.8,-0.0861328,0.0191406,-80.2496,-89.5056,-92.8015,0,0,0,0.0458069,-0.705444,-0.0397644,-0.706085,-111.5,60.5167,-37.325,-7780,-28809
2154,224632,9.80957,-0.0574219,-0.00478516,-80.2496,-89.5056,-92.8015,0,0,0,0.0458069,-0.705444,-0.0397644,-0.706085,-111.492,60.4833,-37.325,-7780,-28809
2160,224638,9.82393,-0.0861328,-0.0143555,-80.2551,-89.5056,-92.8015,0,0,0,0.0457764,-0.705444,-0.0397339,-0.706085,-111.45,60.4583,-37.3083,-7780,-28809
2166,224644,9.80957,-0.0861328,0,-80.2606,-89.5056,-92.8015,0,0,0,0.0457458,-0.705444,-0.0397034,-0.706116,-111.417,60.4333,-37.2917,-7780,-28809
2172,224650,9.80957,-0.0574219,0,-80.2661,-89.5056,-92.8015,0,0,0,0.0456848,-0.705444,-0.0396423,-0.706116,-111.4,60.4167,-37.25,-7780,-28809
2178,224656,9.84785,-0.090918,0,-80.2881,-89.5056,-92.8015,0,0,0,0.0455933,-0.705444,-0.0395508,-0.706116,-111.408,60.4583,-37.2333,-7780,-28809
2184,224662,9.80957,-0.090918,0.0287109,-80.2991,-89.5056,-92.8015,0,0,0,0.0455322,-0.705444,-0.0394897,-0.706116,-111.442,60.4917,-37.2583,-7780,-28809
2190,224668,9.79521,-0.0334961,0.0143555,-80.3046,-89.5056,-92.8015,0,0,0,0.0455017,-0.705444,-0.0394287,-0.706116,-111.475,60.55,-37.3083,-7780,-28809
2196,224674,9.81436,-0.0957031,0.00957031,-80.3101,-89.5056,-92.8015,0,0,0,0.0454407,-0.705444,-0.0393982,-0.706116,-111.5,60.5833,-37.35,-7780,-28809
2202,224680,9.8,-0.0669922,0.00957031,-80.3101,-89.5056,-92.8015,0,0,0,0.0454102,-0.705444,-0.0393677,-0.706116,-111.525,60.6167,-37.3667,-7780,-28809
2208,224686,9.78086,-0.0717773,0,-80.321,-89.5056,-92.8015,0,0,0,0.0453491,-0.705475,-0.0393066,-0.706116,-111.558,60.65,-37.3667,-7780,-28809
2214,224692,9.83828,-0.100488,0.0334961,-80.332,-89.5056,-92.8015,0,0,0,0.0453186,-0.705475,-0.0392761,-0.706116,-111.55,60.65,-37.35,-7780,-28809
2220,224698,9.8335,-0.090918,0.0382813,-80.332,-89.5056,-92.807,0,0,0,0.0452881,-0.705475,-0.0392456,-0.706116,-111.533,60.625,-37.3167,-7780,-28809
2226,224704,9.83828,-0.0861328,0.0191406,-80.3375,-89.5056,-92.8015,0,0,0,0.0452881,-0.705475,-0.0392456,-0.706116,-111.517,60.625,-37.3167,-7780,-28809
2232,224710,9.80479,-0.0765625,0.0574219,-80.3375,-89.5056,-92.8015,0,0,0,0.0452881,-0.705475,-0.0392151,-0.706116,-111.492,60.6083,-37.3,-7780,-28809
2238,224716,9.82871,-0.062207,0.0239258,-80.332,-89.5056,-92.8015,0,0,0,0.0453186,-0.705475,-0.0392761,-0.706116,-111.45,60.625,-37.25,-7780,-28809
2244,224722,9.80957,-0.0717773,0.0191406,-80.3265,-89.5056,-92.8015,0,0,0,0.0453796,-0.705475,-0.0393066,-0.706116,-111.442,60.6417,-37.2083,-7780,-28809
2250,224728,9.80957,-0.100488,-0.00957031,-80.3156,-89.5056,-92.8015,0,0,0,0.0454102,-0.705475,-0.0393677,-0.706116,-111.425,60.65,-37.175,-7780,-28809
2256,224734,9.78564,-0.0717773,0,-80.3156,-89.5056,-92.8015,0,0,0,0.0454102,-0.705444,-0.0393677,-0.706116,-111.408,60.65,-37.15,-7780,-28809
2262,224740,9.80957,-0.0765625,0.0478516,-80.3101,-89.5056,-92.8015,0,0,0,0.0454407,-0.705444,-0.0393677,-0.706116,-111.383,60.65,-37.1333,-7780,-28809
2268,224746,9.44111,0.0574219,0.16748,-79.7607,-89.4946,-93.3289,-0.12207,1.15967,1.34277,0.0456238,-0.705414,-0.0394897,-0.706146,-111.342,60.625,-37.1167,-7780,-28809
2274,224752,9.98184,-0.172266,0.267969,-79.0521,-89.5056,-94.0045,0.183105,-1.15967,1.58691,0.0457764,-0.705383,-0.0397644,-0.706177,-111.317,60.625,-37.125,-7780,-28809
2280,224758,9.80957,-0.110059,-0.143555,-79.8212,-89.4946,-93.186,0,-1.2207,-1.46484,0.0461731,-0.705383,-0.0400391,-0.706116,-111.333,60.625,-37.125,-7780,-28809
2286,224764,9.81436,-0.0861328,-0.00478516,-80.3265,-89.5056,-92.6367,0.244141,1.95313,1.58691,0.0463562,-0.705414,-0.0403137,-0.706055,-111.358,60.6333,-37.1167,-7780,-28809
2292,224770,9.81914,-0.143555,0.272754,-79.3433,-89.4946,-93.587,0.12207,0,-1.28174,0.0466003,-0.705322,-0.0404663,-0.706116,-111.392,60.6333,-37.1167,-7780,-28809
2298,224776,9.8957,-0.172266,-0.090918,-79.6564,-89.4946,-93.1805,0.305176,-0.793457,1.0376,0.0471802,-0.705322,-0.0410461,-0.706055,-111.492,60.65,-37.2,-7780,-28809
2304,224782,9.74258,0.00957031,0.0861328,-79.3597,-89.5001,-93.4442,0,0.610352,0.549316,0.0473633,-0.705292,-0.0412598,-0.706055,-111.533,60.6667,-37.25,-7780,-28809
