TimeSinceCollection,Timestamp,AccX,AccY,AccZ,AngleRoll,AnglePitch,AngleYaw,AngularVelX,AngularVelY,AngularVelZ,Q1,Q2,Q3,Q4,MagX,MagY,MagZ,Height,Airpressure
0,16266,0,0,0,-128.705,-89.2035,7.80029,9.80957,-0.100488,-0.090918,0.350494,-0.619629,-0.346863,-0.610565,-115.842,44.7083,-30.75,-7838,-28802
6,16272,0,0,0,-128.705,-89.2035,7.80029,9.78086,-0.119629,-0.100488,0.350494,-0.619629,-0.346863,-0.610565,-115.875,44.725,-30.7,-7838,-28802
12,16278,0,0,0,-128.705,-89.2035,7.80029,9.80479,-0.110059,-0.0765625,0.350494,-0.619629,-0.346863,-0.610565,-115.867,44.75,-30.675,-7838,-28802
18,16284,0,0,0,-128.705,-89.2035,7.80029,9.80957,-0.110059,-0.0717773,0.350494,-0.619629,-0.346863,-0.610565,-115.833,44.7667,-30.6833,-7838,-28802
24,16290,0,0,0,-128.705,-89.2035,7.80029,9.79521,-0.114844,-0.119629,0.350494,-0.619629,-0.346863,-0.610565,-115.792,44.7833,-30.675,-7838,-28802
30,16296,0,0,0,-128.705,-89.2035,7.80029,9.79043,-0.0957031,-0.0717773,0.350494,-0.619629,-0.346863,-0.610565,-115.742,44.7917,-30.6583,-7838,-28802
36,16302,0,0,0,-128.705,-89.2035,7.80029,9.81436,-0.0765625,-0.0765625,0.350494,-0.619629,-0.346863,-0.610565,-115.7,44.825,-30.5917,-7838,-28802
42,16308,0,0,0,-128.71,-89.2035,7.80029,9.80957,-0.090918,-0.0957031,0.350464,-0.619629,-0.346863,-0.610565,-115.7,44.85,-30.5917,-7838,-28802
48,16314,0,0,0,-128.71,-89.2035,7.80029,9.81914,-0.114844,-0.090918,0.350464,-0.619659,-0.346832,-0.610565,-115.708,44.85,-30.6167,-7838,-28802
54,16320,0,0,0,-128.71,-89.2035,7.80029,9.81914,-0.100488,-0.0861328,0.350464,-0.619659,-0.346832,-0.610565,-115.708,44.8583,-30.6333,-7838,-28802
60,16326,0,0,0,-128.71,-89.2035,7.80029,9.81914,-0.129199,-0.0861328,0.350464,-0.619659,-0.346832,-0.610565,-115.708,44.8583,-30.6833,-7838,-28802
66,16332,0,0,0,-128.716,-89.2035,7.80029,9.78564,-0.110059,-0.090918,0.350464,-0.619659,-0.346832,-0.610565,-115.683,44.8417,-30.775,-7838,-28802
72,16338,0,0,0,-128.71,-89.2035,7.80029,9.81914,-0.100488,-0.0669922,0.350464,-0.619659,-0.346832,-0.610565,-115.667,44.825,-30.8083,-7838,-28802
78,16344,0,0,0,-128.71,-89.2035,7.80029,9.81436,-0.090918,-0.0717773,0.350464,-0.619659,-0.346832,-0.610565,-115.642,44.8,-30.8083,-7838,-28802
84,16350,0,0,0,-128.71,-89.2035,7.80029,9.79043,-0.105273,-0.0717773,0.350464,-0.619659,-0.346832,-0.610565,-115.65,44.7833,-30.8083,-7838,-28802
90,16356,0,0,0,-128.71,-89.2035,7.80029,9.80957,-0.090918,-0.0717773,0.350464,-0.619659,-0.346832,-0.610565,-115.667,44.775,-30.8,-7838,-28802
96,16362,0,0,0,-128.71,-89.2035,7.80029,9.80479,-0.124414,-0.0861328,0.350464,-0.619659,-0.346832,-0.610565,-115.7,44.75,-30.75,-7838,-28802
102,16368,0,0,0,-128.71,-89.2035,7.80029,9.81436,-0.0957031,-0.0813477,0.350494,-0.619629,-0.346863,-0.610565,-115.708,44.7333,-30.7417,-7838,-28802
108,16374,0,0,0,-128.705,-89.2035,7.80029,9.82393,-0.0957031,-0.0717773,0.350494,-0.619629,-0.346863,-0.610565,-115.708,44.725,-30.7333,-7838,-28802
114,16380,0,0,0,-128.705,-89.2035,7.80029,9.80957,-0.105273,-0.105273,0.350494,-0.619629,-0.346863,-0.610565,-115.725,44.7333,-30.75,-7838,-28802
120,16386,0,0,0,-128.705,-89.2035,7.80029,9.8335,-0.114844,-0.090918,0.350494,-0.619629,-0.346863,-0.610565,-115.75,44.7417,-30.7583,-7838,-28802
126,16392,0,0,0,-128.71,-89.2035,7.80029,9.79521,-0.119629,-0.0861328,0.350464,-0.619659,-0.346863,-0.610565,-115.758,44.7833,-30.7583,-7838,-28802
132,16398,0,0,0,-128.71,-89.2035,7.80029,9.8,-0.0957031,-0.0717773,0.350464,-0.619659,-0.346832,-0.610565,-115.742,44.8167,-30.75,-7838,-28802
138,16404,0,0,0,-128.71,-89.2035,7.80029,9.80479,-0.105273,-0.0669922,0.350464,-0.619659,-0.346832,-0.610565,-115.708,44.8333,-30.7583,-7838,-28802
144,16410,0,0,0,-128.71,-89.2035,7.80029,9.82871,-0.090918,-0.090918,0.350464,-0.619659,-0.346832,-0.610565,-115.683,44.85,-30.7833,-7838,-28802
150,16416,0,0,0,-128.71,-89.2035,7.80029,9.82393,-0.100488,-0.0430664,0.350464,-0.619659,-0.346832,-0.610565,-115.675,44.85,-30.7833,-7838,-28802
156,16422,0,0,0,-128.71,-89.2035,7.80029,9.8,-0.0957031,-0.100488,0.350464,-0.619659,-0.346832,-0.610565,-115.633,44.8333,-30.775,-7838,-28802
162,16428,0,0,0,-128.71,-89.2035,7.80029,9.82393,-0.105273,-0.0717773,0.350464,-0.619659,-0.346832,-0.610565,-115.617,44.8083,-30.7417,-7838,-28802
168,16434,0,0,0,-128.716,-89.2035,7.80029,9.82871,-0.090918,-0.100488,0.350433,-0.619659,-0.346832,-0.610565,-115.592,44.775,-30.75,-7838,-28802
174,16440,0,0,0,-128.716,-89.2035,7.80029,9.80957,-0.133984,-0.0765625,0.350433,-0.619659,-0.346832,-0.610565,-115.592,44.75,-30.7083,-7838,-28802
180,16446,0,0,0,-128.716,-89.2035,7.80029,9.78086,-0.133984,-0.0765625,0.350433,-0.619659,-0.346832,-0.610596,-115.608,44.725,-30.6667,-7838,-28802
186,16452,0,0,0,-128.716,-89.2035,7.80029,9.81436,-0.119629,-0.0813477,0.350464,-0.619659,-0.346832,-0.610565,-115.625,44.7417,-30.625,-7838,-28802
192,16458,0,0,0,-128.71,-89.2035,7.80029,9.81436,-0.0861328,-0.0765625,0.350464,-0.619659,-0.346832,-0.610565,-115.617,44.7667,-30.6333,-7838,-28802
198,16464,0,0,0,-128.71,-89.2035,7.80029,9.84307,-0.129199,-0.0717773,0.350464,-0.619659,-0.346832,-0.610565,-115.617,44.8,-30.6583,-7838,-28802
204,16470,0,0,0,-128.71,-89.2035,7.80029,9.80479,-0.0813477,-0.0765625,0.350464,-0.619629,-0.346863,-0.610565,-115.617,44.8,-30.675,-7838,-28802
210,16476,0,0,0,-128.705,-89.2035,7.80029,9.81436,-0.0957031,-0.0957031,0.350494,-0.619629,-0.346863,-0.610565,-115.617,44.8083,-30.7083,-7838,-28802
216,16482,0,0,0,-128.699,-89.2035,7.80029,9.78086,-0.119629,-0.0861328,0.350525,-0.619629,-0.346893,-0.610535,-115.683,44.775,-30.6333,-7838,-28802
222,16488,0,0,0,-128.699,-89.2035,7.80029,9.78086,-0.119629,-0.0813477,0.350525,-0.619598,-0.346893,-0.610535,-115.717,44.7667,-30.6083,-7838,-28802
228,16494,0,0,0,-128.694,-89.2035,7.80029,9.8,-0.090918,-0.062207,0.350555,-0.619598,-0.346924,-0.610535,-115.733,44.725,-30.5833,-7838,-28802
234,16500,0,0,0,-128.694,-89.2035,7.80029,9.85264,-0.114844,-0.0765625,0.350555,-0.619598,-0.346924,-0.610504,-115.742,44.6917,-30.55,-7838,-28802
240,16506,0,0,0,-128.688,-89.2035,7.80029,9.80479,-0.114844,-0.0957031,0.350586,-0.619568,-0.346954,-0.610504,-115.742,44.6917,-30.575,-7838,-28802
246,16512,0,0,0,-128.683,-89.2035,7.80029,9.76172,-0.110059,-0.090918,0.350616,-0.619568,-0.346985,-0.610474,-115.742,44.7083,-30.6583,-7838,-28802
252,16518,0,0,0,-128.677,-89.2035,7.80029,9.80479,-0.13877,-0.0765625,0.350647,-0.619537,-0.347015,-0.610474,-115.742,44.7417,-30.7417,-7838,-28802
258,16524,0,0,0,-128.677,-89.2035,7.80029,9.81436,-0.100488,-0.0957031,0.350647,-0.619537,-0.347015,-0.610474,-115.742,44.7667,-30.8083,-7838,-28802
264,16530,0,0,0,-128.672,-89.2035,7.80029,9.84307,-0.0957031,-0.105273,0.350647,-0.619537,-0.347046,-0.610474,-115.75,44.7583,-30.85,-7838,-28802
270,16536,0,0,0,-128.677,-89.2035,7.80029,9.79521,-0.100488,-0.0813477,0.350647,-0.619537,-0.347015,-0.610474,-115.758,44.7333,-30.825,-7838,-28802
276,16542,0,0,0,-128.672,-89.2035,7.80029,9.77607,-0.153125,-0.0669922,0.350647,-0.619537,-0.347046,-0.610474,-115.767,44.7083,-30.675,-7846,-28801
282,16548,0,0,0,-128.672,-89.2035,7.80029,9.75693,-0.100488,-0.090918,0.350677,-0.619537,-0.347046,-0.610443,-115.758,44.7083,-30.5917,-7846,-28801
288,16554,0,0,0,-128.672,-89.2035,7.80029,9.82871,-0.143555,-0.0861328,0.350677,-0.619537,-0.347046,-0.610443,-115.75,44.7167,-30.55,-7846,-28801
294,16560,0,0,0,-128.672,-89.2035,7.80029,9.82871,-0.0765625,-0.105273,0.350677,-0.619537,-0.347046,-0.610443,-115.758,44.7333,-30.5167,-7846,-28801
300,16566,0,0,0,-128.672,-89.2035,7.80029,9.8,-0.0765625,-0.062207,0.350677,-0.619537,-0.347046,-0.610443,-115.758,44.7333,-30.4917,-7846,-28801
306,16572,0,0,0,-128.672,-89.2035,7.80029,9.78086,-0.105273,-0.0669922,0.350677,-0.619537,-0.347046,-0.610443,-115.842,44.7667,-30.4667,-7846,-28801
312,16578,0,0,0,-128.672,-89.2035,7.80029,9.77607,-0.129199,-0.110059,0.350677,-0.619537,-0.347046,-0.610443,-115.875,44.7833,-30.4583,-7846,-28801
318,16584,0,0,0,-128.677,-89.2035,7.80029,9.77129,-0.090918,-0.119629,0.350647,-0.619537,-0.347015,-0.610474,-115.9,44.7917,-30.4583,-7846,-28801
324,16590,0,0,0,-128.677,-89.2035,7.80029,9.8335,-0.105273,-0.0861328,0.350647,-0.619537,-0.347015,-0.610474,-115.908,44.7833,-30.4583,-7846,-28801
330,16596,0,0,0,-128.683,-89.2035,7.80029,9.84307,-0.124414,-0.0957031,0.350616,-0.619568,-0.346985,-0.610474,-115.892,44.7667,-30.4583,-7846,-28801
336,16602,0,0,0,-128.688,-89.2035,7.80029,9.79043,-0.0813477,-0.0957031,0.350586,-0.619598,-0.346954,-0.610504,-115.842,44.7583,-30.5083,-7846,-28801
342,16608,0,0,0,-128.694,-89.2035,7.80029,9.80479,-0.0957031,-0.100488,0.350555,-0.619598,-0.346924,-0.610535,-115.833,44.7583,-30.5167,-7846,-28801
348,16614,0,0,0,-128.705,-89.2035,7.80029,9.79043,-0.090918,-0.0957031,0.350494,-0.619629,-0.346893,-0.610535,-115.825,44.7833,-30.5333,-7846,-28801
354,16620,0,0,0,-128.71,-89.2035,7.80029,9.81436,-0.090918,-0.105273,0.350464,-0.619659,-0.346832,-0.610565,-115.825,44.8,-30.5333,-7846,-28801
360,16626,0,0,0,-128.721,-89.2035,7.80029,9.80479,-0.090918,-0.0574219,0.350433,-0.61969,-0.346802,-0.610596,-115.817,44.8083,-30.5167,-7846,-28801
366,16632,0,0,0,-128.732,-89.2035,7.80029,9.82393,-0.119629,-0.0813477,0.350342,-0.61972,-0.346741,-0.610626,-115.808,44.8167,-30.525,-7846,-28801
372,16638,0,0,0,-128.738,-89.2035,7.80029,9.8,-0.0957031,-0.0717773,0.350311,-0.61972,-0.34671,-0.610657,-115.817,44.8083,-30.5417,-7846,-28801
378,16644,0,0,0,-128.743,-89.2035,7.80029,9.80479,-0.114844,-0.0861328,0.350281,-0.619751,-0.34668,-0.610657,-115.825,44.8,-30.5917,-7846,-28801
384,16650,0,0,0,-128.743,-89.2035,7.80029,9.81436,-0.100488,-0.0861328,0.350281,-0.619751,-0.346649,-0.610657,-115.817,44.775,-30.6083,-7846,-28801
390,16656,0,0,0,-128.76,-89.2035,7.80029,9.82393,-0.119629,-0.110059,0.35025,-0.619781,-0.346619,-0.610687,-115.825,44.7667,-30.6583,-7854,-28800
396,16662,0,0,0,-128.765,-89.2035,7.80029,9.8,-0.0813477,-0.114844,0.350159,-0.619812,-0.346527,-0.610748,-115.8,44.75,-30.775,-7854,-28800
402,16668,0,0,0,-128.771,-89.2035,7.80029,9.82871,-0.124414,-0.0717773,0.350128,-0.619843,-0.346497,-0.610748,-115.792,44.7333,-30.7833,-7846,-28801
408,16674,0,0,0,-128.782,-89.2035,7.80029,9.7665,-0.105273,-0.0765625,0.350098,-0.619873,-0.346466,-0.610779,-115.792,44.725,-30.775,-7846,-28801
414,16680,0,0,0,-128.787,-89.2035,7.80029,9.82393,-0.114844,-0.0861328,0.350067,-0.619873,-0.346436,-0.610779,-115.783,44.7,-30.7583,-7846,-28801
420,16686,0,0,0,-128.798,-89.2035,7.80029,9.8,-0.114844,-0.0861328,0.350006,-0.619904,-0.346405,-0.610809,-115.8,44.675,-30.725,-7846,-28801
426,16692,0,0,0,-128.809,-89.2035,7.80029,9.82393,-0.0813477,-0.0861328,0.349945,-0.619965,-0.346313,-0.61087,-115.833,44.675,-30.7667,-7846,-28801
432,16698,0,0,0,-128.815,-89.2035,7.80029,9.8,-0.0861328,-0.0861328,0.349884,-0.619995,-0.346283,-0.61087,-115.858,44.675,-30.775,-7846,-28801
438,16704,0,0,0,-128.826,-89.2035,7.80029,9.82393,-0.129199,-0.090918,0.349854,-0.619995,-0.346222,-0.610901,-115.875,44.6833,-30.7917,-7846,-28801
444,16710,0,0,0,-128.837,-89.2035,7.80029,9.80479,-0.0717773,-0.110059,0.349792,-0.620026,-0.346191,-0.610931,-115.875,44.6667,-30.7583,-7846,-28801
450,16716,0,0,0,-128.853,-89.2035,7.80029,9.78086,-0.0957031,-0.0717773,0.349762,-0.620056,-0.34613,-0.610962,-115.867,44.65,-30.7167,-7846,-28801
456,16722,0,0,0,-128.859,-89.2035,7.80029,9.80479,-0.110059,-0.090918,0.34967,-0.620117,-0.346039,-0.610992,-115.833,44.6417,-30.6583,-7846,-28801
462,16728,0,0,0,-128.87,-89.2035,7.80579,9.81436,-0.090918,-0.0957031,0.349609,-0.620148,-0.346008,-0.611023,-115.808,44.6583,-30.6417,-7846,-28801
468,16734,0,0,0,-128.875,-89.2035,7.80579,9.81914,-0.110059,-0.0717773,0.349579,-0.620148,-0.345978,-0.611053,-115.792,44.675,-30.625,-7846,-28801
474,16740,0,0,0,-128.881,-89.2035,7.80579,9.80957,-0.114844,-0.0717773,0.349548,-0.620178,-0.345947,-0.611084,-115.8,44.7083,-30.5917,-7846,-28801
480,16746,0,0,0,-128.892,-89.2035,7.80579,9.81436,-0.129199,-0.100488,0.349518,-0.620209,-0.345917,-0.611084,-115.808,44.7417,-30.55,-7846,-28801
486,16752,0,0,0,-128.897,-89.2035,7.80579,9.78086,-0.0717773,-0.0861328,0.349457,-0.620239,-0.345856,-0.611115,-115.808,44.7833,-30.4167,-7846,-28801
492,16758,0,0,0,-128.903,-89.2035,7.80579,9.8,-0.119629,-0.0669922,0.349426,-0.620239,-0.345825,-0.611145,-115.783,44.8,-30.3917,-7846,-28801
498,16764,0,0,0,-128.908,-89.2035,7.80579,9.80479,-0.0813477,-0.0669922,0.349426,-0.62027,-0.345795,-0.611145,-115.767,44.7917,-30.3667,-7846,-28801
504,16770,0,0,0,-128.914,-89.2035,7.80579,9.77607,-0.0861328,-0.119629,0.349365,-0.62027,-0.345764,-0.611176,-115.75,44.8083,-30.3667,-7846,-28801
510,16776,0,0,0,-128.925,-89.2035,7.80579,9.79521,-0.0861328,-0.0717773,0.349335,-0.6203,-0.345734,-0.611176,-115.75,44.8167,-30.3333,-7846,-28801
516,16782,0,0,0,-128.93,-89.2035,7.80579,9.8335,-0.14834,-0.0861328,0.349304,-0.620331,-0.345673,-0.611206,-115.733,44.8333,-30.325,-7846,-28801
522,16788,0,0,0,-128.936,-89.2035,7.80579,9.78086,-0.0717773,-0.0574219,0.349274,-0.620331,-0.345673,-0.611237,-115.733,44.8417,-30.3333,-7846,-28801
528,16794,0,0,0,-128.936,-89.2035,7.80579,9.83828,-0.114844,-0.0765625,0.349243,-0.620331,-0.345642,-0.611237,-115.733,44.8333,-30.35,-7846,-28801
534,16800,0,0,0,-128.941,-89.2035,7.80579,9.81914,-0.110059,-0.0765625,0.349243,-0.620361,-0.345642,-0.611237,-115.733,44.8333,-30.3583,-7846,-28801
540,16806,0,0,0,-128.941,-89.2035,7.80579,9.80957,-0.100488,-0.0574219,0.349243,-0.620361,-0.345642,-0.611237,-115.758,44.825,-30.3417,-7846,-28801
546,16812,0,0,0,-128.941,-89.2035,7.80579,9.80957,-0.100488,-0.100488,0.349243,-0.620361,-0.345642,-0.611237,-115.758,44.8167,-30.3917,-7846,-28801
552,16818,0,0,0,-128.941,-89.2035,7.80579,9.82871,-0.110059,-0.0765625,0.349243,-0.620361,-0.345642,-0.611237,-115.767,44.825,-30.4,-7846,-28801
558,16824,0,0,0,-128.941,-89.2035,7.80579,9.79521,-0.0765625,-0.0765625,0.349243,-0.620361,-0.345642,-0.611237,-115.758,44.8083,-30.4333,-7846,-28801
564,16830,0,0,0,-128.941,-89.2035,7.80579,9.80957,-0.090918,-0.0813477,0.349243,-0.620361,-0.345612,-0.611237,-115.733,44.8,-30.4667,-7846,-28801
570,16836,0,0,0,-128.941,-89.2035,7.80579,9.8,-0.100488,-0.100488,0.349243,-0.620361,-0.345612,-0.611237,-115.733,44.8083,-30.5833,-7846,-28801
576,16842,0,0,0,-128.941,-89.2035,7.80579,9.79521,-0.0957031,-0.0574219,0.349243,-0.620361,-0.345612,-0.611237,-115.733,44.8333,-30.6333,-7846,-28801
582,16848,0,0,0,-128.941,-89.2035,7.80579,9.82393,-0.090918,-0.0717773,0.349243,-0.620361,-0.345612,-0.611237,-115.75,44.8583,-30.6583,-7846,-28801
588,16854,0,0,0,-128.941,-89.2035,7.80579,9.82871,-0.100488,-0.0813477,0.349243,-0.620361,-0.345612,-0.611237,-115.758,44.8833,-30.6583,-7846,-28801
594,16860,0,0,0,-128.941,-89.2035,7.80579,9.81436,-0.119629,-0.0861328,0.349243,-0.620361,-0.345612,-0.611237,-115.758,44.9,-30.6667,-7846,-28801
600,16866,0,0,0,-128.941,-89.2035,7.80579,9.81436,-0.110059,-0.0478516,0.349243,-0.620361,-0.345612,-0.611237,-115.758,44.8833,-30.6417,-7846,-28801
606,16872,0,0,0,-128.936,-89.2035,7.80579,9.80957,-0.100488,-0.0813477,0.349274,-0.620331,-0.345642,-0.611237,-115.767,44.8583,-30.625,-7846,-28801
612,16878,0,0,0,-128.936,-89.2035,7.80579,9.81914,-0.110059,-0.0813477,0.349274,-0.620331,-0.345673,-0.611237,-115.767,44.8417,-30.6,-7846,-28801
618,16884,0,0,0,-128.93,-89.2035,7.80579,9.81436,-0.119629,-0.062207,0.349304,-0.620331,-0.345673,-0.611206,-115.792,44.8417,-30.6,-7846,-28801
624,16890,0,0,0,-128.925,-89.2035,7.80579,9.81914,-0.0861328,-0.0478516,0.349335,-0.6203,-0.345703,-0.611206,-115.8,44.8333,-30.575,-7838,-28802
630,16896,0,0,0,-128.914,-89.2035,7.80579,9.78086,-0.090918,-0.0765625,0.349365,-0.6203,-0.345734,-0.611176,-115.833,44.8583,-30.5,-7838,-28802
636,16902,0,0,0,-128.908,-89.2035,7.80579,9.78564,-0.105273,-0.0957031,0.349396,-0.62027,-0.345795,-0.611145,-115.817,44.8583,-30.4667,-7838,-28802
642,16908,0,0,0,-128.908,-89.2035,7.80579,9.82393,-0.0861328,-0.090918,0.349426,-0.620239,-0.345795,-0.611145,-115.833,44.8667,-30.4583,-7838,-28802
648,16914,0,0,0,-128.908,-89.2035,7.80579,9.80957,-0.100488,-0.0813477,0.349426,-0.620239,-0.345825,-0.611145,-115.817,44.875,-30.4667,-7838,-28802
654,16920,0,0,0,-128.903,-89.2035,7.80579,9.80957,-0.124414,-0.0957031,0.349457,-0.620239,-0.345825,-0.611145,-115.8,44.875,-30.4667,-7838,-28802
660,16926,0,0,0,-128.897,-89.2035,7.80579,9.80479,-0.114844,-0.0669922,0.349457,-0.620239,-0.345856,-0.611115,-115.758,44.9167,-30.4583,-7838,-28802
666,16932,0,0,0,-128.892,-89.2035,7.80579,9.80957,-0.13877,-0.0717773,0.349487,-0.620209,-0.345886,-0.611115,-115.733,44.9333,-30.475,-7838,-28802
672,16938,0,0,0,-128.892,-89.2035,7.80579,9.8335,-0.0957031,-0.0526367,0.349518,-0.620178,-0.345917,-0.611084,-115.733,44.9417,-30.4917,-7838,-28802
678,16944,0,0,0,-128.886,-89.2035,7.80579,9.81914,-0.100488,-0.0861328,0.349548,-0.620178,-0.345947,-0.611084,-115.742,44.95,-30.5333,-7838,-28802
684,16950,0,0,0,-128.881,-89.2035,7.80579,9.80479,-0.124414,-0.105273,0.349579,-0.620148,-0.345947,-0.611053,-115.758,44.9417,-30.5667,-7838,-28802
690,16956,0,0,0,-128.87,-89.2035,7.80579,9.78564,-0.114844,-0.0478516,0.349609,-0.620148,-0.345978,-0.611053,-115.792,44.9417,-30.6667,-7838,-28802
696,16962,0,0,0,-128.864,-89.2035,7.80579,9.79043,-0.0957031,-0.110059,0.34964,-0.620117,-0.346039,-0.611023,-115.808,44.9417,-30.7083,-7838,-28802
702,16968,0,0,0,-128.859,-89.2035,7.80579,9.80957,-0.090918,-0.0861328,0.34967,-0.620087,-0.346069,-0.610992,-115.825,44.9583,-30.75,-7838,-28802
708,16974,0,0,0,-128.859,-89.2035,7.80579,9.80957,-0.0957031,-0.0765625,0.349701,-0.620087,-0.346069,-0.610992,-115.825,44.9583,-30.7583,-7838,-28802
714,16980,0,0,0,-128.853,-89.2035,7.80579,9.82871,-0.114844,-0.090918,0.349701,-0.620087,-0.3461,-0.610992,-115.833,44.95,-30.7583,-7838,-28802
720,16986,0,0,0,-128.848,-89.2035,7.80579,9.80957,-0.114844,-0.100488,0.349731,-0.620056,-0.3461,-0.610992,-115.842,44.9167,-30.75,-7838,-28802
726,16992,0,0,0,-128.848,-89.2035,7.80579,9.80479,-0.0957031,-0.0765625,0.349731,-0.620056,-0.34613,-0.610962,-115.858,44.8917,-30.7333,-7838,-28802
732,16998,0,0,0,-128.842,-89.2035,7.80579,9.80957,-0.100488,-0.0717773,0.349762,-0.620056,-0.34613,-0.610962,-115.858,44.8667,-30.7583,-7838,-28802
738,17004,0,0,0,-128.842,-89.2035,7.80579,9.81914,-0.090918,-0.0861328,0.349762,-0.620056,-0.346161,-0.610962,-115.858,44.8167,-30.775,-7838,-28802
744,17010,0,0,0,-128.842,-89.2035,7.80579,9.81914,-0.090918,-0.062207,0.349762,-0.620056,-0.346161,-0.610962,-115.842,44.7833,-30.7917,-7838,-28802
750,17016,0,0,0,-128.837,-89.2035,7.80579,9.80957,-0.110059,-0.0526367,0.349792,-0.620026,-0.346161,-0.610931,-115.792,44.7583,-30.8833,-7838,-28802
756,17022,0,0,0,-128.831,-89.2035,7.80579,9.80957,-0.124414,-0.0574219,0.349823,-0.619995,-0.346222,-0.610931,-115.775,44.75,-30.9083,-7838,-28802
762,17028,0,0,0,-128.826,-89.2035,7.80579,9.81914,-0.100488,-0.0717773,0.349854,-0.619995,-0.346252,-0.610901,-115.767,44.7583,-30.9,-7838,-28802
768,17034,0,0,0,-128.82,-89.2035,7.80579,9.81914,-0.105273,-0.0526367,0.349884,-0.619965,-0.346283,-0.61087,-115.775,44.7667,-30.8917,-7838,-28802
774,17040,0,0,0,-128.815,-89.2035,7.80579,9.80957,-0.0957031,-0.0957031,0.349915,-0.619965,-0.346313,-0.61087,-115.767,44.775,-30.85,-7838,-28802
780,17046,0,0,0,-128.809,-89.2035,7.80579,9.79521,-0.114844,-0.110059,0.349945,-0.619934,-0.346313,-0.61087,-115.725,44.7667,-30.7833,-7838,-28802
786,17052,0,0,0,-128.804,-89.2035,7.80579,9.8,-0.090918,-0.0574219,0.349976,-0.619934,-0.346344,-0.61084,-115.708,44.7667,-30.7583,-7838,-28802
792,17058,0,0,0,-128.804,-89.2035,7.80579,9.8,-0.114844,-0.0861328,0.349976,-0.619934,-0.346375,-0.61084,-115.692,44.775,-30.725,-7838,-28802
798,17064,0,0,0,-128.804,-89.2035,7.80579,9.80957,-0.0861328,-0.0861328,0.349976,-0.619934,-0.346375,-0.61084,-115.683,44.7833,-30.7083,-7838,-28802
804,17070,0,0,0,-128.798,-89.2035,7.80579,9.82871,-0.0957031,-0.0813477,0.349976,-0.619934,-0.346375,-0.61084,-115.692,44.7917,-30.7167,-7838,-28802
810,17076,0,0,0,-128.798,-89.2035,7.80579,9.81914,-0.0861328,-0.0957031,0.350006,-0.619904,-0.346375,-0.61084,-115.725,44.8,-30.8167,-7838,-28802
816,17082,0,0,0,-128.804,-89.2035,7.80579,9.82871,-0.100488,-0.100488,0.349976,-0.619934,-0.346375,-0.61084,-115.733,44.7917,-30.8583,-7838,-28802
822,17088,0,0,0,-128.804,-89.2035,7.80579,9.81436,-0.090918,-0.0861328,0.349976,-0.619934,-0.346344,-0.61084,-115.742,44.775,-30.85,-7838,-28802
828,17094,0,0,0,-128.804,-89.2035,7.80579,9.80957,-0.124414,-0.0765625,0.349976,-0.619934,-0.346344,-0.61084,-115.758,44.7667,-30.8083,-7838,-28802
834,17100,0,0,0,-128.804,-89.2035,7.80579,9.81914,-0.110059,-0.0813477,0.349976,-0.619934,-0.346344,-0.61084,-115.767,44.7583,-30.75,-7838,-28802
840,17106,0,0,0,-128.809,-89.2035,7.80579,9.8,-0.100488,-0.114844,0.349945,-0.619934,-0.346344,-0.61084,-115.775,44.7583,-30.65,-7838,-28802
846,17112,0,0,0,-128.809,-89.2035,7.80579,9.80957,-0.090918,-0.0717773,0.349945,-0.619934,-0.346313,-0.61087,-115.775,44.75,-30.6083,-7838,-28802
852,17118,0,0,0,-128.809,-89.2035,7.80579,9.80957,-0.114844,-0.062207,0.349945,-0.619934,-0.346313,-0.61087,-115.783,44.75,-30.575,-7838,-28802
858,17124,0,0,0,-128.815,-89.2035,7.80579,9.80479,-0.0861328,-0.100488,0.349915,-0.619965,-0.346313,-0.61087,-115.792,44.75,-30.5583,-7838,-28802
864,17130,0,0,0,-128.815,-89.2035,7.80579,9.82871,-0.100488,-0.0957031,0.349915,-0.619965,-0.346283,-0.61087,-115.8,44.75,-30.5583,-7838,-28802
870,17136,0,0,0,-128.82,-89.2035,7.80579,9.82871,-0.105273,-0.0574219,0.349884,-0.619965,-0.346283,-0.610901,-115.792,44.7667,-30.6083,-7838,-28802
876,17142,0,0,0,-128.82,-89.2035,7.80579,9.80479,-0.114844,-0.0574219,0.349884,-0.619965,-0.346283,-0.610901,-115.808,44.7667,-30.5917,-7838,-28802
882,17148,0,0,0,-128.82,-89.2035,7.80579,9.82871,-0.0765625,-0.114844,0.349884,-0.619965,-0.346283,-0.610901,-115.825,44.7667,-30.5917,-7838,-28802
888,17154,0,0,0,-128.826,-89.2035,7.80579,9.80957,-0.0861328,-0.0813477,0.349854,-0.619995,-0.346252,-0.610901,-115.808,44.775,-30.5917,-7838,-28802
894,17160,0,0,0,-128.826,-89.2035,7.80579,9.8,-0.0957031,-0.110059,0.349854,-0.619995,-0.346252,-0.610901,-115.808,44.7917,-30.6167,-7838,-28802
900,17166,0,0,0,-128.837,-89.2035,7.80579,9.79521,-0.090918,-0.105273,0.349792,-0.620026,-0.346191,-0.610931,-115.8,44.85,-30.7,-7838,-28802
906,17172,0,0,0,-128.842,-89.2035,7.80579,9.77607,-0.119629,-0.0813477,0.349762,-0.620026,-0.346161,-0.610962,-115.817,44.85,-30.7083,-7838,-28802
912,17178,0,0,0,-128.848,-89.2035,7.80579,9.81914,-0.090918,-0.0861328,0.349731,-0.620056,-0.34613,-0.610962,-115.833,44.8417,-30.7,-7838,-28802
918,17184,0,0,0,-128.848,-89.2035,7.80579,9.81914,-0.133984,-0.062207,0.349731,-0.620056,-0.34613,-0.610992,-115.842,44.8167,-30.7,-7838,-28802
924,17190,0,0,0,-128.853,-89.2035,7.80579,9.82393,-0.110059,-0.0574219,0.349731,-0.620056,-0.3461,-0.610992,-115.858,44.7833,-30.7083,-7838,-28802
930,17196,0,0,0,-128.853,-89.2035,7.80579,9.82393,-0.119629,-0.110059,0.349701,-0.620056,-0.3461,-0.610992,-115.833,44.7417,-30.7333,-7838,-28802
936,17202,0,0,0,-128.848,-89.2035,7.80579,9.80957,-0.119629,-0.0526367,0.349731,-0.620056,-0.3461,-0.610992,-115.8,44.7417,-30.7583,-7838,-28802
942,17208,0,0,0,-128.848,-89.2035,7.80579,9.84307,-0.0957031,-0.0957031,0.349731,-0.620056,-0.3461,-0.610992,-115.775,44.725,-30.7583,-7838,-28802
948,17214,0,0,0,-128.848,-89.2035,7.80579,9.80957,-0.100488,-0.105273,0.349731,-0.620056,-0.3461,-0.610992,-115.775,44.7083,-30.7417,-7838,-28802
954,17220,0,0,0,-128.853,-89.2035,7.80579,9.80479,-0.090918,-0.0957031,0.349701,-0.620056,-0.3461,-0.610992,-115.783,44.675,-30.75,-7838,-28802
960,17226,0,0,0,-128.853,-89.2035,7.80579,9.80957,-0.100488,-0.0717773,0.349701,-0.620087,-0.346069,-0.610992,-115.825,44.6583,-30.7417,-7838,-28802
966,17232,0,0,0,-128.853,-89.2035,7.80579,9.79521,-0.105273,-0.0574219,0.349701,-0.620087,-0.346069,-0.610992,-115.833,44.6667,-30.7417,-7838,-28802
972,17238,0,0,0,-128.853,-89.2035,7.80579,9.82871,-0.119629,-0.0861328,0.349701,-0.620087,-0.3461,-0.610992,-115.85,44.7,-30.7083,-7838,-28802
978,17244,0,0,0,-128.853,-89.2035,7.80579,9.80479,-0.110059,-0.0574219,0.349701,-0.620087,-0.3461,-0.610992,-115.867,44.7083,-30.6833,-7838,-28802
984,17250,0,0,0,-128.853,-89.2035,7.80579,9.80479,-0.100488,-0.0765625,0.349701,-0.620056,-0.3461,-0.610992,-115.875,44.7167,-30.7,-7838,-28802
990,17256,0,0,0,-128.848,-89.2035,7.80579,9.81914,-0.0957031,-0.0957031,0.349731,-0.620056,-0.3461,-0.610992,-115.9,44.7417,-30.65,-7838,-28802
996,17262,0,0,0,-128.848,-89.2035,7.80579,9.82871,-0.0861328,-0.0765625,0.349731,-0.620056,-0.3461,-0.610992,-115.9,44.775,-30.6667,-7838,-28802
1002,17268,0,0,0,-128.848,-89.2035,7.80579,9.79043,-0.119629,-0.0813477,0.349731,-0.620056,-0.3461,-0.610992,-115.892,44.8083,-30.6417,-7838,-28802
1008,17274,0,0,0,-128.848,-89.2035,7.80579,9.80957,-0.090918,-0.0861328,0.349731,-0.620056,-0.3461,-0.610992,-115.883,44.85,-30.6583,-7838,-28802
1014,17280,0,0,0,-128.848,-89.2035,7.80579,9.79521,-0.0861328,-0.0765625,0.349731,-0.620056,-0.3461,-0.610992,-115.875,44.8833,-30.7,-7838,-28802
1020,17286,0,0,0,-128.848,-89.2035,7.80579,9.81436,-0.114844,-0.0765625,0.349731,-0.620056,-0.34613,-0.610992,-115.875,44.9167,-30.7917,-7838,-28802
1026,17292,0,0,0,-128.848,-89.2035,7.80579,9.77607,-0.119629,-0.090918,0.349731,-0.620056,-0.34613,-0.610992,-115.875,44.925,-30.825,-7838,-28802
1032,17298,0,0,0,-128.848,-89.2035,7.80579,9.82871,-0.0957031,-0.090918,0.349731,-0.620056,-0.34613,-0.610992,-115.85,44.9333,-30.8417,-7838,-28802
1038,17304,0,0,0,-128.848,-89.2035,7.80579,9.80479,-0.100488,-0.105273,0.349731,-0.620056,-0.3461,-0.610992,-115.867,44.9417,-30.8333,-7838,-28802
1044,17310,0,0,0,-128.853,-89.2035,7.80579,9.80479,-0.119629,-0.0861328,0.349701,-0.620056,-0.3461,-0.610992,-115.85,44.9333,-30.8,-7838,-28802
1050,17316,0,0,0,-128.853,-89.2035,7.80579,9.8,-0.114844,-0.0669922,0.349701,-0.620087,-0.3461,-0.610992,-115.875,44.925,-30.775,-7838,-28802
1056,17322,0,0,0,-128.853,-89.2035,7.80579,9.77607,-0.114844,-0.0717773,0.349701,-0.620087,-0.3461,-0.610992,-115.875,44.9333,-30.7583,-7838,-28802
1062,17328,0,0,0,-128.853,-89.2035,7.80579,9.80957,-0.0861328,-0.090918,0.349701,-0.620087,-0.3461,-0.610992,-115.858,44.9167,-30.7417,-7838,-28802
1068,17334,0,0,0,-128.853,-89.2035,7.80579,9.78564,-0.105273,-0.0382813,0.349701,-0.620056,-0.3461,-0.610992,-115.833,44.875,-30.7,-7838,-28802
1074,17340,0,0,0,-128.848,-89.2035,7.80579,9.8,-0.119629,-0.110059,0.349731,-0.620056,-0.34613,-0.610992,-115.775,44.825,-30.65,-7838,-28802
1080,17346,0,0,0,-128.848,-89.2035,7.80579,9.80957,-0.0957031,-0.0813477,0.349731,-0.620056,-0.34613,-0.610962,-115.7,44.7,-30.5417,-7838,-28802
1086,17352,0,0,0,-128.848,-89.2035,7.80579,9.79521,-0.100488,-0.100488,0.349731,-0.620056,-0.34613,-0.610962,-115.683,44.65,-30.475,-7838,-28802
1092,17358,0,0,0,-128.842,-89.2035,7.80579,9.81914,-0.105273,-0.0669922,0.349762,-0.620056,-0.34613,-0.610962,-115.683,44.65,-30.4417,-7838,-28802
1098,17364,0,0,0,-128.842,-89.2035,7.80579,9.81436,-0.114844,-0.0669922,0.349762,-0.620026,-0.346161,-0.610962,-115.717,44.675,-30.4417,-7838,-28802
1104,17370,0,0,0,-128.842,-89.2035,7.80579,9.79043,-0.090918,-0.0574219,0.349762,-0.620026,-0.346161,-0.610962,-115.733,44.7083,-30.45,-7838,-28802
1110,17376,0,0,0,-128.831,-89.2035,7.80579,9.82393,-0.090918,-0.0669922,0.349792,-0.620026,-0.346191,-0.610931,-115.817,44.8,-30.4167,-7838,-28802
1116,17382,0,0,0,-128.831,-89.2035,7.80579,9.81436,-0.0957031,-0.0765625,0.349823,-0.619995,-0.346222,-0.610931,-115.833,44.825,-30.3833,-7838,-28802
1122,17388,0,0,0,-128.831,-89.2035,7.80579,9.8,-0.0717773,-0.0717773,0.349823,-0.619995,-0.346222,-0.610931,-115.842,44.8417,-30.375,-7838,-28802
1128,17394,0,0,0,-128.831,-89.2035,7.80579,9.8,-0.105273,-0.090918,0.349823,-0.619995,-0.346222,-0.610931,-115.858,44.8417,-30.3583,-7838,-28802
1134,17400,0,0,0,-128.831,-89.2035,7.80579,9.79521,-0.0957031,-0.100488,0.349823,-0.619995,-0.346222,-0.610931,-115.858,44.825,-30.35,-7838,-28802
1140,17406,0,0,0,-128.831,-89.2035,7.80579,9.81914,-0.0957031,-0.0669922,0.349823,-0.619995,-0.346222,-0.610931,-115.883,44.7833,-30.2917,-7838,-28802
1146,17412,0,0,0,-128.831,-89.2035,7.80579,9.81436,-0.124414,-0.090918,0.349823,-0.619995,-0.346222,-0.610931,-115.892,44.7583,-30.2917,-7838,-28802
1152,17418,0,0,0,-128.826,-89.2035,7.80579,9.81914,-0.110059,-0.062207,0.349823,-0.619995,-0.346222,-0.610931,-115.892,44.7417,-30.3083,-7838,-28802
1158,17424,0,0,0,-128.826,-89.2035,7.80579,9.80479,-0.114844,-0.0861328,0.349854,-0.619995,-0.346252,-0.610901,-115.883,44.7333,-30.3167,-7838,-28802
1164,17430,0,0,0,-128.82,-89.2035,7.80579,9.82393,-0.090918,-0.0574219,0.349854,-0.619995,-0.346252,-0.610901,-115.883,44.7333,-30.2917,-7838,-28802
1170,17436,0,0,0,-128.82,-89.209,7.80579,9.80957,-0.105273,-0.0765625,0.349884,-0.619965,-0.346283,-0.610901,-115.875,44.7333,-30.275,-7838,-28802
1176,17442,0,0,0,-128.815,-89.209,7.80579,9.81436,-0.110059,-0.100488,0.349915,-0.619965,-0.346283,-0.61087,-115.867,44.7917,-30.2833,-7838,-28802
1182,17448,0,0,0,-128.809,-89.2035,7.80579,9.81436,-0.0861328,-0.0478516,0.349915,-0.619934,-0.346313,-0.61087,-115.875,44.8417,-30.3083,-7838,-28802
1188,17454,0,0,0,-128.809,-89.209,7.80579,9.79043,-0.119629,-0.0765625,0.349945,-0.619934,-0.346344,-0.61087,-115.858,44.8917,-30.35,-7838,-28802
1194,17460,0,0,0,-128.798,-89.2035,7.80579,9.80957,-0.114844,-0.090918,0.349976,-0.619904,-0.346375,-0.61084,-115.858,44.925,-30.4083,-7838,-28802
1200,17466,0,0,0,-128.793,-89.209,7.80579,9.81914,-0.129199,-0.0813477,0.350037,-0.619873,-0.346405,-0.610809,-115.842,44.8917,-30.4333,-7838,-28802
1206,17472,0,0,0,-128.787,-89.209,7.80579,9.79043,-0.0717773,-0.0813477,0.350037,-0.619873,-0.346436,-0.610809,-115.842,44.875,-30.45,-7838,-28802
1212,17478,0,0,0,-128.787,-89.209,7.80579,9.8,-0.110059,-0.114844,0.350067,-0.619873,-0.346436,-0.610809,-115.842,44.8583,-30.4333,-7838,-28802
1218,17484,0,0,0,-128.787,-89.209,7.80579,9.81436,-0.100488,-0.0717773,0.350067,-0.619873,-0.346466,-0.610809,-115.842,44.8667,-30.425,-7838,-28802
1224,17490,0,0,0,-128.782,-89.209,7.80579,9.81436,-0.124414,-0.0717773,0.350067,-0.619843,-0.346466,-0.610779,-115.842,44.875,-30.45,-7838,-28802
1230,17496,0,0,0,-128.782,-89.209,7.80579,9.81914,-0.100488,-0.105273,0.350098,-0.619843,-0.346497,-0.610779,-115.833,44.8667,-30.475,-7838,-28802
1236,17502,0,0,0,-128.776,-89.209,7.80579,9.83828,-0.100488,-0.0861328,0.350098,-0.619843,-0.346497,-0.610779,-115.842,44.8333,-30.4667,-7838,-28802
1242,17508,0,0,0,-128.776,-89.209,7.80579,9.80479,-0.105273,-0.0717773,0.350128,-0.619843,-0.346497,-0.610779,-115.842,44.8083,-30.425,-7838,-28802
1248,17514,0,0,0,-128.776,-89.209,7.80579,9.80957,-0.0957031,-0.0717773,0.350128,-0.619843,-0.346527,-0.610779,-115.85,44.7917,-30.4083,-7838,-28802
1254,17520,0,0,0,-128.771,-89.209,7.80579,9.79521,-0.0861328,-0.062207,0.350128,-0.619812,-0.346527,-0.610748,-115.875,44.775,-30.3833,-7838,-28802
1260,17526,0,0,0,-128.765,-89.209,7.80579,9.81436,-0.114844,-0.0861328,0.350159,-0.619812,-0.346558,-0.610748,-115.9,44.7917,-30.4,-7838,-28802
1266,17532,0,0,0,-128.765,-89.209,7.80579,9.80479,-0.110059,-0.090918,0.350189,-0.619781,-0.346588,-0.610718,-115.908,44.8083,-30.4,-7838,-28802
1272,17538,0,0,0,-128.76,-89.209,7.80579,9.82393,-0.100488,-0.062207,0.350189,-0.619781,-0.346588,-0.610718,-115.9,44.825,-30.4083,-7838,-28802
1278,17544,0,0,0,-128.754,-89.209,7.80579,9.82393,-0.119629,-0.0957031,0.35022,-0.619781,-0.346619,-0.610718,-115.875,44.8417,-30.45,-7838,-28802
1284,17550,0,0,0,-128.754,-89.209,7.80579,9.79043,-0.105273,-0.0861328,0.35022,-0.619781,-0.346619,-0.610718,-115.85,44.8583,-30.4667,-7838,-28802
1290,17556,0,0,0,-128.754,-89.209,7.80579,9.78564,-0.0957031,-0.0861328,0.35025,-0.619751,-0.346649,-0.610687,-115.858,44.8583,-30.475,-7838,-28802
1296,17562,0,0,0,-128.749,-89.209,7.80579,9.82393,-0.114844,-0.0813477,0.35025,-0.619751,-0.346649,-0.610687,-115.867,44.85,-30.4917,-7838,-28802
1302,17568,0,0,0,-128.749,-89.209,7.80579,9.83828,-0.100488,-0.090918,0.35025,-0.619751,-0.346649,-0.610687,-115.9,44.85,-30.5,-7838,-28802
1308,17574,0,0,0,-128.749,-89.209,7.80579,9.82871,-0.100488,-0.0765625,0.35025,-0.619751,-0.346649,-0.610687,-115.908,44.8417,-30.5417,-7838,-28802
1314,17580,0,0,0,-128.743,-89.209,7.80579,9.81436,-0.090918,-0.0765625,0.350281,-0.619751,-0.34668,-0.610687,-115.883,44.7917,-30.5917,-7838,-28802
1320,17586,0,0,0,-128.738,-89.209,7.80579,9.8,-0.114844,-0.0717773,0.350311,-0.61972,-0.34671,-0.610657,-115.875,44.7833,-30.6167,-7838,-28802
1326,17592,0,0,0,-128.738,-89.209,7.80579,9.8,-0.062207,-0.090918,0.350311,-0.61972,-0.34671,-0.610657,-115.883,44.7917,-30.6583,-7838,-28802
1332,17598,0,0,0,-128.738,-89.209,7.80579,9.82871,-0.090918,-0.0765625,0.350311,-0.61972,-0.34671,-0.610657,-115.908,44.8083,-30.6583,-7838,-28802
1338,17604,0,0,0,-128.738,-89.209,7.80579,9.78564,-0.0957031,-0.0717773,0.350342,-0.61972,-0.34671,-0.610657,-115.925,44.8083,-30.6667,-7838,-28802
1344,17610,0,0,0,-128.732,-89.209,7.80579,9.80957,-0.124414,-0.0813477,0.350342,-0.61972,-0.34671,-0.610657,-115.925,44.8083,-30.7333,-7838,-28802
1350,17616,0,0,0,-128.732,-89.209,7.80579,9.81436,-0.114844,-0.0765625,0.350342,-0.61969,-0.346741,-0.610626,-115.917,44.8083,-30.75,-7838,-28802
1356,17622,0,0,0,-128.727,-89.209,7.80579,9.81436,-0.114844,-0.0574219,0.350372,-0.61969,-0.346771,-0.610626,-115.917,44.8083,-30.825,-7838,-28802
1362,17628,0,0,0,-128.727,-89.209,7.80579,9.8,-0.090918,-0.100488,0.350372,-0.61969,-0.346771,-0.610626,-115.917,44.8083,-30.8917,-7838,-28802
1368,17634,0,0,0,-128.721,-89.209,7.80579,9.81914,-0.100488,-0.0669922,0.350403,-0.619659,-0.346771,-0.610626,-115.908,44.8167,-30.9333,-7838,-28802
1374,17640,0,0,0,-128.721,-89.209,7.80579,9.82871,-0.110059,-0.090918,0.350403,-0.619659,-0.346802,-0.610596,-115.867,44.8583,-30.9083,-7838,-28802
1380,17646,0,0,0,-128.716,-89.209,7.80579,9.81914,-0.124414,-0.0861328,0.350433,-0.619659,-0.346832,-0.610596,-115.842,44.8667,-30.8583,-7838,-28802
1386,17652,0,0,0,-128.716,-89.209,7.80579,9.80957,-0.090918,-0.0813477,0.350433,-0.619629,-0.346832,-0.610596,-115.833,44.8667,-30.775,-7838,-28802
1392,17658,0,0,0,-128.716,-89.209,7.80579,9.8,-0.100488,-0.0957031,0.350464,-0.619629,-0.346832,-0.610596,-115.833,44.85,-30.7333,-7838,-28802
1398,17664,0,0,0,-128.71,-89.209,7.80579,9.81914,-0.090918,-0.0765625,0.350464,-0.619629,-0.346832,-0.610596,-115.825,44.825,-30.6833,-7838,-28802
1404,17670,0,0,0,-128.71,-89.209,7.80579,9.80957,-0.124414,-0.062207,0.350464,-0.619629,-0.346863,-0.610565,-115.808,44.775,-30.6,-7838,-28802
1410,17676,0,0,0,-128.705,-89.209,7.80579,9.80957,-0.100488,-0.062207,0.350494,-0.619598,-0.346893,-0.610565,-115.792,44.775,-30.5583,-7838,-28802
1416,17682,0,0,0,-128.699,-89.209,7.80579,9.81436,-0.124414,-0.100488,0.350525,-0.619598,-0.346924,-0.610535,-115.783,44.7833,-30.525,-7838,-28802
1422,17688,0,0,0,-128.694,-89.209,7.80579,9.82871,-0.129199,-0.0861328,0.350555,-0.619598,-0.346924,-0.610535,-115.783,44.7833,-30.5333,-7838,-28802
1428,17694,0,0,0,-128.688,-89.209,7.80579,9.82871,-0.0957031,-0.0574219,0.350586,-0.619568,-0.346954,-0.610504,-115.783,44.7833,-30.5667,-7838,-28802
1434,17700,0,0,0,-128.683,-89.209,7.80579,9.81436,-0.100488,-0.0813477,0.350586,-0.619568,-0.346985,-0.610504,-115.783,44.7417,-30.5667,-7838,-28802
1440,17706,0,0,0,-128.677,-89.209,7.80579,9.82393,-0.13877,-0.0765625,0.350647,-0.619537,-0.347046,-0.610474,-115.783,44.75,-30.5417,-7838,-28802
1446,17712,0,0,0,-128.672,-89.209,7.80029,9.8335,-0.110059,-0.090918,0.350677,-0.619507,-0.347076,-0.610474,-115.8,44.75,-30.5083,-7838,-28802
1452,17718,0,0,0,-128.666,-89.209,7.80029,9.79521,-0.110059,-0.0765625,0.350708,-0.619507,-0.347076,-0.610443,-115.8,44.75,-30.4583,-7838,-28802
1458,17724,0,0,0,-128.661,-89.209,7.80029,9.81436,-0.0957031,-0.0669922,0.350739,-0.619476,-0.347107,-0.610443,-115.817,44.7583,-30.4333,-7838,-28802
1464,17730,0,0,0,-128.65,-89.209,7.80029,9.80957,-0.100488,-0.062207,0.350769,-0.619476,-0.347137,-0.610413,-115.808,44.7417,-30.4,-7838,-28802
1470,17736,0,0,0,-128.644,-89.209,7.80579,9.81914,-0.110059,-0.0861328,0.35083,-0.619415,-0.347198,-0.610382,-115.792,44.7167,-30.3917,-7838,-28802
1476,17742,0,0,0,-128.639,-89.209,7.80579,9.81436,-0.0813477,-0.0574219,0.350861,-0.619415,-0.347229,-0.610352,-115.783,44.6833,-30.3833,-7838,-28802
1482,17748,0,0,0,-128.633,-89.209,7.80029,9.82871,-0.119629,-0.105273,0.350891,-0.619385,-0.34726,-0.610352,-115.775,44.6417,-30.3833,-7838,-28802
1488,17754,0,0,0,-128.628,-89.209,7.80579,9.79043,-0.090918,-0.0813477,0.350922,-0.619385,-0.34729,-0.610321,-115.767,44.6167,-30.4,-7838,-28802
1494,17760,0,0,0,-128.622,-89.209,7.80029,9.81914,-0.124414,-0.0717773,0.350922,-0.619354,-0.347321,-0.610321,-115.75,44.575,-30.4417,-7838,-28802
1500,17766,0,0,0,-128.617,-89.209,7.80579,9.82871,-0.105273,-0.0669922,0.350983,-0.619354,-0.347351,-0.610291,-115.742,44.575,-30.4417,-7838,-28802
1506,17772,0,0,0,-128.611,-89.209,7.80579,9.80957,-0.100488,-0.0861328,0.351013,-0.619324,-0.347382,-0.610291,-115.708,44.5833,-30.4583,-7838,-28802
1512,17778,0,0,0,-128.606,-89.209,7.80029,9.81436,-0.110059,-0.0813477,0.351013,-0.619324,-0.347412,-0.61026,-115.675,44.5917,-30.4667,-7838,-28802
1518,17784,0,0,0,-128.6,-89.209,7.80029,9.80957,-0.114844,-0.100488,0.351044,-0.619293,-0.347412,-0.61026,-115.642,44.6083,-30.4917,-7838,-28802
1524,17790,0,0,0,-128.595,-89.209,7.80029,9.82871,-0.110059,-0.090918,0.351074,-0.619293,-0.347443,-0.61026,-115.592,44.6667,-30.55,-7838,-28802
1530,17796,0,0,0,-128.595,-89.209,7.80029,9.80957,-0.100488,-0.062207,0.351105,-0.619263,-0.347473,-0.610229,-115.592,44.7167,-30.55,-7838,-28802
1536,17802,0,0,0,-128.589,-89.209,7.80029,9.81436,-0.105273,-0.0861328,0.351105,-0.619263,-0.347504,-0.610229,-115.592,44.7583,-30.55,-7838,-28802
1542,17808,0,0,0,-128.584,-89.209,7.80029,9.81914,-0.090918,-0.0526367,0.351135,-0.619263,-0.347504,-0.610199,-115.608,44.775,-30.5167,-7838,-28802
1548,17814,0,0,0,-128.584,-89.209,7.80029,9.81436,-0.0765625,-0.0669922,0.351166,-0.619232,-0.347534,-0.610199,-115.617,44.8083,-30.4833,-7838,-28802
1554,17820,0,0,0,-128.578,-89.209,7.80029,9.79043,-0.090918,-0.0957031,0.351166,-0.619232,-0.347565,-0.610168,-115.642,44.8583,-30.4583,-7838,-28802
1560,17826,0,0,0,-128.578,-89.209,7.80029,9.81436,-0.110059,-0.090918,0.351196,-0.619202,-0.347565,-0.610168,-115.642,44.875,-30.425,-7838,-28802
1566,17832,0,0,0,-128.573,-89.209,7.80029,9.83828,-0.0957031,-0.0717773,0.351196,-0.619202,-0.347595,-0.610168,-115.642,44.8833,-30.4083,-7838,-28802
1572,17838,0,0,0,-128.573,-89.209,7.80029,9.8,-0.105273,-0.105273,0.351196,-0.619202,-0.347595,-0.610168,-115.625,44.8833,-30.3667,-7838,-28802
1578,17844,0,0,0,-128.573,-89.209,7.80029,9.82871,-0.124414,-0.0717773,0.351196,-0.619202,-0.347595,-0.610168,-115.608,44.875,-30.3083,-7838,-28802
1584,17850,0,0,0,-128.573,-89.209,7.80029,9.80957,-0.0957031,-0.0765625,0.351227,-0.619202,-0.347595,-0.610168,-115.625,44.8583,-30.2417,-7838,-28802
1590,17856,0,0,0,-128.568,-89.209,7.80029,9.81436,-0.110059,-0.090918,0.351227,-0.619202,-0.347595,-0.610168,-115.633,44.8417,-30.25,-7838,-28802
1596,17862,0,0,0,-128.568,-89.209,7.80029,9.81436,-0.129199,-0.0813477,0.351227,-0.619202,-0.347626,-0.610138,-115.658,44.8417,-30.2417,-7838,-28802
1602,17868,0,0,0,-128.568,-89.209,7.80029,9.8,-0.090918,-0.0861328,0.351227,-0.619202,-0.347626,-0.610138,-115.658,44.8417,-30.2917,-7838,-28802
1608,17874,0,0,0,-128.568,-89.209,7.80029,9.81914,-0.0765625,-0.0813477,0.351257,-0.619171,-0.347626,-0.610138,-115.65,44.85,-30.325,-7838,-28802
1614,17880,0,0,0,-128.568,-89.209,7.80029,9.8335,-0.105273,-0.0813477,0.351257,-0.619171,-0.347626,-0.610138,-115.642,44.8917,-30.4,-7838,-28802
1620,17886,0,0,0,-128.568,-89.209,7.80029,9.81436,-0.105273,-0.0717773,0.351257,-0.619171,-0.347626,-0.610138,-115.625,44.9,-30.4167,-7838,-28802
1626,17892,0,0,0,-128.568,-89.209,7.80029,9.8,-0.110059,-0.090918,0.351257,-0.619171,-0.347626,-0.610138,-115.633,44.9,-30.4083,-7838,-28802
1632,17898,0,0,0,-128.562,-89.209,7.80029,9.80957,-0.143555,-0.0669922,0.351257,-0.619171,-0.347656,-0.610138,-115.658,44.9,-30.35,-7838,-28802
1638,17904,0,0,0,-128.562,-89.209,7.80029,9.81436,-0.129199,-0.0861328,0.351257,-0.619171,-0.347656,-0.610138,-115.692,44.8917,-30.35,-7838,-28802
1644,17910,0,0,0,-128.557,-89.209,7.80029,9.81914,-0.0717773,-0.062207,0.351288,-0.619171,-0.347656,-0.610138,-115.767,44.875,-30.4333,-7838,-28802
1650,17916,0,0,0,-128.557,-89.209,7.80029,9.82871,-0.100488,-0.0526367,0.351288,-0.619141,-0.347687,-0.610107,-115.808,44.8667,-30.4833,-7838,-28802
1656,17922,0,0,0,-128.557,-89.209,7.80029,9.80957,-0.0765625,-0.110059,0.351288,-0.619171,-0.347687,-0.610107,-115.825,44.85,-30.5333,-7838,-28802
1662,17928,0,0,0,-128.557,-89.209,7.80029,9.8,-0.0861328,-0.090918,0.351288,-0.619171,-0.347656,-0.610107,-115.875,44.8417,-30.55,-7838,-28802
1668,17934,0,0,0,-128.557,-89.209,7.80029,9.79043,-0.105273,-0.0717773,0.351288,-0.619171,-0.347656,-0.610138,-115.892,44.825,-30.5667,-7838,-28802
1674,17940,0,0,0,-128.557,-89.209,7.80029,9.85264,-0.13877,-0.0813477,0.351288,-0.619171,-0.347656,-0.610107,-115.883,44.7667,-30.6,-7838,-28802
1680,17946,0,0,0,-128.557,-89.209,7.80029,9.80479,-0.0813477,-0.0957031,0.351288,-0.619171,-0.347656,-0.610107,-115.875,44.75,-30.625,-7838,-28802
1686,17952,0,0,0,-128.557,-89.209,7.80029,9.82871,-0.100488,-0.0765625,0.351288,-0.619171,-0.347656,-0.610138,-115.85,44.725,-30.6417,-7838,-28802
1692,17958,0,0,0,-128.557,-89.209,7.80029,9.79521,-0.0861328,-0.0813477,0.351288,-0.619171,-0.347656,-0.610138,-115.833,44.7083,-30.6583,-7838,-28802
1698,17964,0,0,0,-128.562,-89.209,7.80029,9.81436,-0.0957031,-0.090918,0.351257,-0.619171,-0.347656,-0.610138,-115.8,44.725,-30.6667,-7838,-28802
1704,17970,0,0,0,-128.562,-89.209,7.80029,9.80479,-0.0957031,-0.0526367,0.351257,-0.619171,-0.347626,-0.610138,-115.675,44.7167,-30.7333,-7838,-28802
1710,17976,0,0,0,-128.562,-89.209,7.80029,9.82871,-0.110059,-0.0861328,0.351257,-0.619171,-0.347626,-0.610138,-115.625,44.7083,-30.725,-7838,-28802
1716,17982,0,0,0,-128.568,-89.209,7.80029,9.81436,-0.0717773,-0.0957031,0.351227,-0.619171,-0.347626,-0.610138,-115.583,44.6833,-30.7333,-7838,-28802
1722,17988,0,0,0,-128.568,-89.209,7.80029,9.84307,-0.143555,-0.0861328,0.351227,-0.619202,-0.347626,-0.610138,-115.558,44.6583,-30.7583,-7838,-28802
1728,17994,0,0,0,-128.568,-89.209,7.80029,9.83828,-0.14834,-0.090918,0.351227,-0.619202,-0.347595,-0.610168,-115.533,44.6417,-30.7667,-7838,-28802
1734,18000,0,0,0,-128.573,-89.209,7.80029,9.79043,-0.0957031,-0.105273,0.351196,-0.619202,-0.347595,-0.610168,-115.5,44.6083,-30.7833,-7838,-28802
1740,18006,0,0,0,-128.573,-89.209,7.80029,9.83828,-0.119629,-0.0382813,0.351227,-0.619202,-0.347595,-0.610168,-115.492,44.5833,-30.7583,-7838,-28802
1746,18012,0,0,0,-128.568,-89.209,7.80029,9.79521,-0.0957031,-0.0765625,0.351227,-0.619202,-0.347595,-0.610168,-115.5,44.575,-30.7333,-7838,-28802
1752,18018,0,0,0,-128.568,-89.209,7.80029,9.81436,-0.110059,-0.0717773,0.351227,-0.619202,-0.347595,-0.610168,-115.5,44.5833,-30.65,-7838,-28802
1758,18024,0,0,0,-128.568,-89.209,7.80029,9.79521,-0.0717773,-0.090918,0.351227,-0.619202,-0.347626,-0.610138,-115.5,44.6083,-30.5917,-7838,-28802
1764,18030,0,0,0,-128.568,-89.209,7.80029,9.80957,-0.124414,-0.0957031,0.351227,-0.619202,-0.347595,-0.610168,-115.45,44.6833,-30.5,-7838,-28802
1770,18036,0,0,0,-128.568,-89.209,7.80029,9.77129,-0.0669922,-0.0957031,0.351227,-0.619202,-0.347595,-0.610168,-115.425,44.6917,-30.525,-7838,-28802
1776,18042,0,0,0,-128.573,-89.209,7.80029,9.79521,-0.14834,-0.0813477,0.351227,-0.619202,-0.347595,-0.610168,-115.375,44.7167,-30.55,-7838,-28802
1782,18048,0,0,0,-128.573,-89.209,7.80029,9.8,-0.090918,-0.0765625,0.351196,-0.619202,-0.347595,-0.610168,-115.358,44.725,-30.5917,-7838,-28802
1788,18054,0,0,0,-128.573,-89.209,7.80029,9.81436,-0.0957031,-0.100488,0.351196,-0.619202,-0.347595,-0.610168,-115.333,44.7333,-30.6167,-7838,-28802
1794,18060,0,0,0,-128.573,-89.209,7.80029,9.79521,-0.0861328,-0.0861328,0.351196,-0.619202,-0.347565,-0.610168,-115.292,44.7833,-30.6417,-7838,-28802
1800,18066,0,0,0,-128.578,-89.209,7.80029,9.82871,-0.133984,-0.0861328,0.351166,-0.619232,-0.347565,-0.610168,-115.275,44.8,-30.65,-7838,-28802
1806,18072,0,0,0,-128.578,-89.209,7.80029,9.77607,-0.0717773,-0.0717773,0.351166,-0.619232,-0.347565,-0.610199,-115.275,44.8167,-30.65,-7838,-28802
1812,18078,0,0,0,-128.578,-89.209,7.80029,9.83828,-0.133984,-0.0765625,0.351166,-0.619232,-0.347565,-0.610199,-115.283,44.8333,-30.625,-7838,-28802
1818,18084,0,0,0,-128.584,-89.209,7.80029,9.82871,-0.114844,-0.124414,0.351166,-0.619232,-0.347534,-0.610199,-115.292,44.85,-30.6167,-7838,-28802
1824,18090,0,0,0,-128.589,-89.209,7.80029,9.81914,-0.119629,-0.0717773,0.351105,-0.619263,-0.347504,-0.610229,-115.35,44.9,-30.5833,-7838,-28802
1830,18096,0,0,0,-128.595,-89.209,7.80029,9.80957,-0.0813477,-0.0957031,0.351074,-0.619263,-0.347473,-0.610229,-115.35,44.9167,-30.6167,-7838,-28802
1836,18102,0,0,0,-128.595,-89.209,7.80029,9.81914,-0.129199,-0.0574219,0.351074,-0.619293,-0.347443,-0.610229,-115.342,44.9333,-30.625,-7838,-28802
1842,18108,0,0,0,-128.6,-89.209,7.80029,9.79043,-0.100488,-0.0861328,0.351044,-0.619293,-0.347443,-0.61026,-115.325,44.95,-30.65,-7838,-28802
1848,18114,0,0,0,-128.6,-89.209,7.80029,9.82871,-0.0717773,-0.0669922,0.351044,-0.619293,-0.347443,-0.61026,-115.3,44.9417,-30.6833,-7838,-28802
1854,18120,0,0,0,-128.606,-89.209,7.80029,9.8,-0.119629,-0.100488,0.351013,-0.619324,-0.347412,-0.61026,-115.267,44.8917,-30.6833,-7838,-28802
1860,18126,0,0,0,-128.606,-89.209,7.80029,9.80957,-0.0861328,-0.0813477,0.351013,-0.619324,-0.347382,-0.61026,-115.242,44.8583,-30.7083,-7838,-28802
1866,18132,0,0,0,-128.611,-89.209,7.80029,9.8,-0.0957031,-0.0765625,0.350983,-0.619324,-0.347382,-0.610291,-115.225,44.85,-30.7417,-7838,-28802
1872,18138,0,0,0,-128.611,-89.209,7.80029,9.80479,-0.110059,-0.0861328,0.350983,-0.619324,-0.347351,-0.610291,-115.2,44.825,-30.7667,-7838,-28802
1878,18144,0,0,0,-128.617,-89.209,7.80029,9.81914,-0.110059,-0.100488,0.350952,-0.619354,-0.347351,-0.610291,-115.175,44.8167,-30.8,-7838,-28802
1884,18150,0,0,0,-128.622,-89.209,7.80029,9.78564,-0.0957031,-0.090918,0.350922,-0.619385,-0.347321,-0.610321,-115.142,44.8083,-30.8583,-7838,-28802
1890,18156,0,0,0,-128.628,-89.209,7.80029,9.81914,-0.110059,-0.0765625,0.350891,-0.619385,-0.34729,-0.610321,-115.142,44.8167,-30.8917,-7838,-28802
1896,18162,0,0,0,-128.633,-89.209,7.80029,9.80957,-0.0861328,-0.0957031,0.350891,-0.619385,-0.34726,-0.610352,-115.158,44.8417,-30.9083,-7838,-28802
1902,18168,0,0,0,-128.639,-89.209,7.80029,9.81436,-0.124414,-0.0861328,0.350861,-0.619415,-0.347229,-0.610352,-115.183,44.8583,-30.925,-7838,-28802
1908,18174,0,0,0,-128.644,-89.209,7.80029,9.81914,-0.133984,-0.0669922,0.35083,-0.619415,-0.347229,-0.610382,-115.208,44.8583,-30.9167,-7838,-28802
1914,18180,0,0,0,-128.644,-89.209,7.80029,9.80957,-0.105273,-0.0765625,0.3508,-0.619446,-0.347198,-0.610382,-115.217,44.8,-30.8167,-7829,-28803
1920,18186,0,0,0,-128.65,-89.209,7.80029,9.81914,-0.090918,-0.0861328,0.3508,-0.619446,-0.347168,-0.610382,-115.192,44.7667,-30.7333,-7829,-28803
1926,18192,0,0,0,-128.65,-89.209,7.80029,9.84785,-0.110059,-0.0861328,0.350769,-0.619446,-0.347168,-0.610413,-115.175,44.75,-30.6417,-7829,-28803
1932,18198,0,0,0,-128.655,-89.209,7.80029,9.80479,-0.0957031,-0.0861328,0.350769,-0.619476,-0.347137,-0.610413,-115.167,44.7833,-30.5583,-7829,-28803
1938,18204,0,0,0,-128.661,-89.209,7.80029,9.80479,-0.0526367,-0.090918,0.350769,-0.619476,-0.347137,-0.610413,-115.158,44.825,-30.5333,-7829,-28803
1944,18210,0,0,0,-128.661,-89.209,7.80029,9.8,-0.114844,-0.0717773,0.350739,-0.619476,-0.347107,-0.610443,-115.15,44.875,-30.4917,-7829,-28803
1950,18216,0,0,0,-128.661,-89.209,7.80029,9.79043,-0.105273,-0.0717773,0.350708,-0.619476,-0.347107,-0.610443,-115.125,44.8833,-30.4917,-7829,-28803
1956,18222,0,0,0,-128.666,-89.209,7.80029,9.8,-0.110059,-0.100488,0.350708,-0.619507,-0.347107,-0.610443,-115.108,44.8833,-30.5,-7829,-28803
1962,18228,0,0,0,-128.666,-89.209,7.80029,9.79043,-0.0861328,-0.0526367,0.350708,-0.619507,-0.347076,-0.610443,-115.075,44.875,-30.5,-7829,-28803
1968,18234,0,0,0,-128.666,-89.209,7.80029,9.8,-0.124414,-0.0717773,0.350677,-0.619507,-0.347076,-0.610443,-115.067,44.875,-30.5167,-7829,-28803
1974,18240,0,0,0,-128.666,-89.209,7.80029,9.79521,-0.0957031,-0.0478516,0.350677,-0.619507,-0.347076,-0.610443,-115.075,44.8333,-30.5667,-7829,-28803
1980,18246,0,0,0,-128.666,-89.209,7.80029,9.82871,-0.100488,-0.0717773,0.350708,-0.619507,-0.347076,-0.610443,-115.092,44.8333,-30.5917,-7829,-28803
1986,18252,0,0,0,-128.666,-89.209,7.80029,9.80479,-0.0765625,-0.090918,0.350677,-0.619507,-0.347076,-0.610443,-115.092,44.8333,-30.6167,-7829,-28803
1992,18258,0,0,0,-128.666,-89.209,7.80029,9.80957,-0.119629,-0.0861328,0.350677,-0.619507,-0.347076,-0.610443,-115.108,44.85,-30.6417,-7829,-28803
1998,18264,0,0,0,-128.666,-89.209,7.80029,9.82393,-0.110059,-0.0765625,0.350677,-0.619507,-0.347076,-0.610443,-115.117,44.875,-30.6583,-7829,-28803
2004,18270,0,0,0,-128.666,-89.209,7.80029,9.82871,-0.0957031,-0.0861328,0.350708,-0.619507,-0.347076,-0.610443,-115.167,44.9167,-30.775,-7829,-28803
2010,18276,0,0,0,-128.666,-89.209,7.80029,9.82871,-0.0861328,-0.0957031,0.350708,-0.619507,-0.347076,-0.610443,-115.2,44.9333,-30.8333,-7829,-28803
2016,18282,0,0,0,-128.666,-89.209,7.80029,9.79521,-0.110059,-0.062207,0.350708,-0.619507,-0.347076,-0.610443,-115.233,44.975,-30.8417,-7829,-28803
2022,18288,0,0,0,-128.666,-89.209,7.80029,9.80957,-0.090918,-0.0861328,0.350677,-0.619507,-0.347076,-0.610443,-115.233,45.0167,-30.8333,-7829,-28803
2028,18294,0,0,0,-128.672,-89.209,7.80029,9.81436,-0.105273,-0.090918,0.350677,-0.619507,-0.347076,-0.610443,-115.208,45.075,-30.75,-7829,-28803
2034,18300,0,0,0,-128.672,-89.209,7.80029,9.81436,-0.124414,-0.0813477,0.350677,-0.619507,-0.347076,-0.610474,-115.192,45.0833,-30.725,-7829,-28803
2040,18306,0,0,0,-128.672,-89.209,7.80029,9.79521,-0.143555,-0.110059,0.350677,-0.619507,-0.347076,-0.610474,-115.208,45.075,-30.7083,-7829,-28803
2046,18312,0,0,0,-128.672,-89.209,7.80029,9.80479,-0.16748,-0.13877,0.350677,-0.619507,-0.347076,-0.610474,-115.225,45.0583,-30.6917,-7829,-28803
2052,18318,0.366211,-0.793457,0.0610352,-128.881,-89.2035,8.00903,9.7043,-0.253613,-0.282324,0.350647,-0.619537,-0.347076,-0.610443,-115.225,45.0417,-30.65,-7829,-28803
2058,18324,0.671387,-0.305176,0,-129.21,-89.198,8.32764,9.8,-0.349316,-0.526367,0.350647,-0.619598,-0.347046,-0.610413,-115.267,45.0167,-30.6167,-7829,-28803
2064,18330,0.488281,-0.12207,-0.732422,-129.435,-89.198,8.53088,9.89092,-0.124414,-0.406738,0.350464,-0.61969,-0.346924,-0.610474,-115.275,45,-30.6167,-7829,-28803
2070,18336,0,-0.305176,-0.305176,-129.628,-89.198,8.69568,10.0393,0.062207,-0.382813,0.350281,-0.619812,-0.346741,-0.610565,-115.283,45,-30.6583,-7829,-28803
2076,18342,-0.183105,-0.12207,-1.0376,-129.952,-89.198,8.97583,10.1685,-0.0430664,-0.392383,0.350006,-0.619934,-0.346558,-0.610718,-115.283,45,-30.7,-7829,-28803
2082,18348,-0.610352,0.854492,-0.488281,-129.897,-89.2035,8.86597,9.98184,-0.0430664,-0.397168,0.349731,-0.620056,-0.346283,-0.61087,-115.275,44.9917,-30.7417,-7829,-28803
2088,18354,-0.549316,1.52588,0.12207,-128.936,-89.209,7.82776,9.58945,-0.397168,-0.0239258,0.349518,-0.620178,-0.346008,-0.611053,-115.25,44.9833,-30.8583,-7829,-28803
2094,18360,0.12207,0.12207,0.12207,-128.914,-89.2035,7.77832,9.54639,-0.248828,-0.105273,0.349243,-0.620331,-0.345642,-0.611237,-115.242,44.9917,-30.8667,-7829,-28803
2100,18366,0.427246,-1.83105,-2.01416,-129.919,-89.2035,8.7616,9.52246,-0.129199,-0.162695,0.34903,-0.620422,-0.345612,-0.611298,-115.225,45.0083,-30.8583,-7829,-28803
2106,18372,0.0610352,-0.671387,0.0610352,-130.133,-89.2035,8.94287,9.65645,0.0861328,-0.239258,0.348846,-0.620544,-0.345428,-0.611359,-115.225,45.0083,-30.825,-7829,-28803
2112,18378,-0.244141,1.2207,-0.366211,-129.919,-89.2035,8.70117,10.0393,-0.248828,-0.0574219,0.348724,-0.620605,-0.345276,-0.611481,-115.217,45,-30.8083,-7829,-28803
2118,18384,0,-0.793457,0.305176,-129.869,-89.2035,8.60779,9.98662,-0.0334961,0.258398,0.348572,-0.620667,-0.345093,-0.611603,-115.225,44.9833,-30.8417,-7829,-28803
2124,18390,-0.0610352,-0.305176,0,-129.979,-89.2035,8.69568,9.74736,0.0526367,-0.0239258,0.348358,-0.620819,-0.34491,-0.611664,-115.217,44.9667,-30.8417,-7829,-28803
2130,18396,-0.0610352,2.38037,0.427246,-129.238,-89.209,7.93762,9.74258,-0.0957031,-0.00957031,0.348328,-0.620819,-0.344757,-0.611755,-115.233,44.975,-30.8333,-7829,-28803
2136,18402,-0.305176,1.64795,-0.671387,-128.941,-89.2145,7.62451,9.57031,0.0191406,0.186621,0.348267,-0.620819,-0.344696,-0.611847,-115.25,44.975,-30.8417,-7829,-28803
2142,18408,-0.12207,-0.610352,0.488281,-129.001,-89.2145,7.68494,9.65166,-0.0334961,0.234473,0.348267,-0.62085,-0.344696,-0.611847,-115.267,44.9917,-30.85,-7829,-28803
2148,18414,-0.183105,0.610352,0.610352,-129.106,-89.209,7.7948,9.77607,0.13877,0.0765625,0.348267,-0.62085,-0.344727,-0.611786,-115.333,45,-30.9083,-7829,-28803
2154,18420,-0.183105,1.2207,0.0610352,-128.721,-89.2145,7.43774,9.93398,-0.0334961,0.378027,0.34845,-0.620728,-0.344849,-0.611755,-115.358,44.9917,-30.925,-7829,-28803
2160,18426,0,-0.0610352,0.305176,-128.622,-89.2145,7.39929,9.80479,0.16748,0.47373,0.348785,-0.620544,-0.345184,-0.611572,-115.367,44.9917,-30.9333,-7829,-28803
2166,18432,0.0610352,-1.28174,0.610352,-128.776,-89.209,7.64648,9.93398,-0.0382813,0.220117,0.349274,-0.6203,-0.345673,-0.611267,-115.375,45.0083,-30.975,-7829,-28803
2172,18438,-0.244141,-0.976563,0,-128.99,-89.209,7.94312,9.70908,-0.0430664,-0.105273,0.349701,-0.620056,-0.34613,-0.610992,-115.358,45.0333,-30.9833,-7829,-28803
2178,18444,0,1.0376,0,-128.095,-89.209,7.20703,9.79521,-0.090918,0.090918,0.350128,-0.619843,-0.346466,-0.610779,-115.317,45.0917,-31.0167,-7829,-28803
2184,18450,0.244141,-1.09863,-0.488281,-128.425,-89.209,7.65198,9.81436,-0.0957031,0.287109,0.351196,-0.619202,-0.347565,-0.610199,-115.308,45.1,-30.9917,-7829,-28803
2190,18456,0,-2.0752,-0.488281,-129.034,-89.209,8.38257,9.8957,0.0287109,0.0287109,0.351837,-0.618866,-0.348297,-0.609772,-115.317,45.1083,-30.9667,-7829,-28803
2196,18462,-0.0610352,0.549316,0.305176,-128.727,-89.209,8.18481,9.93877,-0.0430664,-0.13877,0.352417,-0.6185,-0.348846,-0.609467,-115.333,45.1083,-30.9583,-7829,-28803
2202,18468,-0.0610352,2.01416,-0.305176,-128.139,-89.2145,7.70691,9.85742,-0.119629,0.0478516,0.352997,-0.618103,-0.349396,-0.609192,-115.35,45.0917,-30.9583,-7829,-28803
2208,18474,0.183105,-1.77002,0,-128.447,-89.2145,8.2782,9.73301,-0.133984,-0.00478516,0.353729,-0.617706,-0.350098,-0.608795,-115.35,45.1,-30.95,-7829,-28803
2214,18480,-0.0610352,-0.12207,0,-128.403,-89.2145,8.33862,9.7043,-0.0143555,-0.215332,0.35495,-0.617035,-0.351379,-0.608032,-115.342,45.0917,-30.975,-7829,-28803
2220,18486,0.0610352,1.58691,0.183105,-127.831,-89.22,7.86621,9.76172,-0.0957031,-0.0382813,0.355499,-0.616669,-0.351898,-0.607758,-115.325,45.0833,-30.975,-7829,-28803
2226,18492,0,0.0610352,-0.244141,-127.776,-89.22,7.93213,9.78564,-0.0478516,0.200977,0.35614,-0.616272,-0.352539,-0.607391,-115.308,45.0667,-30.9417,-7829,-28803
2232,18498,0.305176,-1.64795,0.183105,-128.112,-89.2145,8.40454,9.88135,-0.0191406,0.0861328,0.356873,-0.615906,-0.353302,-0.606934,-115.308,45.05,-30.9333,-7829,-28803
2238,18504,-0.0610352,1.2207,0,-127.744,-89.22,8.24524,9.81914,-0.0287109,-0.0861328,0.357452,-0.61557,-0.353912,-0.606598,-115.35,45.0167,-30.8583,-7829,-28803
2244,18510,-0.0610352,0.610352,0.366211,-127.403,-89.22,8.00903,9.76172,-0.0957031,0.0574219,0.358582,-0.614868,-0.35495,-0.606018,-115.367,44.9917,-30.8333,-7829,-28803
2250,18516,0,-0.976563,0.305176,-127.54,-89.22,8.25623,9.73301,-0.0669922,-0.0191406,0.359131,-0.614563,-0.35553,-0.605652,-115.375,44.9917,-30.7917,-7829,-28803
2256,18522,0.12207,-0.549316,0.12207,-127.606,-89.22,8.41003,9.8335,-0.172266,-0.186621,0.359589,-0.614319,-0.355988,-0.605377,-115.367,45,-30.7667,-7829,-28803
2262,18528,0,0.610352,-0.0610352,-127.392,-89.22,8.25623,9.80957,-0.0717773,-0.0191406,0.359955,-0.614075,-0.356323,-0.605194,-115.342,45.025,-30.8,-7829,-28803
2268,18534,-0.0610352,-0.976563,0.366211,-127.392,-89.22,8.38806,9.87656,-0.129199,-0.0669922,0.360321,-0.613861,-0.356689,-0.60498,-115.317,45.0583,-30.875,-7821,-28804
2274,18540,0.12207,-0.305176,-0.183105,-127.48,-89.22,8.53088,9.84307,-0.090918,-0.191406,0.360901,-0.613525,-0.3573,-0.604614,-115.317,45.05,-30.8917,-7821,-28804
2280,18546,0,0.427246,-0.0610352,-127.343,-89.22,8.42651,9.84307,-0.14834,-0.16748,0.361115,-0.613373,-0.357513,-0.604492,-115.317,45.0417,-30.9083,-7821,-28804
2286,18552,0.0610352,0.12207,0,-127.282,-89.22,8.39905,9.74736,-0.0717773,-0.133984,0.361267,-0.613281,-0.357666,-0.604401,-115.317,45.0417,-30.9083,-7821,-28804
2292,18558,0,-0.427246,0.427246,-127.288,-89.22,8.43201,9.79043,-0.186621,-0.133984,0.36142,-0.61322,-0.357819,-0.604309,-115.325,45.0667,-30.9167,-7821,-28804
2298,18564,0,0.305176,0,-127.304,-89.22,8.47046,9.80479,-0.16748,-0.253613,0.361511,-0.613159,-0.35791,-0.604248,-115.283,45.1167,-30.9417,-7821,-28804
2304,18570,-0.0610352,0,-0.244141,-127.354,-89.22,8.53088,9.82871,-0.181836,-0.172266,0.361572,-0.613098,-0.357971,-0.604218,-115.275,45.0917,-30.925,-7821,-28804
2310,18576,0,-0.244141,0.244141,-127.375,-89.22,8.54736,9.80957,-0.153125,-0.172266,0.361603,-0.613098,-0.358002,-0.604218,-115.267,45.0667,-30.8833,-7821,-28804
2316,18582,0,-0.12207,0,-127.414,-89.22,8.58582,9.84785,-0.162695,-0.220117,0.361572,-0.613129,-0.357971,-0.604218,-115.267,45.05,-30.8583,-7821,-28804
2322,18588,0,0.244141,0,-127.354,-89.22,8.5199,9.81436,-0.162695,-0.215332,0.361542,-0.613129,-0.357941,-0.604248,-115.275,45.0167,-30.8583,-7821,-28804
2328,18594,0.0610352,-0.12207,0.183105,-127.403,-89.22,8.55286,9.80957,-0.16748,-0.200977,0.361481,-0.613159,-0.35788,-0.604279,-115.283,45.0083,-30.9083,-7821,-28804
2334,18600,0.183105,0.0610352,0.0610352,-127.392,-89.22,8.52539,9.80957,-0.177051,-0.267969,0.361359,-0.613281,-0.357727,-0.60434,-115.292,45.0083,-30.9,-7821,-28804
2340,18606,0,0.244141,-0.12207,-127.375,-89.22,8.48694,9.80479,-0.14834,-0.220117,0.361237,-0.613312,-0.357635,-0.604401,-115.308,45.0083,-30.9083,-7821,-28804
2346,18612,0,0.0610352,0,-127.386,-89.22,8.47595,9.8335,-0.15791,-0.186621,0.361145,-0.613373,-0.357513,-0.604462,-115.325,45.0083,-30.9,-7821,-28804
2352,18618,0,0.244141,0,-127.343,-89.22,8.41003,9.84785,-0.105273,-0.153125,0.361023,-0.613464,-0.357422,-0.604553,-115.333,45.0083,-30.8417,-7821,-28804
2358,18624,0.0610352,0.12207,-0.183105,-127.43,-89.22,8.45947,9.85264,-0.0861328,-0.100488,0.360779,-0.613586,-0.357178,-0.604675,-115.308,44.9917,-30.775,-7821,-28804
2364,18630,-0.12207,0.12207,0,-127.425,-89.22,8.42651,9.8,-0.062207,-0.062207,0.360657,-0.613678,-0.357056,-0.604767,-115.308,44.975,-30.7417,-7821,-28804
2370,18636,0,0.0610352,0,-127.436,-89.22,8.41553,9.77607,-0.0717773,-0.090918,0.360535,-0.613739,-0.356934,-0.604828,-115.308,44.9833,-30.7833,-7821,-28804
2376,18642,0,0.12207,0,-127.43,-89.2145,8.38806,9.73301,-0.0813477,-0.0478516,0.360443,-0.6138,-0.356812,-0.604889,-115.317,44.9917,-30.8,-7821,-28804
2382,18648,0.0610352,0.12207,0,-127.419,-89.22,8.3551,9.77607,-0.0574219,-0.0382813,0.360321,-0.613861,-0.356689,-0.60495,-115.333,45.0083,-30.825,-7821,-28804
2388,18654,-0.12207,-0.183105,0,-127.601,-89.2145,8.49792,9.79043,-0.0957031,-0.0813477,0.360107,-0.614014,-0.356506,-0.605072,-115.325,45.0417,-30.9,-7821,-28804
2394,18660,0,-0.183105,0.305176,-127.606,-89.2145,8.48694,9.85264,-0.110059,-0.0861328,0.360016,-0.614075,-0.356415,-0.605103,-115.3,45.05,-30.925,-7821,-28804
2400,18666,0,0,0,-127.628,-89.2145,8.49243,9.85264,-0.0957031,-0.0765625,0.359924,-0.614136,-0.356323,-0.605164,-115.275,45.0417,-30.9167,-7821,-28804
