TimeSinceCollection,Timestamp,AccX,AccY,AccZ,AngleRoll,AnglePitch,AngleYaw,AngularVelX,AngularVelY,AngularVelZ,Q1,Q2,Q3,Q4,MagX,MagY,MagZ,Height,Airpressure
0,78792,0,0,0,82.1503,87.7698,1.6864,-9.80479,0.378027,0.062207,-0.549927,-0.46579,-0.529449,0.447418,-32.1417,6.13333,-29.4,-6936,-28911
6,78798,0,0,0,82.1503,87.7698,1.6864,-9.79521,0.378027,0.0430664,-0.549927,-0.46579,-0.529449,0.447388,-32.15,6.15,-29.4083,-6936,-28911
12,78804,0,0,0,82.1503,87.7698,1.6864,-9.79043,0.378027,0.0669922,-0.549927,-0.46579,-0.529449,0.447388,-32.15,6.15833,-29.4333,-6936,-28911
18,78810,0,0,0,82.1503,87.7698,1.6864,-9.80957,0.382813,0.062207,-0.549927,-0.46579,-0.529449,0.447388,-32.15,6.15833,-29.5083,-6936,-28911
24,78816,0,0,0,82.1503,87.7698,1.6864,-9.81436,0.387598,0.0526367,-0.549957,-0.465759,-0.52948,0.447388,-32.1333,6.14167,-29.5167,-6936,-28911
30,78822,0,0,0,82.1503,87.7698,1.6864,-9.79521,0.368457,0.0526367,-0.549957,-0.465759,-0.52948,0.447388,-32.1333,6.14167,-29.525,-6936,-28911
36,78828,0,0,0,82.1503,87.7698,1.6864,-9.8,0.373242,0.0574219,-0.549957,-0.465759,-0.52948,0.447388,-32.1417,6.15,-29.5417,-6936,-28911
42,78834,0,0,0,82.1448,87.7698,1.6864,-9.8,0.382813,0.0526367,-0.549957,-0.465759,-0.52948,0.447388,-32.1333,6.15833,-29.5417,-6936,-28911
48,78840,0,0,0,82.1448,87.7698,1.69189,-9.79521,0.397168,0.0574219,-0.549957,-0.465759,-0.52948,0.447357,-32.15,6.16667,-29.55,-6936,-28911
54,78846,0,0,0,82.1448,87.7698,1.69189,-9.80479,0.382813,0.0382813,-0.549957,-0.465729,-0.52948,0.447357,-32.15,6.175,-29.5583,-6936,-28911
60,78852,0,0,0,82.1448,87.7698,1.69189,-9.80479,0.382813,0.0574219,-0.549988,-0.465729,-0.52951,0.447357,-32.1667,6.19167,-29.5667,-6936,-28911
66,78858,0,0,0,82.1448,87.7698,1.69189,-9.79043,0.363672,0.062207,-0.549988,-0.465729,-0.52951,0.447357,-32.1583,6.2,-29.575,-6936,-28911
72,78864,0,0,0,82.1448,87.7698,1.69189,-9.8,0.382813,0.0239258,-0.549988,-0.465729,-0.52951,0.447327,-32.175,6.2,-29.55,-6936,-28911
78,78870,0,0,0,82.1448,87.7698,1.69189,-9.79521,0.382813,0.0526367,-0.549988,-0.465729,-0.52951,0.447327,-32.1667,6.21667,-29.4583,-6936,-28911
84,78876,0,0,0,82.1448,87.7698,1.69189,-9.79521,0.363672,0.0478516,-0.549988,-0.465729,-0.52951,0.447327,-32.1833,6.225,-29.4333,-6936,-28911
90,78882,0,0,0,82.1448,87.7698,1.69189,-9.80957,0.363672,0.0765625,-0.549988,-0.465729,-0.52951,0.447327,-32.1833,6.225,-29.4083,-6936,-28911
96,78888,0,0,0,82.1393,87.7643,1.69189,-9.78086,0.354102,0.0526367,-0.549988,-0.465698,-0.52951,0.447327,-32.1833,6.21667,-29.4167,-6936,-28911
102,78894,0,0,0,82.1393,87.7698,1.69189,-9.78564,0.368457,0.0669922,-0.550018,-0.465698,-0.529541,0.447327,-32.175,6.21667,-29.45,-6936,-28911
108,78900,0,0,0,82.1393,87.7643,1.69739,-9.76172,0.406738,0.0765625,-0.550018,-0.465698,-0.529541,0.447296,-32.175,6.2,-29.5417,-6936,-28911
114,78906,0,0,0,82.1393,87.7698,1.69739,-9.79043,0.354102,0.0574219,-0.550018,-0.465668,-0.529541,0.447296,-32.1833,6.18333,-29.55,-6936,-28911
120,78912,0,0,0,82.1338,87.7698,1.69739,-9.8,0.378027,0.0334961,-0.550049,-0.465668,-0.529541,0.447296,-32.2,6.175,-29.5083,-6936,-28911
126,78918,0,0,0,82.1338,87.7643,1.69739,-9.81914,0.358887,0.0526367,-0.550049,-0.465668,-0.529572,0.447266,-32.2167,6.16667,-29.4833,-6936,-28911
132,78924,0,0,0,82.1338,87.7698,1.69739,-9.78564,0.373242,0.0430664,-0.550049,-0.465668,-0.529572,0.447266,-32.2333,6.15833,-29.4583,-6936,-28911
138,78930,0,0,0,82.1338,87.7698,1.69739,-9.79043,0.387598,0.0717773,-0.550049,-0.465637,-0.529572,0.447266,-32.2583,6.13333,-29.425,-6936,-28911
144,78936,0,0,0,82.1283,87.7698,1.69739,-9.78564,0.368457,0.062207,-0.550049,-0.465637,-0.529572,0.447266,-32.25,6.10833,-29.4083,-6936,-28911
150,78942,0,0,0,82.1283,87.7698,1.69739,-9.77129,0.368457,0.0382813,-0.550079,-0.465637,-0.529602,0.447235,-32.2417,6.09167,-29.3917,-6936,-28911
156,78948,0,0,0,82.1283,87.7698,1.69739,-9.79043,0.368457,0.0239258,-0.550079,-0.465607,-0.529602,0.447235,-32.2083,6.08333,-29.4,-6936,-28911
162,78954,0,0,0,82.1283,87.7698,1.69739,-9.78086,0.368457,0.0574219,-0.550079,-0.465607,-0.529602,0.447235,-32.1833,6.1,-29.4,-6936,-28911
168,78960,0,0,0,82.1283,87.7698,1.69739,-9.80479,0.382813,0.0478516,-0.550079,-0.465607,-0.529602,0.447235,-32.1333,6.1,-29.425,-6936,-28911
174,78966,0,0,0,82.1283,87.7698,1.70288,-9.78564,0.392383,0.0382813,-0.550079,-0.465607,-0.529602,0.447205,-32.1333,6.1,-29.425,-6936,-28911
180,78972,0,0,0,82.1283,87.7698,1.70288,-9.80479,0.392383,0.0669922,-0.550079,-0.465607,-0.529602,0.447205,-32.1667,6.09167,-29.45,-6936,-28911
186,78978,0,0,0,82.1228,87.7698,1.70288,-9.79043,0.368457,0.0669922,-0.55011,-0.465607,-0.529633,0.447205,-32.2,6.08333,-29.4417,-6936,-28911
192,78984,0,0,0,82.1228,87.7698,1.70288,-9.80957,0.382813,0.0574219,-0.55011,-0.465576,-0.529633,0.447205,-32.2167,6.075,-29.4167,-6936,-28911
198,78990,0,0,0,82.1228,87.7698,1.70288,-9.80479,0.349316,0.0334961,-0.55011,-0.465576,-0.529633,0.447205,-32.2583,6.06667,-29.3333,-6936,-28911
204,78996,0,0,0,82.1228,87.7698,1.70288,-9.78564,0.339746,0.062207,-0.55011,-0.465576,-0.529633,0.447205,-32.2667,6.06667,-29.35,-6936,-28911
210,79002,0,0,0,82.1228,87.7698,1.70288,-9.79521,0.373242,0.0382813,-0.55011,-0.465576,-0.529633,0.447174,-32.2583,6.075,-29.4167,-6936,-28911
216,79008,0,0,0,82.1228,87.7698,1.70288,-9.81914,0.382813,0.0430664,-0.55011,-0.465576,-0.529633,0.447174,-32.25,6.06667,-29.4417,-6936,-28911
222,79014,0,0,0,82.1228,87.7698,1.70288,-9.82871,0.363672,0.0574219,-0.55011,-0.465576,-0.529633,0.447174,-32.25,6.06667,-29.4833,-6936,-28911
228,79020,0,0,0,82.1228,87.7698,1.70288,-9.81914,0.387598,0.0430664,-0.55014,-0.465546,-0.529663,0.447174,-32.25,6.03333,-29.55,-6936,-28911
234,79026,0,0,0,82.1228,87.7698,1.70288,-9.8,0.363672,0.0430664,-0.55014,-0.465546,-0.529663,0.447174,-32.2583,6.01667,-29.5583,-6936,-28911
240,79032,0,0,0,82.1228,87.7698,1.70837,-9.79043,0.378027,0.0430664,-0.55014,-0.465546,-0.529663,0.447174,-32.2667,6.03333,-29.6083,-6936,-28911
246,79038,0,0,0,82.1228,87.7698,1.70837,-9.77607,0.373242,0.0669922,-0.55014,-0.465546,-0.529663,0.447174,-32.2667,6.04167,-29.625,-6936,-28911
252,79044,0,0,0,82.1228,87.7698,1.70837,-9.81914,0.358887,0.0382813,-0.55014,-0.465546,-0.529663,0.447174,-32.275,6.05,-29.6167,-6945,-28910
258,79050,0,0,0,82.1228,87.7698,1.70837,-9.81436,0.363672,0.0191406,-0.55014,-0.465546,-0.529663,0.447174,-32.25,6.05,-29.5667,-6936,-28911
264,79056,0,0,0,82.1228,87.7698,1.70837,-9.78564,0.382813,0.062207,-0.55014,-0.465546,-0.529663,0.447174,-32.2333,6.04167,-29.525,-6936,-28911
270,79062,0,0,0,82.1228,87.7698,1.70837,-9.78086,0.411523,0.0382813,-0.55014,-0.465546,-0.529663,0.447174,-32.225,6.05833,-29.4667,-6936,-28911
276,79068,0,0,0,82.1228,87.7698,1.70837,-9.81436,0.349316,0.0287109,-0.55014,-0.465546,-0.529663,0.447174,-32.2333,6.06667,-29.3917,-6936,-28911
282,79074,0,0,0,82.1228,87.7698,1.70837,-9.78564,0.368457,0.0478516,-0.55014,-0.465546,-0.529663,0.447174,-32.25,6.08333,-29.3667,-6936,-28911
288,79080,0,0,0,82.1283,87.7698,1.70837,-9.82393,0.368457,0.0334961,-0.55011,-0.465576,-0.529633,0.447174,-32.2667,6.08333,-29.35,-6936,-28911
294,79086,0,0,0,82.1283,87.7698,1.70837,-9.79521,0.387598,0.062207,-0.55011,-0.465576,-0.529633,0.447174,-32.2667,6.08333,-29.4,-6936,-28911
300,79092,0,0,0,82.1283,87.7698,1.70837,-9.78086,0.382813,0.0430664,-0.55011,-0.465576,-0.529633,0.447205,-32.2667,6.08333,-29.4333,-6936,-28911
306,79098,0,0,0,82.1338,87.7698,1.70837,-9.78564,0.354102,0.0430664,-0.55011,-0.465576,-0.529633,0.447205,-32.275,6.05833,-29.4333,-6936,-28911
312,79104,0,0,0,82.1338,87.7698,1.71387,-9.78086,0.392383,0,-0.55011,-0.465576,-0.529633,0.447205,-32.2917,6.06667,-29.4167,-6936,-28911
318,79110,0,0,0,82.1393,87.7698,1.71387,-9.80957,0.363672,0.0478516,-0.550079,-0.465607,-0.529602,0.447235,-32.3,6.08333,-29.3667,-6936,-28911
324,79116,0,0,0,82.1393,87.7698,1.71387,-9.81914,0.382813,0.0334961,-0.550079,-0.465607,-0.529602,0.447235,-32.3,6.1,-29.3417,-6936,-28911
330,79122,0,0,0,82.1448,87.7698,1.71387,-9.8,0.392383,0.0526367,-0.550079,-0.465637,-0.529602,0.447235,-32.2917,6.1,-29.3,-6936,-28911
336,79128,0,0,0,82.1448,87.7698,1.71387,-9.78564,0.378027,0.0574219,-0.550049,-0.465637,-0.529602,0.447235,-32.2833,6.1,-29.2667,-6936,-28911
342,79134,0,0,0,82.1503,87.7698,1.71387,-9.80957,0.397168,0.0574219,-0.550049,-0.465637,-0.529572,0.447266,-32.2833,6.1,-29.2583,-6936,-28911
348,79140,0,0,0,82.1503,87.7698,1.71387,-9.79043,0.373242,0.0717773,-0.550049,-0.465668,-0.529572,0.447266,-32.2833,6.14167,-29.3,-6936,-28911
354,79146,0,0,0,82.1503,87.7698,1.71387,-9.79043,0.363672,0.0239258,-0.550049,-0.465668,-0.529572,0.447266,-32.275,6.15833,-29.325,-6936,-28911
360,79152,0,0,0,82.1558,87.7698,1.71387,-9.8,0.373242,0.0526367,-0.550049,-0.465668,-0.529572,0.447266,-32.275,6.18333,-29.3167,-6936,-28911
366,79158,0,0,0,82.1558,87.7698,1.71387,-9.79521,0.378027,0.0430664,-0.550018,-0.465668,-0.529572,0.447296,-32.2667,6.18333,-29.3,-6945,-28910
372,79164,0,0,0,82.1558,87.7698,1.71387,-9.8,0.392383,0.0574219,-0.550018,-0.465668,-0.529541,0.447296,-32.2583,6.16667,-29.3,-6945,-28910
378,79170,0,0,0,82.1613,87.7698,1.71936,-9.79043,0.373242,0.0430664,-0.550018,-0.465698,-0.529541,0.447296,-32.2333,6.14167,-29.35,-6945,-28910
384,79176,0,0,0,82.1613,87.7698,1.71936,-9.8,0.378027,0.0574219,-0.550018,-0.465698,-0.529541,0.447296,-32.2333,6.11667,-29.3917,-6945,-28910
390,79182,0,0,0,82.1613,87.7698,1.71936,-9.79521,0.363672,0.0574219,-0.550018,-0.465698,-0.529541,0.447296,-32.2417,6.125,-29.3917,-6945,-28910
396,79188,0,0,0,82.1613,87.7698,1.71936,-9.8,0.373242,0.0334961,-0.550018,-0.465698,-0.529541,0.447296,-32.25,6.125,-29.3833,-6945,-28910
402,79194,0,0,0,82.1667,87.7698,1.71936,-9.7665,0.373242,0.0382813,-0.550018,-0.465698,-0.529541,0.447296,-32.2667,6.125,-29.3583,-6945,-28910
408,79200,0,0,0,82.1667,87.7643,1.71936,-9.8,0.363672,0.0287109,-0.549988,-0.465729,-0.52951,0.447327,-32.3083,6.13333,-29.4083,-6945,-28910
414,79206,0,0,0,82.1722,87.7698,1.71936,-9.8,0.368457,0.0334961,-0.549988,-0.465729,-0.52951,0.447327,-32.3167,6.13333,-29.425,-6945,-28910
420,79212,0,0,0,82.1722,87.7698,1.71936,-9.81914,0.382813,0.0574219,-0.549957,-0.465759,-0.52951,0.447357,-32.3083,6.13333,-29.4583,-6945,-28910
426,79218,0,0,0,82.1777,87.7698,1.71936,-9.79521,0.373242,0.0334961,-0.549957,-0.465759,-0.52948,0.447357,-32.2917,6.14167,-29.475,-6945,-28910
432,79224,0,0,0,82.1832,87.7698,1.71936,-9.77607,0.387598,0.0334961,-0.549957,-0.465759,-0.52948,0.447357,-32.25,6.15833,-29.4667,-6945,-28910
438,79230,0,0,0,82.1832,87.7698,1.71936,-9.8,0.334961,0.0574219,-0.549927,-0.46579,-0.52948,0.447388,-32.2333,6.19167,-29.525,-6945,-28910
444,79236,0,0,0,82.1887,87.7698,1.71936,-9.78564,0.382813,0.0382813,-0.549927,-0.46579,-0.529449,0.447388,-32.225,6.19167,-29.5333,-6945,-28910
450,79242,0,0,0,82.1887,87.7698,1.71936,-9.80957,0.373242,0.0478516,-0.549927,-0.46582,-0.529449,0.447418,-32.2333,6.20833,-29.5583,-6945,-28910
456,79248,0,0,0,82.1887,87.7698,1.72485,-9.81436,0.378027,0.0334961,-0.549896,-0.46582,-0.529449,0.447418,-32.2417,6.2,-29.5917,-6945,-28910
462,79254,0,0,0,82.1942,87.7698,1.72485,-9.79043,0.382813,0.062207,-0.549896,-0.46582,-0.529449,0.447418,-32.2417,6.20833,-29.6333,-6945,-28910
468,79260,0,0,0,82.1942,87.7698,1.72485,-9.77607,0.382813,0.0669922,-0.549896,-0.46582,-0.529419,0.447449,-32.2417,6.20833,-29.7583,-6945,-28910
474,79266,0,0,0,82.1942,87.7698,1.72485,-9.8,0.387598,0.0478516,-0.549896,-0.46582,-0.529419,0.447449,-32.2333,6.20833,-29.8,-6945,-28910
480,79272,0,0,0,82.1997,87.7698,1.72485,-9.79043,0.373242,0.062207,-0.549896,-0.465851,-0.529419,0.447449,-32.225,6.21667,-29.8167,-6945,-28910
486,79278,0,0,0,82.1997,87.7698,1.72485,-9.80479,0.382813,0.0334961,-0.549896,-0.465851,-0.529419,0.447449,-32.2083,6.225,-29.8167,-6945,-28910
492,79284,0,0,0,82.1997,87.7698,1.72485,-9.80479,0.378027,0.062207,-0.549896,-0.465851,-0.529419,0.447449,-32.2,6.25833,-29.7333,-6945,-28910
498,79290,0,0,0,82.1997,87.7698,1.72485,-9.8,0.373242,0.0765625,-0.549896,-0.465851,-0.529419,0.447449,-32.225,6.275,-29.6833,-6945,-28910
504,79296,0,0,0,82.1997,87.7698,1.72485,-9.80479,0.368457,0.0478516,-0.549896,-0.465851,-0.529419,0.447449,-32.25,6.3,-29.65,-6945,-28910
510,79302,0,0,0,82.1997,87.7698,1.72485,-9.80479,0.373242,0.0382813,-0.549896,-0.465851,-0.529419,0.447449,-32.275,6.31667,-29.6167,-6945,-28910
516,79308,0,0,0,82.1997,87.7698,1.72485,-9.8,0.373242,0.0382813,-0.549896,-0.465851,-0.529419,0.447449,-32.2917,6.33333,-29.5583,-6945,-28910
522,79314,0,0,0,82.1997,87.7698,1.72485,-9.80957,0.349316,0.0526367,-0.549896,-0.465851,-0.529419,0.447449,-32.3167,6.3,-29.4417,-6945,-28910
528,79320,0,0,0,82.2052,87.7698,1.72485,-9.8,0.373242,0.0526367,-0.549866,-0.465851,-0.529419,0.447449,-32.3167,6.275,-29.3833,-6945,-28910
534,79326,0,0,0,82.2052,87.7698,1.72485,-9.78564,0.368457,0.0574219,-0.549866,-0.465851,-0.529419,0.447449,-32.2917,6.25,-29.3417,-6945,-28910
540,79332,0,0,0,82.2052,87.7698,1.73035,-9.81436,0.382813,0.0478516,-0.549866,-0.465851,-0.529419,0.447449,-32.2667,6.25,-29.3333,-6945,-28910
546,79338,0,0,0,82.2052,87.7698,1.73035,-9.8,0.382813,0.0478516,-0.549866,-0.465851,-0.529419,0.447449,-32.2583,6.25,-29.3583,-6945,-28910
552,79344,0,0,0,82.2107,87.7698,1.73035,-9.78564,0.363672,0.0287109,-0.549866,-0.465851,-0.529419,0.447449,-32.2583,6.25,-29.3583,-6945,-28910
558,79350,0,0,0,82.2107,87.7698,1.73035,-9.81436,0.373242,0.0717773,-0.549866,-0.465881,-0.529388,0.447479,-32.2833,6.23333,-29.35,-6945,-28910
564,79356,0,0,0,82.2107,87.7698,1.73035,-9.78564,0.368457,0.0382813,-0.549866,-0.465881,-0.529388,0.447479,-32.3,6.225,-29.3083,-6945,-28910
570,79362,0,0,0,82.2107,87.7698,1.73035,-9.79043,0.397168,0.0143555,-0.549835,-0.465881,-0.529388,0.447479,-32.3083,6.23333,-29.3083,-6945,-28910
576,79368,0,0,0,82.2162,87.7698,1.73035,-9.78564,0.392383,0.0526367,-0.549835,-0.465881,-0.529388,0.447479,-32.3083,6.225,-29.3333,-6945,-28910
582,79374,0,0,0,82.2162,87.7698,1.73035,-9.8,0.358887,0.0669922,-0.549835,-0.465912,-0.529388,0.44751,-32.275,6.2,-29.3917,-6945,-28910
588,79380,0,0,0,82.2217,87.7698,1.73035,-9.8,0.368457,0.062207,-0.549835,-0.465912,-0.529388,0.44751,-32.2583,6.175,-29.4,-6945,-28910
594,79386,0,0,0,82.2217,87.7698,1.73035,-9.8,0.378027,0.0574219,-0.549835,-0.465912,-0.529358,0.44751,-32.2583,6.15833,-29.4,-6945,-28910
600,79392,0,0,0,82.2217,87.7698,1.73035,-9.80479,0.349316,0.0717773,-0.549835,-0.465912,-0.529358,0.44751,-32.25,6.15,-29.4,-6945,-28910
606,79398,0,0,0,82.2217,87.7698,1.73035,-9.79521,0.392383,0.0526367,-0.549835,-0.465912,-0.529358,0.44751,-32.2333,6.15,-29.3917,-6945,-28910
612,79404,0,0,0,82.2217,87.7698,1.73035,-9.79043,0.382813,0.0478516,-0.549835,-0.465912,-0.529358,0.44751,-32.2083,6.125,-29.325,-6945,-28910
618,79410,0,0,0,82.2217,87.7698,1.73035,-9.79521,0.387598,0.0765625,-0.549835,-0.465912,-0.529388,0.44751,-32.2,6.11667,-29.2583,-6945,-28910
624,79416,0,0,0,82.2217,87.7698,1.73584,-9.8,0.373242,0.0526367,-0.549835,-0.465912,-0.529388,0.44751,-32.1917,6.10833,-29.2,-6945,-28910
630,79422,0,0,0,82.2217,87.7698,1.73584,-9.80479,0.349316,0.0287109,-0.549835,-0.465912,-0.529388,0.44751,-32.1917,6.10833,-29.125,-6945,-28910
636,79428,0,0,0,82.2217,87.7698,1.73584,-9.79521,0.401953,0.0430664,-0.549835,-0.465881,-0.529388,0.44751,-32.2,6.1,-29.0417,-6945,-28910
642,79434,0,0,0,82.2217,87.7698,1.73584,-9.80479,0.373242,0.0287109,-0.549835,-0.465881,-0.529388,0.447479,-32.2167,6.10833,-29.0167,-6945,-28910
648,79440,0,0,0,82.2217,87.7698,1.73584,-9.80957,0.373242,0.0382813,-0.549835,-0.465881,-0.529388,0.44751,-32.2167,6.1,-29.0833,-6945,-28910
654,79446,0,0,0,82.2217,87.7698,1.73584,-9.80957,0.378027,0.0574219,-0.549835,-0.465912,-0.529388,0.44751,-32.1917,6.1,-29.175,-6945,-28910
660,79452,0,0,0,82.2217,87.7698,1.73584,-9.79043,0.363672,0.0669922,-0.549835,-0.465912,-0.529388,0.44751,-32.1833,6.10833,-29.2583,-6945,-28910
666,79458,0,0,0,82.2217,87.7698,1.73584,-9.80479,0.363672,0.062207,-0.549835,-0.465912,-0.529388,0.44751,-32.1667,6.1,-29.3,-6945,-28910
672,79464,0,0,0,82.2217,87.7698,1.73584,-9.79521,0.368457,0.0574219,-0.549835,-0.465912,-0.529388,0.44751,-32.1667,6.08333,-29.3167,-6945,-28910
678,79470,0,0,0,82.2217,87.7698,1.73584,-9.82393,0.378027,0.0430664,-0.549835,-0.465881,-0.529388,0.44751,-32.1833,6.09167,-29.3417,-6945,-28910
684,79476,0,0,0,82.2217,87.7698,1.73584,-9.77607,0.387598,0.0478516,-0.549835,-0.465881,-0.529388,0.447479,-32.175,6.10833,-29.35,-6945,-28910
690,79482,0,0,0,82.2217,87.7698,1.73584,-9.79521,0.397168,0.0287109,-0.549835,-0.465881,-0.529388,0.447479,-32.175,6.13333,-29.3417,-6945,-28910
696,79488,0,0,0,82.2217,87.7698,1.73584,-9.8,0.382813,0.0574219,-0.549835,-0.465881,-0.529388,0.447479,-32.175,6.15833,-29.35,-6945,-28910
702,79494,0,0,0,82.2217,87.7698,1.73584,-9.8,0.382813,0.0478516,-0.549835,-0.465881,-0.529388,0.447479,-32.1833,6.19167,-29.2917,-6945,-28910
708,79500,0,0,0,82.2217,87.7698,1.74133,-9.8,0.349316,0.0478516,-0.549835,-0.465881,-0.529388,0.447479,-32.1917,6.19167,-29.2833,-6945,-28910
714,79506,0,0,0,82.2217,87.7698,1.74133,-9.81436,0.363672,0.0478516,-0.549835,-0.465881,-0.529388,0.447479,-32.2,6.2,-29.275,-6945,-28910
720,79512,0,0,0,82.2217,87.7698,1.74133,-9.79521,0.358887,0.0334961,-0.549835,-0.465881,-0.529388,0.447479,-32.2,6.2,-29.275,-6945,-28910
726,79518,0,0,0,82.2217,87.7698,1.74133,-9.81436,0.387598,0.0430664,-0.549835,-0.465881,-0.529388,0.447479,-32.1917,6.2,-29.2667,-6945,-28910
732,79524,0,0,0,82.2217,87.7698,1.74133,-9.80479,0.378027,0.0765625,-0.549835,-0.465881,-0.529388,0.447479,-32.2,6.16667,-29.2417,-6945,-28910
738,79530,0,0,0,82.2217,87.7698,1.74133,-9.79521,0.363672,0.0382813,-0.549835,-0.465881,-0.529388,0.447479,-32.2,6.14167,-29.2083,-6945,-28910
744,79536,0,0,0,82.2272,87.7698,1.74133,-9.8,0.373242,0.0526367,-0.549835,-0.465881,-0.529388,0.447479,-32.1917,6.13333,-29.1917,-6945,-28910
750,79542,0,0,0,82.2272,87.7698,1.74133,-9.80479,0.339746,0.062207,-0.549835,-0.465881,-0.529388,0.447479,-32.1833,6.14167,-29.2,-6945,-28910
756,79548,0,0,0,82.2272,87.7698,1.74133,-9.79521,0.373242,0.062207,-0.549835,-0.465881,-0.529388,0.447479,-32.1917,6.16667,-29.2333,-6945,-28910
762,79554,0,0,0,82.2272,87.7698,1.74133,-9.79521,0.354102,0.0287109,-0.549835,-0.465881,-0.529388,0.447479,-32.2083,6.25,-29.4167,-6945,-28910
768,79560,0,0,0,82.2272,87.7698,1.74133,-9.80479,0.378027,0.0478516,-0.549835,-0.465881,-0.529388,0.447479,-32.2167,6.28333,-29.5,-6945,-28910
774,79566,0,0,0,82.2272,87.7698,1.74133,-9.80957,0.373242,0.0526367,-0.549835,-0.465881,-0.529388,0.447479,-32.2167,6.325,-29.55,-6945,-28910
780,79572,0,0,0,82.2272,87.7698,1.74133,-9.78086,0.382813,0.0478516,-0.549835,-0.465881,-0.529388,0.447479,-32.2167,6.35,-29.575,-6945,-28910
786,79578,0,0,0,82.2272,87.7698,1.74133,-9.8,0.392383,0.0526367,-0.549835,-0.465881,-0.529388,0.447479,-32.2167,6.35,-29.5667,-6945,-28910
792,79584,0,0,0,82.2272,87.7698,1.74133,-9.80479,0.368457,0.0430664,-0.549835,-0.465881,-0.529388,0.447479,-32.2333,6.31667,-29.5667,-6945,-28910
798,79590,0,0,0,82.2272,87.7698,1.74683,-9.80957,0.382813,0.0526367,-0.549835,-0.465881,-0.529388,0.447479,-32.2583,6.29167,-29.55,-6945,-28910
804,79596,0,0,0,82.2272,87.7698,1.74683,-9.77129,0.382813,0.0430664,-0.549835,-0.465881,-0.529419,0.447479,-32.3,6.28333,-29.5333,-6945,-28910
810,79602,0,0,0,82.2272,87.7698,1.74683,-9.78564,0.382813,0.0765625,-0.549835,-0.465881,-0.529419,0.447479,-32.3333,6.29167,-29.5333,-6945,-28910
816,79608,0,0,0,82.2272,87.7698,1.74683,-9.79521,0.363672,0.0574219,-0.549835,-0.465881,-0.529419,0.447479,-32.3333,6.29167,-29.5417,-6945,-28910
822,79614,0,0,0,82.2272,87.7698,1.74683,-9.8,0.382813,0.0478516,-0.549866,-0.465851,-0.529419,0.447479,-32.275,6.275,-29.5417,-6945,-28910
828,79620,0,0,0,82.2217,87.7698,1.74683,-9.81914,0.354102,0.0717773,-0.549866,-0.465851,-0.529419,0.447479,-32.25,6.24167,-29.4917,-6945,-28910
834,79626,0,0,0,82.2217,87.7698,1.74683,-9.82393,0.382813,0.0669922,-0.549866,-0.465851,-0.529419,0.447449,-32.25,6.225,-29.4583,-6945,-28910
840,79632,0,0,0,82.2217,87.7698,1.74683,-9.79043,0.387598,0.0382813,-0.549866,-0.465851,-0.529449,0.447449,-32.25,6.225,-29.4333,-6945,-28910
846,79638,0,0,0,82.2217,87.7698,1.74683,-9.79043,0.363672,0.0382813,-0.549866,-0.46582,-0.529449,0.447449,-32.2583,6.225,-29.4083,-6945,-28910
852,79644,0,0,0,82.2162,87.7698,1.74683,-9.81436,0.354102,0.0430664,-0.549896,-0.46582,-0.529449,0.447418,-32.225,6.20833,-29.4833,-6945,-28910
858,79650,0,0,0,82.2162,87.7698,1.74683,-9.80957,0.373242,0.0669922,-0.549896,-0.46582,-0.529449,0.447418,-32.2333,6.21667,-29.5667,-6945,-28910
864,79656,0,0,0,82.2162,87.7698,1.74683,-9.8,0.416309,0.0382813,-0.549896,-0.46579,-0.52948,0.447418,-32.225,6.20833,-29.6583,-6945,-28910
870,79662,0,0,0,82.2107,87.7698,1.74683,-9.79521,0.387598,0.0478516,-0.549896,-0.46579,-0.52948,0.447418,-32.225,6.21667,-29.7083,-6945,-28910
876,79668,0,0,0,82.2107,87.7698,1.74683,-9.79521,0.368457,0.062207,-0.549927,-0.46579,-0.52948,0.447388,-32.25,6.24167,-29.7,-6945,-28910
882,79674,0,0,0,82.2107,87.7698,1.74683,-9.8,0.392383,0.0478516,-0.549927,-0.465759,-0.52948,0.447388,-32.275,6.275,-29.6917,-6945,-28910
888,79680,0,0,0,82.2107,87.7698,1.74683,-9.80479,0.387598,0.0287109,-0.549927,-0.465759,-0.52951,0.447388,-32.3083,6.3,-29.675,-6945,-28910
894,79686,0,0,0,82.2107,87.7698,1.75232,-9.79521,0.358887,0.0382813,-0.549927,-0.465759,-0.52951,0.447388,-32.325,6.30833,-29.6917,-6945,-28910
900,79692,0,0,0,82.2107,87.7698,1.75232,-9.79043,0.373242,0.0669922,-0.549927,-0.465759,-0.52951,0.447357,-32.3333,6.3,-29.7,-6945,-28910
906,79698,0,0,0,82.2052,87.7698,1.75232,-9.8,0.368457,0.0574219,-0.549927,-0.465759,-0.52951,0.447357,-32.3333,6.30833,-29.675,-6945,-28910
912,79704,0,0,0,82.2052,87.7698,1.75232,-9.80479,0.368457,0.0669922,-0.549957,-0.465729,-0.52951,0.447357,-32.3167,6.29167,-29.6583,-6945,-28910
918,79710,0,0,0,82.2052,87.7698,1.75232,-9.81436,0.382813,0.0382813,-0.549957,-0.465729,-0.52951,0.447357,-32.3083,6.29167,-29.6083,-6945,-28910
924,79716,0,0,0,82.2052,87.7698,1.75232,-9.79521,0.382813,0.0334961,-0.549957,-0.465729,-0.52951,0.447357,-32.3167,6.29167,-29.6083,-6945,-28910
930,79722,0,0,0,82.2052,87.7698,1.75232,-9.77607,0.373242,0.0334961,-0.549957,-0.465729,-0.529541,0.447357,-32.325,6.26667,-29.6583,-6945,-28910
936,79728,0,0,0,82.2052,87.7698,1.75232,-9.8,0.387598,0.0813477,-0.549957,-0.465729,-0.52951,0.447357,-32.3333,6.23333,-29.6917,-6945,-28910
942,79734,0,0,0,82.2052,87.7698,1.75232,-9.79521,0.358887,0.0669922,-0.549957,-0.465729,-0.529541,0.447327,-32.3667,6.19167,-29.7417,-6945,-28910
948,79740,0,0,0,82.1997,87.7698,1.75232,-9.8,0.354102,0.0430664,-0.549957,-0.465729,-0.529541,0.447327,-32.3917,6.18333,-29.7333,-6945,-28910
954,79746,0,0,0,82.1997,87.7698,1.75232,-9.81914,0.382813,0.0334961,-0.549988,-0.465729,-0.529541,0.447327,-32.4083,6.175,-29.7333,-6945,-28910
960,79752,0,0,0,82.1997,87.7698,1.75232,-9.79521,0.349316,0.0430664,-0.549988,-0.465729,-0.529541,0.447327,-32.4083,6.16667,-29.775,-6945,-28910
966,79758,0,0,0,82.1997,87.7698,1.75232,-9.79521,0.363672,0.0526367,-0.549988,-0.465698,-0.529541,0.447327,-32.3833,6.15833,-29.8083,-6945,-28910
972,79764,0,0,0,82.1997,87.7698,1.75232,-9.78086,0.397168,0.0382813,-0.549988,-0.465698,-0.529541,0.447327,-32.3417,6.15833,-29.9083,-6945,-28910
978,79770,0,0,0,82.1997,87.7698,1.75232,-9.80479,0.368457,0.0334961,-0.549988,-0.465698,-0.529541,0.447327,-32.3583,6.15,-29.9,-6945,-28910
984,79776,0,0,0,82.1997,87.7698,1.75232,-9.79043,0.373242,0.0287109,-0.549988,-0.465698,-0.529541,0.447327,-32.375,6.14167,-29.8583,-6945,-28910
990,79782,0,0,0,82.2052,87.7698,1.75232,-9.80479,0.387598,0.0478516,-0.549988,-0.465698,-0.529541,0.447327,-32.3917,6.15,-29.8083,-6945,-28910
996,79788,0,0,0,82.2052,87.7698,1.75232,-9.80479,0.368457,0.0526367,-0.549988,-0.465729,-0.529541,0.447327,-32.4,6.15,-29.7917,-6945,-28910
1002,79794,0,0,0,82.2052,87.7698,1.75781,-9.78086,0.373242,0.0382813,-0.549957,-0.465729,-0.529541,0.447327,-32.3917,6.16667,-29.8083,-6945,-28910
1008,79800,0,0,0,82.2052,87.7698,1.75781,-9.79521,0.382813,0.0574219,-0.549957,-0.465729,-0.529541,0.447327,-32.375,6.175,-29.825,-6945,-28910
1014,79806,0,0,0,82.2107,87.7698,1.75781,-9.80479,0.387598,0.062207,-0.549957,-0.465729,-0.529541,0.447357,-32.3583,6.16667,-29.8417,-6945,-28910
1020,79812,0,0,0,82.2107,87.7698,1.75781,-9.80479,0.382813,0.0574219,-0.549957,-0.465729,-0.52951,0.447357,-32.325,6.16667,-29.8417,-6945,-28910
1026,79818,0,0,0,82.2107,87.7698,1.75781,-9.79521,0.363672,0.0287109,-0.549957,-0.465729,-0.52951,0.447357,-32.3083,6.15833,-29.825,-6945,-28910
1032,79824,0,0,0,82.2107,87.7698,1.75781,-9.80957,0.363672,0.0526367,-0.549957,-0.465759,-0.52951,0.447357,-32.2667,6.15833,-29.8333,-6945,-28910
1038,79830,0,0,0,82.2107,87.7698,1.75781,-9.80957,0.387598,0.0287109,-0.549957,-0.465759,-0.52951,0.447357,-32.2417,6.175,-29.775,-6945,-28910
1044,79836,0,0,0,82.2162,87.7698,1.75781,-9.79043,0.378027,0.0430664,-0.549927,-0.465759,-0.52951,0.447357,-32.2417,6.175,-29.7583,-6945,-28910
1050,79842,0,0,0,82.2162,87.7698,1.75781,-9.80957,0.387598,0.0526367,-0.549927,-0.465759,-0.52951,0.447357,-32.225,6.16667,-29.75,-6945,-28910
1056,79848,0,0,0,82.2162,87.7698,1.75781,-9.81436,0.387598,0.0334961,-0.549927,-0.465759,-0.52951,0.447388,-32.225,6.15833,-29.7083,-6945,-28910
1062,79854,0,0,0,82.2217,87.7698,1.75781,-9.80957,0.373242,0.0382813,-0.549927,-0.46579,-0.52948,0.447388,-32.2333,6.15,-29.6917,-6945,-28910
1068,79860,0,0,0,82.2217,87.7698,1.75781,-9.79043,0.382813,0.0430664,-0.549927,-0.46579,-0.52948,0.447388,-32.2333,6.175,-29.7083,-6945,-28910
1074,79866,0,0,0,82.2217,87.7698,1.75781,-9.78564,0.373242,0.0478516,-0.549927,-0.46579,-0.52948,0.447388,-32.25,6.18333,-29.7167,-6945,-28910
1080,79872,0,0,0,82.2217,87.7698,1.75781,-9.79521,0.382813,0.0382813,-0.549896,-0.46579,-0.52948,0.447388,-32.2917,6.19167,-29.6917,-6945,-28910
1086,79878,0,0,0,82.2272,87.7698,1.75781,-9.8,0.392383,0.0382813,-0.549896,-0.46579,-0.52948,0.447418,-32.3083,6.19167,-29.6583,-6945,-28910
1092,79884,0,0,0,82.2272,87.7698,1.75781,-9.80957,0.363672,0.0334961,-0.549896,-0.46582,-0.529449,0.447418,-32.35,6.19167,-29.5,-6945,-28910
1098,79890,0,0,0,82.2327,87.7698,1.75781,-9.8,0.401953,0.0382813,-0.549896,-0.46582,-0.529449,0.447418,-32.35,6.19167,-29.4417,-6945,-28910
1104,79896,0,0,0,82.2327,87.7698,1.75781,-9.81436,0.368457,0.0669922,-0.549866,-0.46582,-0.529449,0.447449,-32.3417,6.19167,-29.3833,-6945,-28910
1110,79902,0,0,0,82.2327,87.7698,1.75781,-9.80957,0.397168,0.0287109,-0.549866,-0.465851,-0.529449,0.447449,-32.325,6.19167,-29.3583,-6945,-28910
1116,79908,0,0,0,82.2382,87.7698,1.76331,-9.80957,0.363672,0.0574219,-0.549866,-0.465851,-0.529449,0.447449,-32.3083,6.18333,-29.3417,-6945,-28910
1122,79914,0,0,0,82.2382,87.7698,1.76331,-9.82393,0.382813,0.0334961,-0.549866,-0.465851,-0.529419,0.447449,-32.2833,6.19167,-29.3333,-6945,-28910
1128,79920,0,0,0,82.2382,87.7698,1.76331,-9.80479,0.349316,0.0478516,-0.549866,-0.465881,-0.529419,0.447479,-32.3,6.175,-29.3083,-6945,-28910
1134,79926,0,0,0,82.2437,87.7698,1.76331,-9.79043,0.397168,0.0430664,-0.549835,-0.465881,-0.529419,0.447479,-32.3083,6.15,-29.2833,-6945,-28910
1140,79932,0,0,0,82.2437,87.7698,1.76331,-9.79043,0.382813,0.062207,-0.549835,-0.465881,-0.529419,0.447479,-32.3083,6.13333,-29.3,-6945,-28910
1146,79938,0,0,0,82.2491,87.7698,1.76331,-9.79043,0.368457,0.0430664,-0.549835,-0.465881,-0.529388,0.447479,-32.3083,6.11667,-29.3083,-6945,-28910
1152,79944,0,0,0,82.2491,87.7698,1.76331,-9.79521,0.387598,0.00957031,-0.549835,-0.465912,-0.529388,0.44751,-32.2917,6.125,-29.3917,-6945,-28910
1158,79950,0,0,0,82.2491,87.7698,1.76331,-9.80957,0.363672,0.0334961,-0.549805,-0.465912,-0.529388,0.44751,-32.275,6.125,-29.4083,-6945,-28910
1164,79956,0,0,0,82.2546,87.7698,1.76331,-9.81914,0.349316,0.062207,-0.549805,-0.465912,-0.529358,0.44751,-32.275,6.125,-29.45,-6945,-28910
1170,79962,0,0,0,82.2546,87.7698,1.76331,-9.80479,0.354102,0.0287109,-0.549805,-0.465942,-0.529358,0.44754,-32.2583,6.125,-29.4833,-6945,-28910
1176,79968,0,0,0,82.2601,87.7698,1.76331,-9.79043,0.363672,0.0334961,-0.549774,-0.465942,-0.529358,0.44754,-32.2583,6.13333,-29.525,-6945,-28910
1182,79974,0,0,0,82.2656,87.7698,1.76331,-9.79521,0.354102,0.0574219,-0.549774,-0.465973,-0.529327,0.447571,-32.2667,6.2,-29.5917,-6945,-28910
1188,79980,0,0,0,82.2656,87.7698,1.76331,-9.80479,0.373242,0.0334961,-0.549744,-0.465973,-0.529327,0.447571,-32.2833,6.23333,-29.6083,-6945,-28910
1194,79986,0,0,0,82.2711,87.7698,1.76331,-9.79521,0.358887,0.0143555,-0.549744,-0.466003,-0.529327,0.447571,-32.3,6.26667,-29.6,-6945,-28910
1200,79992,0,0,0,82.2711,87.7698,1.76331,-9.80957,0.363672,0.0574219,-0.549744,-0.466003,-0.529297,0.447601,-32.3083,6.28333,-29.6167,-6945,-28910
1206,79998,0,0,0,82.2766,87.7698,1.76331,-9.82393,0.392383,0.0526367,-0.549713,-0.466003,-0.529297,0.447601,-32.325,6.275,-29.6,-6945,-28910
1212,80004,0,0,0,82.2766,87.7698,1.76331,-9.80479,0.368457,0.0478516,-0.549713,-0.466034,-0.529297,0.447632,-32.3417,6.26667,-29.5833,-6945,-28910
1218,80010,0,0,0,82.2821,87.7698,1.76331,-9.79521,0.382813,0.0717773,-0.549713,-0.466034,-0.529266,0.447632,-32.3667,6.25833,-29.55,-6945,-28910
1224,80016,0,0,0,82.2821,87.7698,1.76331,-9.81914,0.378027,0.0478516,-0.549683,-0.466034,-0.529266,0.447632,-32.3917,6.26667,-29.5167,-6945,-28910
1230,80022,0,0,0,82.2821,87.7698,1.76331,-9.8,0.378027,0.0478516,-0.549683,-0.466064,-0.529266,0.447662,-32.4083,6.275,-29.4667,-6945,-28910
1236,80028,0,0,0,82.2876,87.7698,1.76331,-9.8,0.368457,0.0717773,-0.549683,-0.466064,-0.529266,0.447662,-32.4417,6.30833,-29.4417,-6945,-28910
1242,80034,0,0,0,82.2876,87.7698,1.7688,-9.8,0.368457,0.062207,-0.549683,-0.466064,-0.529266,0.447662,-32.4583,6.325,-29.475,-6945,-28910
1248,80040,0,0,0,82.2876,87.7698,1.7688,-9.78564,0.363672,0.0239258,-0.549683,-0.466064,-0.529266,0.447662,-32.4667,6.31667,-29.55,-6945,-28910
1254,80046,0,0,0,82.2876,87.7698,1.7688,-9.79521,0.382813,0.0287109,-0.549683,-0.466064,-0.529266,0.447662,-32.4917,6.28333,-29.6083,-6945,-28910
1260,80052,0,0,0,82.2876,87.7698,1.7688,-9.77607,0.425879,0.0574219,-0.549683,-0.466064,-0.529266,0.447662,-32.525,6.26667,-29.6417,-6945,-28910
1266,80058,0,0,0,82.2876,87.7698,1.7688,-9.80957,0.382813,0.0478516,-0.549683,-0.466064,-0.529266,0.447662,-32.5917,6.25833,-29.675,-6945,-28910
1272,80064,0,0,0,82.2876,87.7698,1.7688,-9.79521,0.373242,0.0430664,-0.549683,-0.466064,-0.529266,0.447662,-32.625,6.25,-29.675,-6945,-28910
1278,80070,0,0,0,82.2931,87.7698,1.7688,-9.79521,0.373242,0.0334961,-0.549683,-0.466064,-0.529266,0.447662,-32.6333,6.25,-29.7,-6945,-28910
1284,80076,0,0,0,82.2931,87.7698,1.7688,-9.79521,0.378027,0.0334961,-0.549652,-0.466095,-0.529236,0.447662,-32.6167,6.23333,-29.7167,-6945,-28910
1290,80082,0,0,0,82.2931,87.7698,1.7688,-9.78564,0.397168,0.0430664,-0.549652,-0.466095,-0.529236,0.447693,-32.575,6.20833,-29.7,-6945,-28910
1296,80088,0,0,0,82.2986,87.7698,1.7688,-9.8,0.387598,0.0813477,-0.549652,-0.466095,-0.529236,0.447693,-32.5,6.2,-29.6667,-6945,-28910
1302,80094,0,0,0,82.2986,87.7698,1.7688,-9.78564,0.373242,0.0478516,-0.549652,-0.466095,-0.529236,0.447693,-32.4833,6.21667,-29.625,-6945,-28910
1308,80100,0,0,0,82.2986,87.7698,1.7688,-9.79043,0.382813,0.0287109,-0.549652,-0.466095,-0.529236,0.447693,-32.475,6.24167,-29.5833,-6945,-28910
1314,80106,0,0,0,82.2986,87.7698,1.7688,-9.80957,0.358887,0.0478516,-0.549652,-0.466095,-0.529236,0.447693,-32.4667,6.275,-29.5583,-6945,-28910
1320,80112,0,0,0,82.2986,87.7698,1.7688,-9.82871,0.358887,0.0334961,-0.549652,-0.466125,-0.529236,0.447693,-32.475,6.275,-29.575,-6945,-28910
1326,80118,0,0,0,82.3041,87.7698,1.7688,-9.8,0.378027,0.0287109,-0.549622,-0.466125,-0.529205,0.447723,-32.5,6.23333,-29.6833,-6945,-28910
1332,80124,0,0,0,82.3041,87.7698,1.7688,-9.79043,0.368457,0.0526367,-0.549622,-0.466125,-0.529205,0.447723,-32.5083,6.21667,-29.7417,-6945,-28910
1338,80130,0,0,0,82.3096,87.7698,1.7688,-9.8,0.373242,0.0382813,-0.549622,-0.466156,-0.529205,0.447723,-32.5167,6.19167,-29.7667,-6945,-28910
1344,80136,0,0,0,82.3096,87.7698,1.7688,-9.81436,0.363672,0.062207,-0.549591,-0.466156,-0.529175,0.447754,-32.5333,6.16667,-29.75,-6945,-28910
1350,80142,0,0,0,82.3096,87.7698,1.7688,-9.79043,0.378027,0.0478516,-0.549591,-0.466156,-0.529175,0.447754,-32.5417,6.13333,-29.725,-6945,-28910
1356,80148,0,0,0,82.3151,87.7698,1.7688,-9.79043,0.397168,0.0478516,-0.549591,-0.466156,-0.529175,0.447754,-32.5417,6.10833,-29.7333,-6945,-28910
1362,80154,0,0,0,82.3151,87.7698,1.7688,-9.80957,0.373242,0.0430664,-0.549591,-0.466187,-0.529175,0.447754,-32.5167,6.125,-29.75,-6945,-28910
1368,80160,0,0,0,82.3151,87.7698,1.7688,-9.80957,0.363672,0.0382813,-0.549591,-0.466187,-0.529175,0.447784,-32.5,6.15,-29.7583,-6945,-28910
1374,80166,0,0,0,82.3206,87.7698,1.77429,-9.8,0.387598,0.0765625,-0.549561,-0.466187,-0.529144,0.447784,-32.4833,6.175,-29.7833,-6945,-28910
1380,80172,0,0,0,82.3206,87.7698,1.77429,-9.77129,0.387598,0.0574219,-0.549561,-0.466187,-0.529144,0.447784,-32.4833,6.19167,-29.8,-6945,-28910
1386,80178,0,0,0,82.3206,87.7698,1.77429,-9.78564,0.378027,0.0430664,-0.549561,-0.466187,-0.529144,0.447784,-32.5,6.20833,-29.825,-6945,-28910
1392,80184,0,0,0,82.3206,87.7698,1.77429,-9.80479,0.382813,0.0478516,-0.549561,-0.466217,-0.529144,0.447784,-32.525,6.20833,-29.8333,-6945,-28910
1398,80190,0,0,0,82.326,87.7698,1.77429,-9.80479,0.382813,0.0382813,-0.549561,-0.466217,-0.529144,0.447784,-32.5333,6.21667,-29.85,-6945,-28910
1404,80196,0,0,0,82.326,87.7698,1.77429,-9.78564,0.378027,0.0430664,-0.549561,-0.466217,-0.529144,0.447815,-32.5417,6.225,-29.8833,-6945,-28910
1410,80202,0,0,0,82.326,87.7698,1.77429,-9.80479,0.382813,0.0574219,-0.549561,-0.466217,-0.529144,0.447815,-32.5333,6.21667,-29.9167,-6945,-28910
1416,80208,0,0,0,82.326,87.7698,1.77429,-9.79043,0.354102,0.0765625,-0.549561,-0.466217,-0.529144,0.447815,-32.5417,6.18333,-29.9333,-6945,-28910
1422,80214,0,0,0,82.326,87.7698,1.77429,-9.79521,0.354102,0.0430664,-0.549561,-0.466217,-0.529144,0.447815,-32.5583,6.16667,-29.925,-6945,-28910
1428,80220,0,0,0,82.326,87.7698,1.77429,-9.81914,0.330176,0.0478516,-0.549561,-0.466217,-0.529144,0.447815,-32.5833,6.15,-29.8667,-6945,-28910
1434,80226,0,0,0,82.326,87.7698,1.77429,-9.81436,0.373242,0.0526367,-0.549561,-0.466217,-0.529144,0.447815,-32.6,6.14167,-29.85,-6945,-28910
1440,80232,0,0,0,82.326,87.7698,1.77429,-9.80479,0.387598,0.0334961,-0.549561,-0.466217,-0.529144,0.447815,-32.6167,6.15,-29.8333,-6945,-28910
1446,80238,0,0,0,82.326,87.7698,1.77429,-9.79521,0.392383,0.0430664,-0.549561,-0.466217,-0.529144,0.447815,-32.6417,6.14167,-29.8083,-6945,-28910
1452,80244,0,0,0,82.326,87.7698,1.77429,-9.80957,0.368457,0.0669922,-0.549561,-0.466217,-0.529144,0.447815,-32.675,6.14167,-29.8083,-6945,-28910
1458,80250,0,0,0,82.326,87.7698,1.77429,-9.78564,0.373242,0.0765625,-0.549561,-0.466217,-0.529144,0.447815,-32.7083,6.14167,-29.8333,-6945,-28910
1464,80256,0,0,0,82.326,87.7698,1.77429,-9.80479,0.368457,0.0382813,-0.549561,-0.466217,-0.529144,0.447784,-32.7333,6.13333,-29.8417,-6945,-28910
1470,80262,0,0,0,82.326,87.7698,1.77429,-9.80957,0.382813,0.0334961,-0.549561,-0.466217,-0.529144,0.447784,-32.7667,6.125,-29.875,-6945,-28910
1476,80268,0,0,0,82.326,87.7698,1.77429,-9.79043,0.387598,0.062207,-0.549561,-0.466217,-0.529144,0.447784,-32.7833,6.16667,-29.9083,-6945,-28910
1482,80274,0,0,0,82.326,87.7698,1.77429,-9.79521,0.382813,0.0574219,-0.549561,-0.466187,-0.529144,0.447784,-32.775,6.21667,-29.9167,-6945,-28910
1488,80280,0,0,0,82.326,87.7698,1.77429,-9.81436,0.363672,0.0669922,-0.549561,-0.466187,-0.529144,0.447784,-32.75,6.25833,-29.9333,-6945,-28910
1494,80286,0,0,0,82.3206,87.7698,1.77429,-9.79043,0.354102,0.0382813,-0.549561,-0.466187,-0.529144,0.447784,-32.7333,6.3,-29.9167,-6945,-28910
1500,80292,0,0,0,82.3206,87.7698,1.77429,-9.8,0.382813,0.0574219,-0.549591,-0.466187,-0.529175,0.447784,-32.725,6.30833,-29.8917,-6945,-28910
1506,80298,0,0,0,82.3206,87.7698,1.77429,-9.79043,0.363672,0.0861328,-0.549591,-0.466187,-0.529175,0.447754,-32.675,6.33333,-29.7917,-6945,-28910
1512,80304,0,0,0,82.3206,87.7698,1.77429,-9.78086,0.378027,0.0334961,-0.549591,-0.466156,-0.529175,0.447754,-32.6583,6.35,-29.75,-6945,-28910
1518,80310,0,0,0,82.3206,87.7698,1.77979,-9.8,0.358887,0.0478516,-0.549591,-0.466156,-0.529175,0.447754,-32.6417,6.35,-29.725,-6945,-28910
1524,80316,0,0,0,82.3206,87.7698,1.77979,-9.79521,0.373242,0.0765625,-0.549591,-0.466156,-0.529175,0.447754,-32.6083,6.35,-29.7,-6945,-28910
1530,80322,0,0,0,82.3151,87.7698,1.77979,-9.8,0.373242,0.0334961,-0.549591,-0.466156,-0.529175,0.447754,-32.5917,6.33333,-29.6667,-6945,-28910
1536,80328,0,0,0,82.3151,87.7698,1.77979,-9.80479,0.397168,0.0382813,-0.549591,-0.466156,-0.529205,0.447754,-32.575,6.31667,-29.5667,-6945,-28910
1542,80334,0,0,0,82.3151,87.7698,1.77979,-9.8,0.392383,0.0717773,-0.549622,-0.466156,-0.529205,0.447723,-32.6,6.31667,-29.575,-6945,-28910
1548,80340,0,0,0,82.3151,87.7698,1.77979,-9.77607,0.378027,0.00957031,-0.549622,-0.466156,-0.529205,0.447723,-32.6333,6.30833,-29.5917,-6945,-28910
1554,80346,0,0,0,82.3151,87.7698,1.77979,-9.79043,0.392383,0.0478516,-0.549622,-0.466156,-0.529205,0.447723,-32.625,6.28333,-29.6667,-6945,-28910
1560,80352,0,0,0,82.3151,87.7698,1.77979,-9.79043,0.387598,0.0430664,-0.549622,-0.466156,-0.529205,0.447723,-32.6167,6.25833,-29.7333,-6945,-28910
1566,80358,0,0,0,82.3206,87.7698,1.77979,-9.79043,0.411523,0.0478516,-0.549591,-0.466156,-0.529205,0.447723,-32.6083,6.2,-29.8167,-6945,-28910
1572,80364,0,0,0,82.3206,87.7698,1.77979,-9.81914,0.373242,0.0669922,-0.549622,-0.466156,-0.529205,0.447723,-32.625,6.16667,-29.8333,-6945,-28910
1578,80370,0,0,0,82.3151,87.7698,1.77979,-9.80957,0.373242,0.0669922,-0.549622,-0.466156,-0.529205,0.447723,-32.6333,6.14167,-29.8333,-6945,-28910
1584,80376,0,0,0,82.3151,87.7698,1.77979,-9.77607,0.363672,0.0717773,-0.549622,-0.466156,-0.529205,0.447723,-32.6333,6.13333,-29.8583,-6945,-28910
1590,80382,0,0,0,82.3151,87.7698,1.77979,-9.78564,0.358887,0.0334961,-0.549622,-0.466125,-0.529205,0.447723,-32.6167,6.13333,-29.8917,-6945,-28910
1596,80388,0,0,0,82.3151,87.7698,1.77979,-9.80479,0.363672,0.062207,-0.549622,-0.466125,-0.529205,0.447723,-32.625,6.13333,-30.025,-6945,-28910
1602,80394,0,0,0,82.3096,87.7698,1.77979,-9.80957,0.368457,0.0526367,-0.549652,-0.466125,-0.529236,0.447693,-32.6417,6.13333,-30.0667,-6945,-28910
1608,80400,0,0,0,82.3096,87.7698,1.77979,-9.78564,0.392383,0.0430664,-0.549652,-0.466095,-0.529236,0.447693,-32.6667,6.125,-30.1083,-6945,-28910
1614,80406,0,0,0,82.3096,87.7698,1.77979,-9.79043,0.349316,0.0717773,-0.549652,-0.466095,-0.529236,0.447693,-32.6833,6.125,-30.1333,-6945,-28910
1620,80412,0,0,0,82.3041,87.7698,1.77979,-9.8,0.368457,0.0717773,-0.549652,-0.466095,-0.529236,0.447662,-32.7083,6.14167,-30.175,-6945,-28910
1626,80418,0,0,0,82.2986,87.7698,1.77979,-9.8,0.387598,0.062207,-0.549683,-0.466064,-0.529266,0.447662,-32.75,6.125,-30.175,-6945,-28910
1632,80424,0,0,0,82.2986,87.7698,1.77979,-9.80957,0.378027,0.0478516,-0.549683,-0.466064,-0.529266,0.447632,-32.7667,6.1,-30.1417,-6945,-28910
1638,80430,0,0,0,82.2986,87.7698,1.77979,-9.78086,0.373242,0.0669922,-0.549713,-0.466034,-0.529297,0.447632,-32.7917,6.08333,-30.075,-6945,-28910
1644,80436,0,0,0,82.2931,87.7698,1.77979,-9.8,0.373242,0.0334961,-0.549713,-0.466034,-0.529297,0.447632,-32.8,6.08333,-30.0167,-6945,-28910
1650,80442,0,0,0,82.2931,87.7698,1.77979,-9.8,0.373242,0.0334961,-0.549713,-0.466034,-0.529297,0.447601,-32.8083,6.09167,-29.975,-6945,-28910
1656,80448,0,0,0,82.2876,87.7698,1.77979,-9.79043,0.397168,0.0717773,-0.549744,-0.466003,-0.529327,0.447601,-32.8,6.10833,-29.9083,-6945,-28910
1662,80454,0,0,0,82.2876,87.7698,1.77979,-9.8,0.392383,0.0334961,-0.549744,-0.466003,-0.529327,0.447601,-32.7917,6.125,-29.9,-6945,-28910
1668,80460,0,0,0,82.2876,87.7698,1.78528,-9.80957,0.358887,0.062207,-0.549744,-0.466003,-0.529327,0.447571,-32.7667,6.13333,-29.8583,-6945,-28910
1674,80466,0,0,0,82.2876,87.7698,1.78528,-9.8,0.382813,0.062207,-0.549744,-0.465973,-0.529327,0.447571,-32.725,6.15833,-29.7833,-6945,-28910
1680,80472,0,0,0,82.2876,87.7698,1.78528,-9.79521,0.373242,0.0430664,-0.549744,-0.465973,-0.529327,0.447571,-32.725,6.175,-29.7583,-6945,-28910
1686,80478,0,0,0,82.2821,87.7698,1.78528,-9.80479,0.368457,0.0382813,-0.549774,-0.465973,-0.529358,0.447571,-32.725,6.20833,-29.7417,-6945,-28910
1692,80484,0,0,0,82.2821,87.7698,1.78528,-9.8,0.392383,0.0669922,-0.549774,-0.465973,-0.529358,0.44754,-32.7583,6.21667,-29.7917,-6945,-28910
1698,80490,0,0,0,82.2821,87.7698,1.78528,-9.79043,0.373242,0.0717773,-0.549774,-0.465973,-0.529358,0.44754,-32.7583,6.23333,-29.825,-6945,-28910
1704,80496,0,0,0,82.2821,87.7698,1.78528,-9.79521,0.363672,0.0765625,-0.549774,-0.465973,-0.529358,0.44754,-32.7833,6.24167,-29.8417,-6945,-28910
1710,80502,0,0,0,82.2821,87.7698,1.78528,-9.80479,0.392383,0.0526367,-0.549774,-0.465942,-0.529358,0.44754,-32.7917,6.225,-29.8417,-6945,-28910
1716,80508,0,0,0,82.2766,87.7698,1.78528,-9.7665,0.368457,0.0430664,-0.549805,-0.465942,-0.529358,0.44754,-32.8,6.2,-29.7917,-6945,-28910
1722,80514,0,0,0,82.2766,87.7698,1.78528,-9.79043,0.349316,0.0334961,-0.549805,-0.465942,-0.529358,0.44751,-32.8083,6.18333,-29.8083,-6945,-28910
1728,80520,0,0,0,82.2766,87.7698,1.78528,-9.82871,0.363672,0.0334961,-0.549805,-0.465912,-0.529388,0.44751,-32.8083,6.19167,-29.8417,-6945,-28910
1734,80526,0,0,0,82.2766,87.7698,1.78528,-9.8,0.392383,0.0478516,-0.549805,-0.465912,-0.529388,0.44751,-32.7917,6.19167,-29.8333,-6945,-28910
1740,80532,0,0,0,82.2766,87.7698,1.78528,-9.79521,0.373242,0.0430664,-0.549805,-0.465912,-0.529388,0.44751,-32.775,6.2,-29.825,-6945,-28910
1746,80538,0,0,0,82.2766,87.7698,1.78528,-9.7665,0.406738,0.0478516,-0.549805,-0.465912,-0.529388,0.44751,-32.7583,6.25,-29.7917,-6945,-28910
1752,80544,0,0,0,82.2766,87.7698,1.78528,-9.81914,0.373242,0.0478516,-0.549805,-0.465912,-0.529388,0.44751,-32.7333,6.28333,-29.825,-6945,-28910
1758,80550,0,0,0,82.2766,87.7698,1.78528,-9.81914,0.368457,0.0478516,-0.549805,-0.465912,-0.529388,0.44751,-32.7083,6.31667,-29.875,-6945,-28910
1764,80556,0,0,0,82.2766,87.7698,1.78528,-9.80957,0.334961,0.0669922,-0.549805,-0.465912,-0.529388,0.44751,-32.6833,6.33333,-29.9333,-6945,-28910
1770,80562,0,0,0,82.2766,87.7698,1.78528,-9.77607,0.368457,0.0526367,-0.549805,-0.465912,-0.529388,0.44751,-32.6667,6.35833,-29.975,-6945,-28910
1776,80568,0,0,0,82.2711,87.7698,1.78528,-9.79521,0.382813,0.0478516,-0.549805,-0.465912,-0.529388,0.44751,-32.625,6.375,-30.0083,-6945,-28910
1782,80574,0,0,0,82.2711,87.7698,1.78528,-9.79043,0.382813,0.0526367,-0.549805,-0.465912,-0.529388,0.44751,-32.6083,6.39167,-29.975,-6945,-28910
1788,80580,0,0,0,82.2711,87.7698,1.78528,-9.80957,0.373242,0.0382813,-0.549805,-0.465912,-0.529388,0.447479,-32.6083,6.39167,-29.9167,-6945,-28910
1794,80586,0,0,0,82.2711,87.7698,1.78528,-9.79043,0.368457,0.0430664,-0.549805,-0.465912,-0.529388,0.447479,-32.6083,6.39167,-29.8917,-6945,-28910
1800,80592,0,0,0,82.2711,87.7698,1.78528,-9.79043,0.406738,0.0382813,-0.549805,-0.465912,-0.529388,0.44751,-32.6167,6.40833,-29.8333,-6945,-28910
1806,80598,0,0,0,82.2766,87.7698,1.78528,-9.79521,0.382813,0.0526367,-0.549805,-0.465912,-0.529388,0.44751,-32.6167,6.44167,-29.8,-6945,-28910
1812,80604,0,0,0,82.2766,87.7698,1.78528,-9.8,0.382813,0.0334961,-0.549805,-0.465912,-0.529388,0.44751,-32.625,6.45,-29.7917,-6945,-28910
1818,80610,0,0,0,82.2766,87.7698,1.78528,-9.8,0.363672,0.0478516,-0.549805,-0.465912,-0.529388,0.44751,-32.6333,6.46667,-29.8333,-6945,-28910
1824,80616,0,0,0,82.2766,87.7698,1.78528,-9.81914,0.382813,0.0191406,-0.549805,-0.465912,-0.529388,0.44751,-32.6417,6.45833,-29.875,-6945,-28910
1830,80622,0,0,0,82.2766,87.7698,1.78528,-9.77607,0.378027,0.0526367,-0.549805,-0.465942,-0.529388,0.44751,-32.65,6.43333,-29.9333,-6945,-28910
1836,80628,0,0,0,82.2821,87.7698,1.78528,-9.8,0.387598,0.0574219,-0.549774,-0.465942,-0.529358,0.44754,-32.65,6.375,-30.1,-6945,-28910
1842,80634,0,0,0,82.2821,87.7698,1.79077,-9.79521,0.382813,0.0191406,-0.549774,-0.465942,-0.529358,0.44754,-32.6583,6.36667,-30.1333,-6945,-28910
1848,80640,0,0,0,82.2821,87.7698,1.79077,-9.79043,0.378027,0.0765625,-0.549774,-0.465942,-0.529358,0.44754,-32.6667,6.36667,-30.1833,-6945,-28910
1854,80646,0,0,0,82.2876,87.7698,1.79077,-9.78086,0.382813,0.0574219,-0.549774,-0.465973,-0.529358,0.44754,-32.6583,6.34167,-30.1667,-6945,-28910
1860,80652,0,0,0,82.2876,87.7698,1.79077,-9.80479,0.373242,0.0382813,-0.549774,-0.465973,-0.529358,0.44754,-32.6417,6.31667,-30.1333,-6945,-28910
1866,80658,0,0,0,82.2876,87.7698,1.79077,-9.79043,0.382813,0.0191406,-0.549774,-0.465973,-0.529327,0.447571,-32.6,6.24167,-30.0667,-6945,-28910
1872,80664,0,0,0,82.2931,87.7698,1.79077,-9.8,0.354102,0.0574219,-0.549744,-0.465973,-0.529327,0.447571,-32.5917,6.23333,-29.975,-6945,-28910
1878,80670,0,0,0,82.2931,87.7698,1.79077,-9.81914,0.358887,0.0478516,-0.549744,-0.466003,-0.529327,0.447571,-32.5917,6.225,-29.9167,-6945,-28910
1884,80676,0,0,0,82.2931,87.7698,1.79077,-9.8,0.387598,0.0478516,-0.549744,-0.466003,-0.529327,0.447571,-32.625,6.225,-29.8833,-6945,-28910
1890,80682,0,0,0,82.2931,87.7698,1.79077,-9.80957,0.387598,0.0287109,-0.549744,-0.466003,-0.529327,0.447571,-32.6333,6.25,-29.8833,-6945,-28910
1896,80688,0,0,0,82.2986,87.7698,1.79077,-9.80957,0.373242,0.0574219,-0.549744,-0.466003,-0.529297,0.447601,-32.6833,6.30833,-29.925,-6945,-28910
1902,80694,0,0,0,82.2986,87.7698,1.79077,-9.80957,0.373242,0.0478516,-0.549744,-0.466003,-0.529297,0.447601,-32.6833,6.33333,-29.9333,-6945,-28910
1908,80700,0,0,0,82.2986,87.7698,1.79077,-9.79521,0.387598,0.0813477,-0.549713,-0.466034,-0.529297,0.447601,-32.7,6.35,-29.925,-6945,-28910
1914,80706,0,0,0,82.2986,87.7698,1.79077,-9.80479,0.378027,0.0526367,-0.549713,-0.466034,-0.529297,0.447601,-32.7167,6.35,-29.9167,-6945,-28910
1920,80712,0,0,0,82.2986,87.7698,1.79077,-9.8,0.368457,0.0334961,-0.549713,-0.466034,-0.529297,0.447601,-32.7333,6.34167,-29.925,-6945,-28910
1926,80718,0,0,0,82.3041,87.7698,1.79077,-9.80479,0.363672,0.062207,-0.549713,-0.466034,-0.529297,0.447601,-32.725,6.25833,-29.9667,-6945,-28910
1932,80724,0,0,0,82.3041,87.7698,1.79077,-9.78564,0.373242,0.0526367,-0.549713,-0.466034,-0.529297,0.447601,-32.7167,6.23333,-30.05,-6945,-28910
1938,80730,0,0,0,82.3041,87.7698,1.79077,-9.78086,0.368457,0.0574219,-0.549713,-0.466034,-0.529297,0.447601,-32.7,6.225,-30.1417,-6945,-28910
1944,80736,0,0,0,82.3041,87.7698,1.79077,-9.78086,0.397168,0.062207,-0.549713,-0.466034,-0.529297,0.447601,-32.6833,6.2,-30.1833,-6945,-28910
1950,80742,0,0,0,82.3041,87.7698,1.79077,-9.8,0.373242,0.0287109,-0.549713,-0.466034,-0.529297,0.447601,-32.6833,6.16667,-30.1833,-6945,-28910
1956,80748,0,0,0,82.3041,87.7698,1.79077,-9.80957,0.387598,0.0669922,-0.549713,-0.466034,-0.529297,0.447601,-32.65,6.10833,-30.125,-6945,-28910
1962,80754,0,0,0,82.2986,87.7698,1.79077,-9.79521,0.382813,0.0526367,-0.549744,-0.466034,-0.529297,0.447601,-32.6333,6.1,-30.1167,-6945,-28910
1968,80760,0,0,0,82.2986,87.7698,1.79077,-9.82393,0.382813,0.0526367,-0.549744,-0.466003,-0.529297,0.447601,-32.625,6.11667,-30.1083,-6945,-28910
1974,80766,0,0,0,82.2986,87.7698,1.79077,-9.80957,0.373242,0.0430664,-0.549744,-0.466003,-0.529297,0.447601,-32.625,6.13333,-30.1333,-6945,-28910
1980,80772,0,0,0,82.2986,87.7698,1.79077,-9.80479,0.397168,0.0526367,-0.549744,-0.466003,-0.529297,0.447601,-32.6167,6.125,-30.1333,-6945,-28910
1986,80778,0,0,0,82.2986,87.7698,1.79077,-9.80479,0.397168,0.0669922,-0.549744,-0.466003,-0.529297,0.447571,-32.6333,6.13333,-30.1167,-6945,-28910
1992,80784,0,0,0,82.2986,87.7698,1.79077,-9.8,0.354102,0.0574219,-0.549744,-0.466003,-0.529297,0.447571,-32.625,6.15,-30.075,-6945,-28910
1998,80790,0,0,0,82.2986,87.7698,1.79077,-9.80957,0.373242,0.0430664,-0.549744,-0.466003,-0.529327,0.447571,-32.6167,6.16667,-30.025,-6945,-28910
2004,80796,0,0,0,82.2986,87.7698,1.79077,-9.79521,0.349316,0.0430664,-0.549744,-0.466003,-0.529327,0.447571,-32.625,6.19167,-29.9667,-6945,-28910
2010,80802,0,0,0,82.2986,87.7698,1.79077,-9.80957,0.363672,0.0191406,-0.549744,-0.466003,-0.529327,0.447571,-32.65,6.2,-29.8833,-6945,-28910
2016,80808,0,0,0,82.2986,87.7698,1.79077,-9.78564,0.397168,0.062207,-0.549744,-0.466003,-0.529327,0.447571,-32.7333,6.2,-29.7083,-6945,-28910
2022,80814,0,0,0,82.2986,87.7698,1.79626,-9.80479,0.397168,0.0574219,-0.549744,-0.466003,-0.529327,0.447571,-32.75,6.2,-29.6667,-6945,-28910
2028,80820,0,0,0,82.2986,87.7698,1.79626,-9.8,0.392383,0.0430664,-0.549744,-0.466003,-0.529327,0.447571,-32.7583,6.20833,-29.65,-6945,-28910
2034,80826,0,0,0,82.2986,87.7698,1.79626,-9.70908,0.339746,0.0430664,-0.549744,-0.466003,-0.529327,0.447571,-32.7333,6.2,-29.7167,-6945,-28910
2040,80832,60.6689,-75.9277,30.7007,82.2986,87.7698,1.79626,-11.7858,-3.14863,-13.9248,-0.549744,-0.466003,-0.529327,0.447571,-32.725,6.2,-29.7667,-6945,-28910
2046,80838,10.8032,-85.7544,-42.7856,63.4131,87.583,-17.4628,-11.9485,-10.5752,8.64678,-0.551727,-0.464355,-0.524292,0.452728,-32.6917,6.175,-29.8167,-6945,-28910
2052,80844,83.4351,-29.48,23.9258,61.9354,87.4072,-19.3579,-17.3893,14.9871,-19.265,-0.551208,-0.466309,-0.521393,0.454681,-32.6833,6.16667,-29.7667,-6945,-28910
2058,80850,28.0762,-15.8691,-4.88281,60.5951,87.3798,-20.8575,-14.1449,-5.71348,0.172266,-0.550873,-0.466705,-0.520508,0.455719,-32.6667,6.15,-29.7333,-6945,-28910
2064,80856,-73.3643,-49.6826,-5.98145,55.6073,87.2754,-25.4883,-8.48408,1.98105,1.44033,-0.553314,-0.463898,-0.520905,0.45517,-32.6667,6.15,-29.7417,-6945,-28910
2070,80862,-45.6543,-26.7944,-15.9912,57.1674,87.1545,-23.7579,-8.46016,3.63672,-1.08145,-0.554565,-0.463776,-0.520996,0.453674,-32.6667,6.13333,-29.7417,-6945,-28910
2076,80868,-15.8691,-5.06592,0.12207,53.7286,87.1271,-26.9055,-8.7999,1.85186,2.04805,-0.556152,-0.461487,-0.521667,0.453278,-32.7083,6.1,-29.8,-6945,-28910
2082,80874,7.14111,16.0522,7.14111,55.6018,87.1381,-25.0763,-9.33584,1.50732,1.3207,-0.555756,-0.462219,-0.521729,0.452942,-32.75,6.075,-29.8417,-6945,-28910
2088,80880,13.9771,27.3438,-9.58252,57.5629,87.2479,-23.1921,-10.3981,-0.794336,0.47373,-0.554657,-0.462952,-0.522247,0.452942,-32.775,6.05833,-29.8667,-6945,-28910
2094,80886,11.1084,33.3252,-5.06592,60.4468,87.3523,-20.3687,-9.9292,0.492871,0.354102,-0.553558,-0.463837,-0.522888,0.452637,-32.7917,6.04167,-29.9167,-6945,-28910
2100,80892,7.32422,35.0952,-3.479,67.5824,87.5116,-13.3264,-9.74736,0.708203,0,-0.552551,-0.464844,-0.523499,0.452148,-32.7917,6.025,-29.9917,-6945,-28910
2106,80898,3.23486,34.2407,-1.28174,71.3123,87.572,-9.61853,-9.71865,0.401953,-0.0717773,-0.550659,-0.466461,-0.524963,0.451111,-32.7917,6.03333,-30.1667,-6936,-28911
2112,80904,3.35693,31.0059,0.854492,74.8993,87.6105,-6.04797,-9.82393,0.320605,0.0191406,-0.549896,-0.467194,-0.525574,0.450531,-32.7917,6.04167,-30.2333,-6936,-28911
2118,80910,6.5918,28.1982,0,78.2336,87.6379,-2.75208,-10.0632,0,0.248828,-0.549103,-0.467957,-0.526062,0.450134,-32.7917,6.05833,-30.2583,-6936,-28911
2124,80916,10.8032,25.7568,1.89209,81.3812,87.6434,0.340576,-9.73301,0.784766,-0.0957031,-0.54834,-0.468811,-0.526398,0.449829,-32.7917,6.05833,-30.25,-6936,-28911
2130,80922,16.4795,17.8223,-2.38037,86.38,87.6709,5.16907,-9.96748,0.492871,-0.267969,-0.547516,-0.469666,-0.526581,0.449707,-32.8167,6.05833,-30.1833,-6936,-28911
2136,80928,8.72803,10.498,-1.28174,87.6874,87.6764,6.4325,-9.72822,0.287109,0.0478516,-0.546265,-0.470795,-0.526764,0.449829,-32.875,6.05833,-30.0833,-6936,-28911
2142,80934,4.5166,6.5918,0.976563,88.5059,87.6709,7.229,-9.7665,0.712988,-0.545508,-0.546051,-0.471069,-0.526794,0.449768,-32.9,6.04167,-30.0333,-6936,-28911
2148,80940,2.68555,5.43213,0,89.1815,87.6654,7.88269,-9.86221,0.200977,-0.468945,-0.545868,-0.471283,-0.526825,0.449707,-32.9083,6.04167,-29.975,-6936,-28911
2154,80946,-0.12207,1.46484,-0.976563,89.3573,87.6709,8.05847,-9.87178,0.435449,-0.229688,-0.545837,-0.471283,-0.526855,0.449707,-32.8917,6.025,-29.925,-6936,-28911
2160,80952,-0.732422,-3.11279,-0.366211,88.7531,87.6599,7.45422,-9.90527,0.401953,-0.162695,-0.545898,-0.471283,-0.526794,0.449707,-32.875,6.00833,-29.8583,-6936,-28911
2166,80958,-1.83105,-5.79834,-0.549316,88.0499,87.6599,6.75659,-9.85264,0.368457,-0.0430664,-0.546143,-0.471069,-0.526611,0.449829,-32.8417,6.00833,-29.7417,-6936,-28911
2172,80964,-1.95313,-7.20215,-0.305176,87.1765,87.6599,5.89417,-9.74258,0.421094,-0.162695,-0.546356,-0.470917,-0.526489,0.449951,-32.8417,6.00833,-29.7,-6936,-28911
2178,80970,-1.77002,-8.17871,-0.366211,86.1932,87.6544,4.91638,-9.77129,0.320605,-0.143555,-0.54657,-0.470703,-0.526306,0.450073,-32.85,6.04167,-29.65,-6936,-28911
2184,80976,-2.01416,-9.33838,-0.305176,85.0781,87.6489,3.80676,-9.65166,0.512012,-0.205762,-0.546814,-0.47049,-0.526123,0.450226,-32.85,6.04167,-29.5833,-6936,-28911
2190,80982,-1.77002,-11.6577,-1.09863,82.4799,87.6379,1.22498,-9.69473,0.45459,-0.110059,-0.547089,-0.470276,-0.525909,0.450378,-32.8417,6.03333,-29.5083,-6936,-28911
2196,80988,-1.15967,-12.6343,-0.793457,80.9967,87.6324,-0.247192,-9.79521,0.411523,0.229688,-0.547668,-0.469727,-0.525421,0.450806,-32.7917,5.98333,-29.4417,-6936,-28911
2202,80994,-1.64795,-12.6343,-0.732422,79.5245,87.6215,-1.71387,-9.70908,0.6125,0.430664,-0.547974,-0.469452,-0.525177,0.45105,-32.7667,5.96667,-29.4417,-6936,-28911
2208,81000,-1.52588,-10.6812,-2.44141,78.2446,87.6215,-2.98828,-9.45547,0.210547,2.11025,-0.548187,-0.469177,-0.524994,0.451294,-32.7333,5.95833,-29.5083,-6936,-28911
2214,81006,-3.11279,-1.58691,-1.52588,78.0084,87.627,-3.20801,-10.111,-0.617285,1.59824,-0.548248,-0.469025,-0.525024,0.451294,-32.7,5.94167,-29.575,-6936,-28911
2220,81012,-3.84521,4.15039,3.11279,82.0404,87.616,0.85144,-9.86699,1.67002,-4.77559,-0.54776,-0.469635,-0.525665,0.4505,-32.675,5.93333,-29.6333,-6936,-28911
2226,81018,-1.52588,-22.9492,-4.27246,79.3048,87.616,-1.87317,-9.68994,-0.655566,4.34492,-0.548279,-0.469147,-0.52533,0.450775,-32.6333,5.90833,-29.65,-6936,-28911
2232,81024,-0.976563,-0.854492,2.56348,79.2444,87.5995,-1.93359,-9.63731,1.06709,0.0813477,-0.54837,-0.469177,-0.525269,0.450714,-32.6333,5.91667,-29.625,-6936,-28911
2238,81030,-0.793457,20.4468,2.86865,81.6833,87.605,0.510864,-10.1541,0.516797,-3.61279,-0.547974,-0.469635,-0.525696,0.450226,-32.6333,5.925,-29.625,-6936,-28911
2244,81036,-1.40381,-2.13623,-2.13623,81.4471,87.6105,0.274658,-9.78564,0.177051,0.559863,-0.547974,-0.469543,-0.525726,0.450256,-32.6667,5.93333,-29.6083,-6936,-28911
2250,81042,-0.244141,3.54004,0.671387,79.7333,87.5995,-1.43372,-9.51289,0.282324,3.23955,-0.548401,-0.469177,-0.525299,0.450653,-32.6833,5.95833,-29.575,-6936,-28911
2256,81048,-0.549316,14.5264,1.58691,81.4636,87.5995,0.296631,-9.95791,0.789551,-2.26816,-0.548035,-0.469574,-0.525696,0.450195,-32.7167,5.99167,-29.5917,-6936,-28911
2262,81054,-0.671387,-7.93457,-1.15967,80.5518,87.5995,-0.609741,-9.73779,0.0765625,1.49297,-0.548218,-0.469391,-0.525543,0.450378,-32.7083,6.00833,-29.6333,-6936,-28911
2268,81060,-0.244141,-11.2915,-1.34277,79.2114,87.594,-1.95007,-9.68994,0.229688,2.10068,-0.548462,-0.469116,-0.525299,0.450623,-32.7,6.025,-29.6917,-6936,-28911
2274,81066,-0.488281,7.44629,1.64795,80.0903,87.594,-1.06567,-9.90527,0.698633,-1.33506,-0.54834,-0.469299,-0.525452,0.450439,-32.7083,6.03333,-29.7583,-6936,-28911
2280,81072,-0.183105,-8.30078,-0.793457,80.2002,87.594,-0.955811,-10.0249,0.392383,-1.6126,-0.548126,-0.469482,-0.525665,0.450226,-32.7167,6.03333,-29.8,-6936,-28911
2286,81078,-0.366211,-7.08008,-0.732422,79.3542,87.594,-1.79626,-9.66602,0.143555,1.39727,-0.548462,-0.469147,-0.52533,0.450562,-32.75,6.025,-29.85,-6936,-28911
2292,81084,-0.366211,8.23975,0.427246,80.3046,87.5995,-0.85144,-9.95791,0.559863,-1.4834,-0.548309,-0.469299,-0.525513,0.450378,-32.7583,6.025,-29.8917,-6936,-28911
2298,81090,-0.244141,5.06592,1.2207,80.9253,87.594,-0.22522,-9.86221,0.569434,-0.890039,-0.548218,-0.469421,-0.525604,0.450226,-32.7917,6.01667,-29.925,-6936,-28911
2304,81096,-0.244141,-8.17871,-1.09863,79.9695,87.594,-1.18103,-9.72822,0.0574219,1.58389,-0.54837,-0.469238,-0.525452,0.450409,-32.825,6.01667,-29.9667,-6936,-28911
2310,81102,0,7.62939,1.46484,80.4419,87.5885,-0.708618,-9.76172,0.311035,0.674707,-0.548462,-0.469177,-0.52536,0.4505,-32.8083,6.05833,-29.9917,-6936,-28911
2316,81108,0,1.52588,0.305176,80.6396,87.5885,-0.510864,-9.78086,0.387598,-0.239258,-0.548279,-0.469391,-0.525543,0.450256,-32.7917,6.08333,-29.9917,-6936,-28911
2322,81114,-0.244141,-7.8125,-1.34277,79.7168,87.5885,-1.43372,-9.75693,0.0861328,1.43076,-0.548431,-0.469208,-0.525391,0.450439,-32.7583,6.09167,-30.0167,-6936,-28911
2328,81120,-0.183105,-0.671387,0.12207,79.6289,87.5885,-1.51611,-9.81436,0.468945,0.0430664,-0.548462,-0.469177,-0.525391,0.45047,-32.7583,6.1,-30.0417,-6936,-28911
2334,81126,0,6.28662,1.58691,80.387,87.5885,-0.758057,-9.81914,0.689063,-1.16279,-0.54834,-0.46933,-0.525482,0.450287,-32.7667,6.10833,-30.0833,-6936,-28911
2340,81132,-0.183105,-6.04248,-0.732422,79.4916,87.583,-1.65344,-9.84785,0.229688,0.387598,-0.548401,-0.469299,-0.525452,0.450317,-32.8,6.11667,-30.1167,-6936,-28911
2346,81138,0.0610352,1.89209,1.09863,79.7223,87.5775,-1.42273,-9.8,0.497656,-0.378027,-0.548492,-0.469238,-0.52536,0.450378,-32.8,6.1,-30.0917,-6936,-28911
2352,81144,-0.183105,4.27246,0.244141,80.2222,87.583,-0.922852,-9.83828,0.459375,-0.746484,-0.548401,-0.469299,-0.525452,0.450287,-32.775,6.08333,-30.0333,-6936,-28911
2358,81150,-0.244141,-3.60107,-0.0610352,79.8157,87.5775,-1.32935,-9.72822,0.325391,0.712988,-0.548492,-0.469238,-0.525391,0.450348,-32.7583,6.075,-30,-6936,-28911
2364,81156,-0.0610352,-3.72314,-0.12207,79.3817,87.5775,-1.76331,-9.77129,0.334961,0.689063,-0.548584,-0.469147,-0.525299,0.450439,-32.7417,6.06667,-30,-6936,-28911
2370,81162,-0.183105,2.01416,0.488281,79.986,87.5775,-1.15906,-9.87178,0.531152,-0.598145,-0.548523,-0.469238,-0.52536,0.450348,-32.7667,6.075,-29.9833,-6936,-28911
2376,81168,-0.0610352,-3.90625,-0.244141,79.5355,87.572,-1.604,-9.73779,0.301465,0.736914,-0.548584,-0.469208,-0.525299,0.450378,-32.775,6.075,-29.9833,-6936,-28911
2382,81174,-0.12207,-1.89209,0.244141,79.3213,87.572,-1.82373,-9.77129,0.363672,0.301465,-0.548615,-0.469177,-0.525269,0.450409,-32.7833,6.075,-29.9667,-6936,-28911
2388,81180,-0.12207,3.17383,0.488281,79.6893,87.572,-1.4502,-9.85264,0.468945,-0.641211,-0.548553,-0.469238,-0.52533,0.450348,-32.775,6.05833,-29.9417,-6936,-28911
2394,81186,-0.244141,0,0.488281,79.7058,87.5665,-1.43372,-9.78086,0.411523,-0.00478516,-0.548584,-0.469238,-0.52533,0.450317,-32.7667,6.03333,-29.9,-6936,-28911
2400,81192,0,-0.183105,0.0610352,79.2004,87.5665,-1.94458,-9.7665,0.263184,0.75127,-0.548676,-0.469147,-0.525238,0.450409,-32.7417,5.99167,-29.85,-6936,-28911
2406,81198,0,2.80762,0.854492,79.5355,87.5665,-1.604,-9.8335,0.531152,-0.540723,-0.548615,-0.469208,-0.525269,0.450348,-32.7333,5.975,-29.8333,-6936,-28911
2412,81204,-0.0610352,-1.52588,0.183105,79.3762,87.561,-1.76331,-9.78564,0.344531,0.282324,-0.548645,-0.469208,-0.525238,0.450378,-32.725,5.95833,-29.85,-6936,-28911
2418,81210,-0.244141,-3.23486,-0.305176,78.9972,87.561,-2.14233,-9.75693,0.282324,0.583789,-0.548737,-0.469116,-0.525177,0.450439,-32.7167,5.95,-29.875,-6936,-28911
2424,81216,-0.12207,1.0376,0.671387,79.129,87.561,-2.0105,-9.80479,0.512012,-0.224902,-0.548706,-0.469147,-0.525177,0.450409,-32.7167,5.94167,-29.8667,-6936,-28911
2430,81222,-0.183105,-2.56348,-0.183105,79.0411,87.5555,-2.09839,-9.85264,0.449805,-0.330176,-0.548706,-0.469208,-0.525208,0.450348,-32.6583,5.925,-29.8083,-6936,-28911
2436,81228,-0.0610352,-2.19727,0.12207,78.7939,87.5555,-2.34558,-9.79043,0.378027,0.363672,-0.548798,-0.469116,-0.525116,0.450439,-32.6333,5.91667,-29.775,-6936,-28911
2442,81234,0,1.83105,0.793457,79.0192,87.55,-2.12036,-9.84307,0.468945,-0.368457,-0.548767,-0.469177,-0.525116,0.450409,-32.6083,5.91667,-29.7333,-6936,-28911
