TimeSinceCollection,Timestamp,AccX,AccY,AccZ,AngleRoll,AnglePitch,AngleYaw,AngularVelX,AngularVelY,AngularVelZ,Q1,Q2,Q3,Q4,MagX,MagY,MagZ,Height,Airpressure
0,37962,0,0,0,131.572,86.9293,54.3549,-9.80957,0.397168,-0.354102,0.551361,0.45993,0.553314,-0.422119,-26.125,6.675,-25.8917,-6986,-28905
6,37968,0,0,0,131.572,86.9293,54.3549,-9.79521,0.382813,-0.29668,0.551361,0.45993,0.553314,-0.422119,-26.1,6.65,-25.9667,-6986,-28905
12,37974,0,0,0,131.567,86.9293,54.3549,-9.79521,0.358887,-0.349316,0.551361,0.45993,0.553314,-0.422119,-26.0833,6.63333,-26.05,-6986,-28905
18,37980,0,0,0,131.572,86.9293,54.3549,-9.77129,0.397168,-0.363672,0.551361,0.45993,0.553314,-0.422119,-26.075,6.58333,-26.1333,-6986,-28905
24,37986,0,0,0,131.567,86.9293,54.3549,-9.78564,0.416309,-0.349316,0.551361,0.45993,0.553314,-0.422119,-26.0833,6.56667,-26.15,-6986,-28905
30,37992,0,0,0,131.572,86.9293,54.3549,-9.8,0.411523,-0.378027,0.551361,0.45993,0.553314,-0.422119,-26.1083,6.59167,-26.1667,-6978,-28906
36,37998,0,0,0,131.567,86.9293,54.3549,-9.79521,0.397168,-0.344531,0.551361,0.45993,0.553314,-0.422119,-26.1417,6.6,-26.1333,-6978,-28906
42,38004,0,0,0,131.567,86.9293,54.3549,-9.81436,0.378027,-0.344531,0.551361,0.45993,0.553314,-0.422119,-26.1667,6.60833,-26.1167,-6978,-28906
48,38010,0,0,0,131.572,86.9293,54.3549,-9.81436,0.382813,-0.330176,0.551361,0.45993,0.553314,-0.422119,-26.2083,6.64167,-26.0417,-6978,-28906
54,38016,0,0,0,131.572,86.9293,54.3549,-9.8,0.387598,-0.363672,0.551361,0.45993,0.553314,-0.422119,-26.2333,6.65833,-26.05,-6978,-28906
60,38022,0,0,0,131.572,86.9293,54.3549,-9.81436,0.378027,-0.344531,0.551361,0.459961,0.553314,-0.422119,-26.2583,6.675,-26.0833,-6978,-28906
66,38028,0,0,0,131.572,86.9293,54.3549,-9.79521,0.392383,-0.358887,0.551361,0.459961,0.553314,-0.422119,-26.2833,6.69167,-26.0667,-6978,-28906
72,38034,0,0,0,131.572,86.9293,54.3549,-9.81914,0.392383,-0.354102,0.551331,0.459961,0.553314,-0.422119,-26.3,6.68333,-26.0417,-6978,-28906
78,38040,0,0,0,131.572,86.9293,54.3549,-9.79043,0.397168,-0.334961,0.551331,0.459961,0.553314,-0.42215,-26.325,6.68333,-25.9583,-6978,-28906
84,38046,0,0,0,131.572,86.9293,54.3549,-9.76172,0.401953,-0.330176,0.551331,0.459961,0.553284,-0.42215,-26.3417,6.69167,-25.9167,-6978,-28906
90,38052,0,0,0,131.572,86.9293,54.3549,-9.7665,0.397168,-0.354102,0.551331,0.459961,0.553284,-0.42215,-26.3583,6.69167,-25.925,-6978,-28906
96,38058,0,0,0,131.572,86.9293,54.3549,-9.79043,0.368457,-0.354102,0.551331,0.459961,0.553284,-0.42215,-26.35,6.70833,-25.925,-6978,-28906
102,38064,0,0,0,131.578,86.9293,54.3549,-9.80479,0.382813,-0.330176,0.551331,0.459961,0.553284,-0.42215,-26.3417,6.71667,-25.9083,-6978,-28906
108,38070,0,0,0,131.578,86.9293,54.3549,-9.79043,0.392383,-0.344531,0.551331,0.459991,0.553284,-0.42215,-26.3,6.71667,-25.8583,-6978,-28906
114,38076,0,0,0,131.578,86.9293,54.3549,-9.79521,0.397168,-0.354102,0.551331,0.459991,0.553284,-0.42215,-26.275,6.71667,-25.825,-6978,-28906
120,38082,0,0,0,131.578,86.9293,54.3549,-9.80479,0.392383,-0.330176,0.551331,0.459991,0.553284,-0.42215,-26.25,6.70833,-25.7917,-6978,-28906
126,38088,0,0,0,131.578,86.9293,54.3549,-9.79043,0.378027,-0.382813,0.551331,0.459991,0.553284,-0.42215,-26.2333,6.68333,-25.7417,-6978,-28906
132,38094,0,0,0,131.578,86.9293,54.3549,-9.79521,0.368457,-0.31582,0.551331,0.459991,0.553284,-0.42215,-26.2083,6.65,-25.7083,-6978,-28906
138,38100,0,0,0,131.578,86.9293,54.3549,-9.82871,0.387598,-0.368457,0.551331,0.459991,0.553284,-0.42215,-26.2,6.6,-25.6417,-6978,-28906
144,38106,0,0,0,131.578,86.9293,54.3549,-9.78086,0.411523,-0.354102,0.551331,0.459991,0.553284,-0.42215,-26.1917,6.58333,-25.65,-6978,-28906
150,38112,0,0,0,131.578,86.9293,54.3549,-9.79521,0.368457,-0.354102,0.5513,0.459991,0.553284,-0.42215,-26.2,6.56667,-25.65,-6978,-28906
156,38118,0,0,0,131.583,86.9293,54.3549,-9.79521,0.363672,-0.334961,0.5513,0.459991,0.553284,-0.42218,-26.1833,6.55833,-25.6667,-6978,-28906
162,38124,0,0,0,131.583,86.9293,54.3549,-9.78564,0.397168,-0.349316,0.5513,0.459991,0.553284,-0.42218,-26.1833,6.55833,-25.6917,-6978,-28906
168,38130,0,0,0,131.583,86.9293,54.3549,-9.78564,0.387598,-0.339746,0.5513,0.459991,0.553253,-0.42218,-26.1833,6.55833,-25.7583,-6978,-28906
174,38136,0,0,0,131.583,86.9293,54.3549,-9.80957,0.382813,-0.358887,0.5513,0.460022,0.553253,-0.42218,-26.2083,6.55833,-25.7917,-6978,-28906
180,38142,0,0,0,131.583,86.9293,54.3549,-9.79521,0.392383,-0.363672,0.5513,0.460022,0.553253,-0.42218,-26.225,6.56667,-25.8167,-6978,-28906
186,38148,0,0,0,131.583,86.9293,54.3549,-9.78086,0.411523,-0.363672,0.5513,0.460022,0.553253,-0.42218,-26.2417,6.575,-25.8417,-6978,-28906
192,38154,0,0,0,131.589,86.9293,54.3549,-9.78086,0.387598,-0.320605,0.5513,0.460022,0.553253,-0.42218,-26.25,6.575,-25.8917,-6978,-28906
198,38160,0,0,0,131.589,86.9293,54.3549,-9.79521,0.406738,-0.334961,0.5513,0.460022,0.553253,-0.422211,-26.25,6.55,-26.0083,-6978,-28906
204,38166,0,0,0,131.589,86.9293,54.3549,-9.8,0.392383,-0.330176,0.5513,0.460022,0.553253,-0.422211,-26.225,6.55,-26.05,-6978,-28906
210,38172,0,0,0,131.589,86.9293,54.3549,-9.80957,0.397168,-0.344531,0.5513,0.460022,0.553253,-0.422211,-26.2,6.54167,-26.05,-6978,-28906
216,38178,0,0,0,131.583,86.9293,54.3549,-9.79521,0.401953,-0.330176,0.5513,0.460022,0.553253,-0.422211,-26.1833,6.54167,-26.05,-6978,-28906
222,38184,0,0,0,131.583,86.9293,54.3549,-9.80957,0.406738,-0.339746,0.5513,0.460022,0.553253,-0.42218,-26.175,6.55,-26.0667,-6978,-28906
228,38190,0,0,0,131.583,86.9293,54.3549,-9.80957,0.378027,-0.339746,0.5513,0.460022,0.553253,-0.42218,-26.1667,6.59167,-26.1167,-6978,-28906
234,38196,0,0,0,131.583,86.9293,54.3549,-9.80479,0.387598,-0.344531,0.5513,0.460022,0.553253,-0.42218,-26.1833,6.61667,-26.1333,-6978,-28906
240,38202,0,0,0,131.583,86.9293,54.3549,-9.79521,0.411523,-0.363672,0.5513,0.460022,0.553253,-0.42218,-26.2083,6.61667,-26.125,-6978,-28906
246,38208,0,0,0,131.583,86.9293,54.3549,-9.79043,0.382813,-0.354102,0.5513,0.460022,0.553253,-0.42218,-26.2417,6.60833,-26.1167,-6978,-28906
252,38214,0,0,0,131.583,86.9293,54.3549,-9.78086,0.382813,-0.354102,0.5513,0.460022,0.553253,-0.42218,-26.2833,6.6,-26.0917,-6978,-28906
258,38220,0,0,0,131.583,86.9293,54.3549,-9.8,0.382813,-0.344531,0.5513,0.460022,0.553253,-0.42218,-26.2833,6.60833,-26.0833,-6978,-28906
264,38226,0,0,0,131.583,86.9293,54.3549,-9.81436,0.387598,-0.339746,0.5513,0.460022,0.553253,-0.42218,-26.275,6.625,-26.0583,-6986,-28905
270,38232,0,0,0,131.583,86.9293,54.3549,-9.78564,0.411523,-0.358887,0.5513,0.460022,0.553253,-0.42218,-26.275,6.63333,-26.0333,-6986,-28905
276,38238,0,0,0,131.583,86.9293,54.3549,-9.79521,0.378027,-0.344531,0.5513,0.460022,0.553253,-0.42218,-26.275,6.64167,-26.0417,-6986,-28905
282,38244,0,0,0,131.583,86.9293,54.3549,-9.77607,0.368457,-0.330176,0.5513,0.460022,0.553253,-0.42218,-26.2667,6.63333,-26.0417,-6986,-28905
288,38250,0,0,0,131.583,86.9293,54.3549,-9.82393,0.392383,-0.354102,0.5513,0.460022,0.553253,-0.42218,-26.25,6.65833,-26.075,-6986,-28905
294,38256,0,0,0,131.583,86.9293,54.3549,-9.78086,0.373242,-0.334961,0.5513,0.460022,0.553253,-0.42218,-26.25,6.66667,-26.075,-6986,-28905
300,38262,0,0,0,131.583,86.9293,54.3549,-9.80479,0.411523,-0.339746,0.5513,0.460022,0.553253,-0.42218,-26.25,6.675,-26.0667,-6986,-28905
306,38268,0,0,0,131.583,86.9293,54.3549,-9.79521,0.373242,-0.339746,0.5513,0.460022,0.553253,-0.42218,-26.2667,6.7,-26.0333,-6986,-28905
312,38274,0,0,0,131.583,86.9293,54.3549,-9.81436,0.397168,-0.349316,0.5513,0.460022,0.553253,-0.42218,-26.2583,6.70833,-25.975,-6986,-28905
318,38280,0,0,0,131.583,86.9293,54.3549,-9.7665,0.387598,-0.325391,0.5513,0.460022,0.553253,-0.42218,-26.2417,6.71667,-25.975,-6986,-28905
324,38286,0,0,0,131.583,86.9293,54.3549,-9.79521,0.406738,-0.344531,0.5513,0.460022,0.553253,-0.42218,-26.2417,6.73333,-25.975,-6986,-28905
330,38292,0,0,0,131.583,86.9293,54.3549,-9.79521,0.387598,-0.334961,0.5513,0.460022,0.553253,-0.42218,-26.2583,6.74167,-25.9583,-6986,-28905
336,38298,0,0,0,131.583,86.9293,54.3549,-9.8,0.378027,-0.325391,0.5513,0.460022,0.553253,-0.42218,-26.2667,6.75,-25.95,-6986,-28905
342,38304,0,0,0,131.583,86.9293,54.3549,-9.79521,0.406738,-0.339746,0.5513,0.460022,0.553253,-0.42218,-26.3,6.775,-25.875,-6986,-28905
348,38310,0,0,0,131.583,86.9293,54.3549,-9.79521,0.387598,-0.334961,0.5513,0.460022,0.553253,-0.42218,-26.3,6.78333,-25.8583,-6986,-28905
354,38316,0,0,0,131.583,86.9293,54.3549,-9.8,0.378027,-0.354102,0.5513,0.459991,0.553284,-0.42218,-26.3,6.78333,-25.875,-6986,-28905
360,38322,0,0,0,131.583,86.9293,54.3549,-9.8,0.363672,-0.354102,0.5513,0.459991,0.553284,-0.42218,-26.3083,6.78333,-25.9167,-6986,-28905
366,38328,0,0,0,131.583,86.9293,54.3549,-9.78086,0.392383,-0.349316,0.5513,0.459991,0.553284,-0.42218,-26.3083,6.75833,-25.95,-6986,-28905
372,38334,0,0,0,131.583,86.9293,54.3549,-9.79043,0.401953,-0.363672,0.5513,0.459991,0.553284,-0.42218,-26.2833,6.66667,-25.9083,-6986,-28905
378,38340,0,0,0,131.578,86.9293,54.3549,-9.80957,0.411523,-0.325391,0.5513,0.459991,0.553284,-0.42218,-26.275,6.625,-25.9,-6986,-28905
384,38346,0,0,0,131.578,86.9293,54.3549,-9.79521,0.368457,-0.320605,0.5513,0.459991,0.553284,-0.42218,-26.2583,6.59167,-25.8833,-6986,-28905
390,38352,0,0,0,131.578,86.9293,54.3549,-9.79521,0.368457,-0.354102,0.5513,0.459991,0.553284,-0.42218,-26.2583,6.59167,-25.8833,-6986,-28905
396,38358,0,0,0,131.578,86.9293,54.3549,-9.79521,0.363672,-0.349316,0.5513,0.459991,0.553284,-0.42218,-26.2667,6.575,-25.9167,-6986,-28905
402,38364,0,0,0,131.578,86.9293,54.3549,-9.79043,0.392383,-0.344531,0.5513,0.459991,0.553284,-0.42218,-26.2667,6.55,-25.9917,-6986,-28905
408,38370,0,0,0,131.578,86.9293,54.3549,-9.7665,0.392383,-0.320605,0.5513,0.459991,0.553284,-0.42218,-26.25,6.53333,-26.025,-6986,-28905
414,38376,0,0,0,131.578,86.9293,54.3549,-9.80479,0.397168,-0.339746,0.5513,0.459991,0.553284,-0.42218,-26.2333,6.54167,-26.0333,-6986,-28905
420,38382,0,0,0,131.578,86.9293,54.3549,-9.81436,0.397168,-0.349316,0.5513,0.459991,0.553284,-0.42218,-26.2167,6.55,-26.0167,-6986,-28905
426,38388,0,0,0,131.578,86.9293,54.3549,-9.79043,0.421094,-0.339746,0.5513,0.459991,0.553284,-0.42218,-26.1917,6.56667,-25.9833,-6986,-28905
432,38394,0,0,0,131.578,86.9293,54.3549,-9.80479,0.387598,-0.320605,0.5513,0.459991,0.553284,-0.42218,-26.125,6.55833,-25.8917,-6986,-28905
438,38400,0,0,0,131.578,86.9293,54.3549,-9.79521,0.401953,-0.320605,0.551331,0.459991,0.553284,-0.42218,-26.125,6.53333,-25.825,-6986,-28905
444,38406,0,0,0,131.578,86.9293,54.3549,-9.78564,0.392383,-0.358887,0.551331,0.459991,0.553284,-0.42215,-26.1167,6.51667,-25.7833,-6986,-28905
450,38412,0,0,0,131.578,86.9293,54.3549,-9.78564,0.368457,-0.334961,0.551331,0.459961,0.553284,-0.42215,-26.1083,6.50833,-25.725,-6986,-28905
456,38418,0,0,0,131.572,86.9293,54.3549,-9.78086,0.373242,-0.334961,0.551331,0.459961,0.553284,-0.42215,-26.1333,6.51667,-25.6583,-6986,-28905
462,38424,0,0,0,131.572,86.9293,54.3549,-9.8,0.349316,-0.339746,0.551331,0.459961,0.553284,-0.42215,-26.1583,6.525,-25.6417,-6986,-28905
468,38430,0,0,0,131.572,86.9293,54.3549,-9.78564,0.397168,-0.354102,0.551331,0.459961,0.553314,-0.42215,-26.175,6.53333,-25.6167,-6986,-28905
474,38436,0,0,0,131.572,86.9293,54.3549,-9.80957,0.401953,-0.363672,0.551331,0.459961,0.553314,-0.42215,-26.1833,6.51667,-25.6167,-6986,-28905
480,38442,0,0,0,131.572,86.9293,54.3549,-9.80957,0.392383,-0.30625,0.551331,0.459961,0.553314,-0.42215,-26.1917,6.525,-25.6167,-6986,-28905
486,38448,0,0,0,131.567,86.9293,54.3549,-9.79521,0.373242,-0.320605,0.551361,0.45993,0.553314,-0.422119,-26.2,6.525,-25.5917,-6986,-28905
492,38454,0,0,0,131.567,86.9293,54.3549,-9.80957,0.387598,-0.358887,0.551361,0.45993,0.553314,-0.422119,-26.2167,6.54167,-25.5583,-6986,-28905
498,38460,0,0,0,131.567,86.9293,54.3549,-9.80479,0.392383,-0.354102,0.551361,0.45993,0.553314,-0.422119,-26.2333,6.55833,-25.5417,-6986,-28905
504,38466,0,0,0,131.567,86.9293,54.3549,-9.81436,0.387598,-0.344531,0.551361,0.45993,0.553314,-0.422119,-26.2667,6.6,-25.5667,-6986,-28905
510,38472,0,0,0,131.561,86.9293,54.3549,-9.79043,0.368457,-0.330176,0.551361,0.4599,0.553314,-0.422119,-26.2833,6.63333,-25.6083,-6986,-28905
516,38478,0,0,0,131.561,86.9293,54.3549,-9.79043,0.378027,-0.344531,0.551392,0.4599,0.553345,-0.422089,-26.2917,6.65,-25.6583,-6986,-28905
522,38484,0,0,0,131.561,86.9293,54.3549,-9.79521,0.378027,-0.325391,0.551392,0.4599,0.553345,-0.422089,-26.2833,6.675,-25.775,-6986,-28905
528,38490,0,0,0,131.561,86.9293,54.3549,-9.77129,0.397168,-0.368457,0.551392,0.4599,0.553345,-0.422089,-26.2833,6.675,-25.8167,-6986,-28905
534,38496,0,0,0,131.561,86.9293,54.3549,-9.80957,0.392383,-0.325391,0.551392,0.4599,0.553345,-0.422089,-26.2667,6.68333,-25.8667,-6986,-28905
540,38502,0,0,0,131.561,86.9293,54.3549,-9.80957,0.382813,-0.334961,0.551392,0.4599,0.553345,-0.422089,-26.2583,6.69167,-25.9,-6986,-28905
546,38508,0,0,0,131.561,86.9293,54.3549,-9.80479,0.387598,-0.334961,0.551392,0.459869,0.553345,-0.422089,-26.25,6.675,-25.975,-6986,-28905
552,38514,0,0,0,131.556,86.9293,54.3549,-9.79043,0.382813,-0.344531,0.551392,0.459869,0.553345,-0.422089,-26.2083,6.65833,-26.025,-6986,-28905
558,38520,0,0,0,131.556,86.9293,54.3549,-9.76172,0.392383,-0.339746,0.551392,0.459869,0.553345,-0.422089,-26.1917,6.65833,-25.9833,-6986,-28905
564,38526,0,0,0,131.556,86.9293,54.3549,-9.79521,0.387598,-0.344531,0.551392,0.459869,0.553345,-0.422089,-26.1667,6.65,-25.9083,-6986,-28905
570,38532,0,0,0,131.556,86.9293,54.3549,-9.80957,0.397168,-0.334961,0.551392,0.459869,0.553345,-0.422089,-26.1667,6.65833,-25.8083,-6986,-28905
576,38538,0,0,0,131.556,86.9293,54.3549,-9.79043,0.387598,-0.354102,0.551422,0.459869,0.553375,-0.422058,-26.1833,6.65833,-25.7333,-6986,-28905
582,38544,0,0,0,131.556,86.9293,54.3549,-9.79521,0.382813,-0.363672,0.551422,0.459839,0.553375,-0.422058,-26.2083,6.64167,-25.675,-6986,-28905
588,38550,0,0,0,131.556,86.9293,54.3549,-9.77607,0.387598,-0.358887,0.551422,0.459839,0.553375,-0.422058,-26.2083,6.63333,-25.6417,-6986,-28905
594,38556,0,0,0,131.556,86.9293,54.3549,-9.77607,0.401953,-0.339746,0.551422,0.459839,0.553375,-0.422058,-26.2167,6.64167,-25.6167,-6986,-28905
600,38562,0,0,0,131.55,86.9293,54.3549,-9.79043,0.387598,-0.334961,0.551422,0.459839,0.553375,-0.422058,-26.2167,6.65,-25.625,-6986,-28905
606,38568,0,0,0,131.55,86.9293,54.3549,-9.79043,0.378027,-0.339746,0.551422,0.459839,0.553375,-0.422058,-26.2417,6.68333,-25.6167,-6986,-28905
612,38574,0,0,0,131.55,86.9293,54.3549,-9.78564,0.392383,-0.330176,0.551422,0.459839,0.553375,-0.422058,-26.3,6.725,-25.6417,-6986,-28905
618,38580,0,0,0,131.55,86.9293,54.3549,-9.79521,0.382813,-0.344531,0.551422,0.459839,0.553375,-0.422058,-26.3,6.73333,-25.6417,-6986,-28905
624,38586,0,0,0,131.55,86.9293,54.3549,-9.79043,0.382813,-0.330176,0.551422,0.459839,0.553375,-0.422058,-26.2917,6.73333,-25.6417,-6986,-28905
630,38592,0,0,0,131.55,86.9293,54.3549,-9.79043,0.397168,-0.344531,0.551422,0.459839,0.553375,-0.422058,-26.2667,6.73333,-25.6167,-6986,-28905
636,38598,0,0,0,131.55,86.9348,54.3549,-9.79521,0.416309,-0.339746,0.551453,0.459808,0.553375,-0.422058,-26.2417,6.725,-25.5917,-6986,-28905
642,38604,0,0,0,131.545,86.9348,54.3549,-9.77607,0.401953,-0.330176,0.551453,0.459808,0.553406,-0.422028,-26.2333,6.74167,-25.5833,-6986,-28905
648,38610,0,0,0,131.545,86.9348,54.3549,-9.78086,0.397168,-0.368457,0.551453,0.459808,0.553406,-0.422028,-26.2333,6.74167,-25.6167,-6986,-28905
654,38616,0,0,0,131.545,86.9348,54.3549,-9.78086,0.387598,-0.358887,0.551453,0.459808,0.553406,-0.422028,-26.2417,6.73333,-25.675,-6986,-28905
660,38622,0,0,0,131.545,86.9348,54.3549,-9.80479,0.387598,-0.330176,0.551453,0.459808,0.553406,-0.422028,-26.25,6.71667,-25.725,-6986,-28905
666,38628,0,0,0,131.545,86.9348,54.3549,-9.8,0.401953,-0.334961,0.551453,0.459778,0.553406,-0.422028,-26.2417,6.68333,-25.75,-6986,-28905
672,38634,0,0,0,131.539,86.9348,54.3549,-9.79043,0.382813,-0.325391,0.551453,0.459778,0.553406,-0.422028,-26.2333,6.63333,-25.7583,-6986,-28905
678,38640,0,0,0,131.539,86.9348,54.3549,-9.79043,0.378027,-0.339746,0.551453,0.459778,0.553406,-0.422028,-26.2167,6.625,-25.775,-6986,-28905
684,38646,0,0,0,131.539,86.9348,54.3549,-9.79043,0.397168,-0.330176,0.551483,0.459778,0.553406,-0.421997,-26.2083,6.6,-25.775,-6986,-28905
690,38652,0,0,0,131.539,86.9348,54.3549,-9.79521,0.378027,-0.339746,0.551483,0.459778,0.553406,-0.421997,-26.2083,6.58333,-25.7583,-6986,-28905
696,38658,0,0,0,131.539,86.9348,54.3549,-9.79043,0.382813,-0.344531,0.551483,0.459747,0.553436,-0.421997,-26.225,6.59167,-25.75,-6986,-28905
702,38664,0,0,0,131.539,86.9348,54.3549,-9.79043,0.392383,-0.354102,0.551483,0.459747,0.553436,-0.421997,-26.2417,6.6,-25.7167,-6986,-28905
708,38670,0,0,0,131.534,86.9348,54.3549,-9.79043,0.358887,-0.31582,0.551483,0.459747,0.553436,-0.421997,-26.2583,6.58333,-25.725,-6986,-28905
714,38676,0,0,0,131.534,86.9348,54.3549,-9.78564,0.382813,-0.344531,0.551483,0.459747,0.553436,-0.421997,-26.2583,6.59167,-25.7583,-6986,-28905
720,38682,0,0,0,131.534,86.9348,54.3549,-9.79043,0.401953,-0.344531,0.551483,0.459747,0.553436,-0.421997,-26.2667,6.6,-25.8083,-6986,-28905
726,38688,0,0,0,131.534,86.9348,54.3549,-9.79043,0.416309,-0.354102,0.551483,0.459747,0.553436,-0.421997,-26.2833,6.60833,-25.8583,-6986,-28905
732,38694,0,0,0,131.534,86.9348,54.3549,-9.78564,0.401953,-0.358887,0.551483,0.459747,0.553436,-0.421997,-26.2667,6.65,-26.0083,-6986,-28905
738,38700,0,0,0,131.534,86.9348,54.3549,-9.78564,0.397168,-0.373242,0.551483,0.459747,0.553436,-0.421997,-26.25,6.64167,-26.0917,-6986,-28905
744,38706,0,0,0,131.534,86.9348,54.3549,-9.77607,0.387598,-0.363672,0.551483,0.459747,0.553436,-0.421997,-26.2417,6.64167,-26.1167,-6986,-28905
750,38712,0,0,0,131.534,86.9348,54.3549,-9.81914,0.411523,-0.330176,0.551483,0.459747,0.553436,-0.421997,-26.2417,6.64167,-26.125,-6986,-28905
756,38718,0,0,0,131.534,86.9348,54.3549,-9.79521,0.406738,-0.354102,0.551483,0.459747,0.553436,-0.421997,-26.2333,6.64167,-26.1083,-6986,-28905
762,38724,0,0,0,131.534,86.9348,54.3549,-9.8,0.406738,-0.325391,0.551483,0.459747,0.553436,-0.421997,-26.25,6.65833,-26.05,-6986,-28905
768,38730,0,0,0,131.534,86.9348,54.3549,-9.80479,0.387598,-0.330176,0.551483,0.459747,0.553436,-0.421997,-26.2583,6.65833,-26.0667,-6986,-28905
774,38736,0,0,0,131.534,86.9348,54.3549,-9.80957,0.397168,-0.344531,0.551483,0.459747,0.553436,-0.421997,-26.2833,6.66667,-26.0917,-6986,-28905
780,38742,0,0,0,131.534,86.9348,54.3549,-9.79521,0.397168,-0.349316,0.551483,0.459747,0.553436,-0.421997,-26.3,6.66667,-26.1417,-6986,-28905
786,38748,0,0,0,131.534,86.9348,54.3549,-9.78564,0.392383,-0.354102,0.551514,0.459747,0.553436,-0.421967,-26.3083,6.675,-26.1833,-6986,-28905
792,38754,0,0,0,131.534,86.9348,54.3549,-9.78564,0.358887,-0.334961,0.551514,0.459747,0.553436,-0.421967,-26.325,6.71667,-26.225,-6986,-28905
798,38760,0,0,0,131.534,86.9348,54.3549,-9.78564,0.358887,-0.344531,0.551514,0.459747,0.553436,-0.421967,-26.325,6.74167,-26.2167,-6986,-28905
804,38766,0,0,0,131.534,86.9348,54.3549,-9.78564,0.382813,-0.344531,0.551514,0.459747,0.553436,-0.421967,-26.3167,6.78333,-26.1833,-6986,-28905
810,38772,0,0,0,131.534,86.9348,54.3549,-9.79521,0.368457,-0.344531,0.551514,0.459747,0.553436,-0.421967,-26.325,6.81667,-26.175,-6986,-28905
816,38778,0,0,0,131.534,86.9348,54.3549,-9.79521,0.382813,-0.368457,0.551483,0.459747,0.553436,-0.421997,-26.3333,6.825,-26.2,-6986,-28905
822,38784,0,0,0,131.534,86.9348,54.3549,-9.78564,0.416309,-0.354102,0.551483,0.459747,0.553436,-0.421997,-26.3583,6.80833,-26.1917,-6986,-28905
828,38790,0,0,0,131.534,86.9348,54.3549,-9.79043,0.401953,-0.30625,0.551483,0.459747,0.553436,-0.421997,-26.3667,6.80833,-26.2,-6986,-28905
834,38796,0,0,0,131.534,86.9348,54.3549,-9.80957,0.397168,-0.320605,0.551483,0.459747,0.553436,-0.421997,-26.3667,6.80833,-26.2,-6986,-28905
840,38802,0,0,0,131.534,86.9348,54.3549,-9.79521,0.378027,-0.354102,0.551483,0.459747,0.553436,-0.421997,-26.3833,6.825,-26.1667,-6986,-28905
846,38808,0,0,0,131.534,86.9348,54.3549,-9.79043,0.378027,-0.358887,0.551483,0.459747,0.553436,-0.421997,-26.3833,6.85833,-26.15,-6986,-28905
852,38814,0,0,0,131.539,86.9348,54.3549,-9.8,0.392383,-0.363672,0.551483,0.459747,0.553436,-0.421997,-26.3833,6.90833,-26.1333,-6986,-28905
858,38820,0,0,0,131.539,86.9348,54.3549,-9.78086,0.368457,-0.330176,0.551483,0.459747,0.553436,-0.421997,-26.375,6.9,-26.125,-6986,-28905
864,38826,0,0,0,131.539,86.9348,54.3549,-9.79521,0.368457,-0.320605,0.551483,0.459747,0.553436,-0.421997,-26.375,6.88333,-26.15,-6986,-28905
870,38832,0,0,0,131.539,86.9348,54.3549,-9.77607,0.363672,-0.349316,0.551483,0.459778,0.553436,-0.421997,-26.3667,6.85,-26.1833,-6986,-28905
876,38838,0,0,0,131.539,86.9348,54.3549,-9.81436,0.363672,-0.382813,0.551483,0.459778,0.553406,-0.422028,-26.35,6.83333,-26.1833,-6986,-28905
882,38844,0,0,0,131.545,86.9348,54.3549,-9.79043,0.397168,-0.363672,0.551453,0.459778,0.553406,-0.422028,-26.325,6.81667,-26.0917,-6986,-28905
888,38850,0,0,0,131.545,86.9348,54.3549,-9.7665,0.401953,-0.358887,0.551453,0.459778,0.553406,-0.422028,-26.3167,6.825,-26.0167,-6986,-28905
894,38856,0,0,0,131.545,86.9348,54.3549,-9.8,0.382813,-0.354102,0.551453,0.459808,0.553406,-0.422028,-26.2917,6.825,-25.975,-6986,-28905
900,38862,0,0,0,131.545,86.9348,54.3549,-9.79521,0.406738,-0.330176,0.551453,0.459808,0.553406,-0.422058,-26.2667,6.81667,-25.9667,-6986,-28905
906,38868,0,0,0,131.55,86.9348,54.3549,-9.81436,0.401953,-0.31582,0.551422,0.459808,0.553375,-0.422058,-26.25,6.8,-26,-6986,-28905
912,38874,0,0,0,131.55,86.9348,54.3549,-9.81436,0.392383,-0.339746,0.551422,0.459808,0.553375,-0.422058,-26.2583,6.76667,-26.0167,-6986,-28905
918,38880,0,0,0,131.55,86.9348,54.3549,-9.8,0.392383,-0.363672,0.551422,0.459808,0.553375,-0.422058,-26.25,6.75833,-26.05,-6986,-28905
924,38886,0,0,0,131.55,86.9348,54.3549,-9.78564,0.387598,-0.339746,0.551422,0.459808,0.553375,-0.422058,-26.25,6.74167,-26.0417,-6986,-28905
930,38892,0,0,0,131.55,86.9348,54.3549,-9.78086,0.368457,-0.358887,0.551422,0.459808,0.553375,-0.422058,-26.2333,6.725,-26,-6986,-28905
936,38898,0,0,0,131.556,86.9348,54.3549,-9.81436,0.387598,-0.354102,0.551422,0.459839,0.553375,-0.422089,-26.225,6.71667,-25.9667,-6986,-28905
942,38904,0,0,0,131.556,86.9348,54.3549,-9.78086,0.406738,-0.373242,0.551422,0.459839,0.553375,-0.422089,-26.225,6.70833,-25.85,-6986,-28905
948,38910,0,0,0,131.556,86.9348,54.3549,-9.79521,0.387598,-0.354102,0.551422,0.459839,0.553375,-0.422089,-26.2333,6.70833,-25.8083,-6986,-28905
954,38916,0,0,0,131.556,86.9348,54.3549,-9.78564,0.411523,-0.330176,0.551392,0.459839,0.553345,-0.422089,-26.2583,6.70833,-25.7917,-6986,-28905
960,38922,0,0,0,131.556,86.9348,54.3549,-9.78086,0.387598,-0.378027,0.551392,0.459839,0.553345,-0.422089,-26.3167,6.70833,-25.8083,-6986,-28905
966,38928,0,0,0,131.561,86.9348,54.3549,-9.79043,0.397168,-0.344531,0.551392,0.459869,0.553345,-0.422119,-26.4083,6.74167,-25.8667,-6986,-28905
972,38934,0,0,0,131.561,86.9348,54.3549,-9.81914,0.392383,-0.344531,0.551392,0.459869,0.553345,-0.422119,-26.4,6.75833,-25.9083,-6986,-28905
978,38940,0,0,0,131.561,86.9348,54.3549,-9.79521,0.392383,-0.330176,0.551392,0.459869,0.553345,-0.422119,-26.3833,6.75833,-25.925,-6986,-28905
984,38946,0,0,0,131.561,86.9348,54.3549,-9.79521,0.401953,-0.354102,0.551392,0.459869,0.553345,-0.422119,-26.375,6.75833,-25.9417,-6986,-28905
990,38952,0,0,0,131.561,86.9348,54.3549,-9.79043,0.401953,-0.354102,0.551392,0.459869,0.553345,-0.422119,-26.3417,6.75833,-25.9833,-6986,-28905
996,38958,0,0,0,131.567,86.9348,54.3549,-9.80479,0.401953,-0.330176,0.551361,0.4599,0.553314,-0.422119,-26.3083,6.74167,-25.975,-6986,-28905
1002,38964,0,0,0,131.561,86.9348,54.3549,-9.76172,0.401953,-0.334961,0.551361,0.4599,0.553314,-0.422119,-26.2833,6.74167,-25.95,-6986,-28905
1008,38970,0,0,0,131.561,86.9348,54.3549,-9.78086,0.373242,-0.330176,0.551361,0.4599,0.553314,-0.422119,-26.2833,6.75,-25.8667,-6986,-28905
1014,38976,0,0,0,131.561,86.9348,54.3549,-9.80957,0.378027,-0.339746,0.551361,0.4599,0.553314,-0.422119,-26.275,6.775,-25.8167,-6986,-28905
1020,38982,0,0,0,131.561,86.9348,54.3549,-9.78086,0.392383,-0.334961,0.551361,0.4599,0.553314,-0.422119,-26.275,6.775,-25.775,-6986,-28905
1026,38988,0,0,0,131.561,86.9348,54.3549,-9.80479,0.368457,-0.344531,0.551361,0.4599,0.553314,-0.422119,-26.2917,6.78333,-25.7333,-6986,-28905
1032,38994,0,0,0,131.561,86.9348,54.3549,-9.78564,0.392383,-0.354102,0.551361,0.4599,0.553314,-0.422119,-26.3083,6.78333,-25.7667,-6986,-28905
1038,39000,0,0,0,131.561,86.9348,54.3549,-9.78086,0.382813,-0.373242,0.551361,0.4599,0.553314,-0.422119,-26.3167,6.79167,-25.7833,-6986,-28905
1044,39006,0,0,0,131.567,86.9348,54.3549,-9.8,0.373242,-0.358887,0.551361,0.4599,0.553314,-0.422119,-26.325,6.80833,-25.8083,-6986,-28905
1050,39012,0,0,0,131.567,86.9348,54.3549,-9.80479,0.363672,-0.330176,0.551361,0.4599,0.553314,-0.42215,-26.3333,6.825,-25.825,-6986,-28905
1056,39018,0,0,0,131.567,86.9348,54.3549,-9.78564,0.382813,-0.339746,0.551361,0.4599,0.553314,-0.42215,-26.3333,6.80833,-25.7583,-6986,-28905
1062,39024,0,0,0,131.567,86.9348,54.3549,-9.80957,0.397168,-0.363672,0.551361,0.4599,0.553314,-0.42215,-26.3083,6.79167,-25.7333,-6986,-28905
1068,39030,0,0,0,131.567,86.9348,54.3549,-9.80479,0.373242,-0.349316,0.551361,0.4599,0.553314,-0.42215,-26.275,6.75833,-25.7083,-6986,-28905
1074,39036,0,0,0,131.567,86.9348,54.3549,-9.78086,0.406738,-0.349316,0.551361,0.4599,0.553314,-0.42215,-26.25,6.73333,-25.7417,-6986,-28905
1080,39042,0,0,0,131.572,86.9348,54.3549,-9.8,0.382813,-0.382813,0.551361,0.45993,0.553314,-0.42215,-26.2167,6.70833,-25.7833,-6986,-28905
1086,39048,0,0,0,131.572,86.9348,54.3549,-9.79521,0.416309,-0.358887,0.551361,0.45993,0.553314,-0.42218,-26.2,6.66667,-25.875,-6986,-28905
1092,39054,0,0,0,131.572,86.9348,54.3549,-9.80479,0.401953,-0.387598,0.551331,0.45993,0.553314,-0.42218,-26.1917,6.65,-25.8917,-6986,-28905
1098,39060,0,0,0,131.572,86.9348,54.3549,-9.78564,0.382813,-0.363672,0.551331,0.45993,0.553284,-0.42218,-26.1833,6.63333,-25.875,-6986,-28905
1104,39066,0,0,0,131.572,86.9348,54.3549,-9.78564,0.392383,-0.334961,0.551331,0.45993,0.553284,-0.42218,-26.175,6.625,-25.85,-6986,-28905
1110,39072,0,0,0,131.578,86.9348,54.3549,-9.80479,0.354102,-0.349316,0.551331,0.459961,0.553284,-0.42218,-26.1583,6.625,-25.8167,-6986,-28905
1116,39078,0,0,0,131.578,86.9348,54.3549,-9.8,0.416309,-0.339746,0.551331,0.459961,0.553284,-0.422211,-26.1917,6.63333,-25.7583,-6986,-28905
1122,39084,0,0,0,131.583,86.9348,54.3549,-9.81436,0.387598,-0.368457,0.5513,0.459961,0.553284,-0.422211,-26.2083,6.65833,-25.7583,-6986,-28905
1128,39090,0,0,0,131.583,86.9348,54.3549,-9.79521,0.382813,-0.311035,0.5513,0.459961,0.553253,-0.422211,-26.2333,6.7,-25.7667,-6986,-28905
1134,39096,0,0,0,131.583,86.9348,54.3549,-9.78086,0.401953,-0.334961,0.5513,0.459961,0.553253,-0.422211,-26.25,6.75833,-25.85,-6986,-28905
1140,39102,0,0,0,131.583,86.9348,54.3549,-9.8,0.397168,-0.330176,0.5513,0.459991,0.553253,-0.422241,-26.2667,6.80833,-25.9417,-6986,-28905
1146,39108,0,0,0,131.583,86.9348,54.3549,-9.81436,0.401953,-0.363672,0.5513,0.459991,0.553253,-0.422241,-26.275,6.85833,-26.1083,-6986,-28905
1152,39114,0,0,0,131.583,86.9348,54.3549,-9.80479,0.392383,-0.339746,0.5513,0.459991,0.553253,-0.422241,-26.275,6.86667,-26.1167,-6986,-28905
1158,39120,0,0,0,131.583,86.9348,54.3549,-9.78086,0.397168,-0.330176,0.5513,0.459991,0.553253,-0.422241,-26.2583,6.875,-26.0833,-6986,-28905
1164,39126,0,0,0,131.583,86.9348,54.3549,-9.78564,0.387598,-0.330176,0.5513,0.459991,0.553253,-0.422241,-26.2333,6.88333,-26.0083,-6986,-28905
1170,39132,0,0,0,131.583,86.9348,54.3549,-9.79521,0.368457,-0.344531,0.5513,0.459991,0.553253,-0.422241,-26.225,6.89167,-25.9333,-6986,-28905
1176,39138,0,0,0,131.583,86.9348,54.3549,-9.81436,0.382813,-0.325391,0.5513,0.459991,0.553253,-0.422241,-26.2333,6.89167,-25.8667,-6986,-28905
1182,39144,0,0,0,131.583,86.9348,54.3549,-9.8,0.368457,-0.334961,0.5513,0.459991,0.553253,-0.422241,-26.2417,6.9,-25.825,-6986,-28905
1188,39150,0,0,0,131.583,86.9348,54.3549,-9.8,0.382813,-0.349316,0.5513,0.459991,0.553253,-0.422241,-26.2333,6.90833,-25.8167,-6986,-28905
1194,39156,0,0,0,131.583,86.9348,54.3549,-9.77129,0.406738,-0.339746,0.5513,0.459991,0.553253,-0.422241,-26.225,6.9,-25.8417,-6986,-28905
1200,39162,0,0,0,131.583,86.9348,54.3549,-9.78086,0.382813,-0.354102,0.5513,0.459991,0.553253,-0.422241,-26.2083,6.88333,-25.8583,-6986,-28905
1206,39168,0,0,0,131.583,86.9348,54.3549,-9.79043,0.382813,-0.354102,0.5513,0.459991,0.553253,-0.422241,-26.2333,6.84167,-25.8833,-6986,-28905
1212,39174,0,0,0,131.583,86.9348,54.3549,-9.8,0.387598,-0.344531,0.5513,0.459991,0.553253,-0.422241,-26.2583,6.83333,-25.8833,-6986,-28905
1218,39180,0,0,0,131.583,86.9348,54.3549,-9.78086,0.421094,-0.358887,0.5513,0.459991,0.553253,-0.422241,-26.2917,6.83333,-25.875,-6986,-28905
1224,39186,0,0,0,131.583,86.9348,54.3549,-9.78086,0.382813,-0.354102,0.5513,0.459991,0.553253,-0.422241,-26.3167,6.825,-25.875,-6986,-28905
1230,39192,0,0,0,131.583,86.9348,54.3549,-9.79043,0.401953,-0.330176,0.5513,0.459991,0.553253,-0.422241,-26.325,6.83333,-25.8667,-6986,-28905
1236,39198,0,0,0,131.583,86.9348,54.3549,-9.79043,0.387598,-0.349316,0.5513,0.459991,0.553253,-0.422241,-26.3333,6.825,-25.75,-6986,-28905
1242,39204,0,0,0,131.583,86.9348,54.3549,-9.80479,0.387598,-0.330176,0.5513,0.459991,0.553253,-0.422241,-26.325,6.825,-25.75,-6986,-28905
1248,39210,0,0,0,131.583,86.9348,54.3549,-9.8,0.397168,-0.344531,0.5513,0.459991,0.553253,-0.422241,-26.325,6.84167,-25.7583,-6986,-28905
1254,39216,0,0,0,131.583,86.9348,54.3549,-9.8,0.401953,-0.349316,0.5513,0.459991,0.553253,-0.422241,-26.3333,6.84167,-25.8083,-6986,-28905
1260,39222,0,0,0,131.583,86.9348,54.3549,-9.79043,0.397168,-0.387598,0.5513,0.459991,0.553253,-0.422211,-26.3583,6.875,-25.8583,-6986,-28905
1266,39228,0,0,0,131.583,86.9348,54.3549,-9.7665,0.401953,-0.339746,0.5513,0.459991,0.553253,-0.422211,-26.3417,6.89167,-25.85,-6986,-28905
1272,39234,0,0,0,131.583,86.9348,54.3549,-9.78086,0.387598,-0.334961,0.5513,0.459991,0.553253,-0.422211,-26.35,6.89167,-25.8,-6986,-28905
1278,39240,0,0,0,131.583,86.9348,54.3549,-9.80479,0.392383,-0.373242,0.5513,0.459991,0.553253,-0.422211,-26.3333,6.86667,-25.7417,-6986,-28905
1284,39246,0,0,0,131.578,86.9348,54.3549,-9.79521,0.387598,-0.363672,0.5513,0.459961,0.553253,-0.422211,-26.325,6.85,-25.6833,-6986,-28905
1290,39252,0,0,0,131.578,86.9348,54.3549,-9.79043,0.406738,-0.344531,0.5513,0.459961,0.553253,-0.422211,-26.3167,6.83333,-25.6833,-6986,-28905
1296,39258,0,0,0,131.578,86.9348,54.3549,-9.78564,0.387598,-0.339746,0.5513,0.459961,0.553253,-0.422211,-26.325,6.79167,-25.7667,-6986,-28905
1302,39264,0,0,0,131.578,86.9348,54.3549,-9.81436,0.382813,-0.373242,0.5513,0.459961,0.553284,-0.422211,-26.325,6.775,-25.8333,-6986,-28905
1308,39270,0,0,0,131.578,86.9348,54.3549,-9.80957,0.401953,-0.31582,0.5513,0.459961,0.553284,-0.422211,-26.325,6.75,-25.9,-6986,-28905
1314,39276,0,0,0,131.578,86.9348,54.3549,-9.77607,0.421094,-0.344531,0.5513,0.459961,0.553284,-0.422211,-26.325,6.73333,-25.95,-6986,-28905
1320,39282,0,0,0,131.578,86.9348,54.3549,-9.7665,0.397168,-0.344531,0.551331,0.459961,0.553284,-0.42218,-26.3333,6.71667,-26,-6986,-28905
1326,39288,0,0,0,131.572,86.9348,54.3549,-9.80479,0.397168,-0.334961,0.551331,0.459961,0.553284,-0.42218,-26.3333,6.66667,-26.0917,-6986,-28905
1332,39294,0,0,0,131.572,86.9348,54.3549,-9.80957,0.382813,-0.349316,0.551331,0.459961,0.553284,-0.42218,-26.3417,6.64167,-26.1167,-6986,-28905
1338,39300,0,0,0,131.572,86.9348,54.3549,-9.79043,0.382813,-0.339746,0.551331,0.459961,0.553284,-0.42218,-26.3333,6.64167,-26.15,-6986,-28905
1344,39306,0,0,0,131.572,86.9293,54.3549,-9.80479,0.416309,-0.382813,0.551331,0.45993,0.553284,-0.42218,-26.3167,6.625,-26.15,-6986,-28905
1350,39312,0,0,0,131.572,86.9293,54.3549,-9.79521,0.397168,-0.339746,0.551331,0.45993,0.553284,-0.42215,-26.3,6.625,-26.1667,-6986,-28905
1356,39318,0,0,0,131.572,86.9293,54.3549,-9.8,0.382813,-0.330176,0.551331,0.45993,0.553314,-0.42215,-26.2583,6.65833,-26.225,-6986,-28905
1362,39324,0,0,0,131.567,86.9293,54.3549,-9.80479,0.397168,-0.354102,0.551361,0.45993,0.553314,-0.42215,-26.25,6.68333,-26.25,-6986,-28905
1368,39330,0,0,0,131.567,86.9293,54.3549,-9.78564,0.401953,-0.349316,0.551361,0.45993,0.553314,-0.42215,-26.25,6.70833,-26.2583,-6986,-28905
1374,39336,0,0,0,131.567,86.9293,54.3549,-9.79043,0.397168,-0.354102,0.551361,0.45993,0.553314,-0.42215,-26.25,6.70833,-26.2667,-6986,-28905
1380,39342,0,0,0,131.567,86.9293,54.3549,-9.80479,0.382813,-0.339746,0.551361,0.45993,0.553314,-0.42215,-26.2583,6.7,-26.2667,-6986,-28905
1386,39348,0,0,0,131.567,86.9293,54.3549,-9.81914,0.421094,-0.339746,0.551361,0.4599,0.553314,-0.422119,-26.275,6.675,-26.2583,-6986,-28905
1392,39354,0,0,0,131.561,86.9293,54.3549,-9.79521,0.401953,-0.320605,0.551361,0.4599,0.553314,-0.422119,-26.2667,6.66667,-26.2417,-6986,-28905
1398,39360,0,0,0,131.561,86.9293,54.3549,-9.81436,0.387598,-0.354102,0.551361,0.4599,0.553314,-0.422119,-26.2667,6.68333,-26.2083,-6986,-28905
1404,39366,0,0,0,131.561,86.9293,54.3549,-9.78564,0.368457,-0.330176,0.551392,0.4599,0.553345,-0.422119,-26.25,6.70833,-26.2,-6986,-28905
1410,39372,0,0,0,131.561,86.9293,54.3549,-9.78086,0.387598,-0.358887,0.551392,0.4599,0.553345,-0.422089,-26.225,6.73333,-26.175,-6986,-28905
1416,39378,0,0,0,131.556,86.9293,54.3549,-9.80479,0.378027,-0.349316,0.551392,0.459869,0.553345,-0.422089,-26.1917,6.725,-26.0583,-6986,-28905
1422,39384,0,0,0,131.556,86.9293,54.3549,-9.80479,0.368457,-0.325391,0.551392,0.459869,0.553345,-0.422089,-26.1667,6.70833,-26.0583,-6986,-28905
1428,39390,0,0,0,131.556,86.9293,54.3549,-9.78564,0.378027,-0.31582,0.551392,0.459869,0.553345,-0.422089,-26.1417,6.69167,-26.0417,-6986,-28905
1434,39396,0,0,0,131.556,86.9293,54.3549,-9.79521,0.392383,-0.339746,0.551392,0.459869,0.553345,-0.422089,-26.1417,6.7,-26.025,-6986,-28905
1440,39402,0,0,0,131.556,86.9293,54.3549,-9.79521,0.378027,-0.325391,0.551422,0.459869,0.553345,-0.422089,-26.1333,6.71667,-26.0333,-6986,-28905
1446,39408,0,0,0,131.55,86.9293,54.3549,-9.80957,0.392383,-0.334961,0.551422,0.459869,0.553375,-0.422058,-26.1583,6.79167,-25.9917,-6986,-28905
1452,39414,0,0,0,131.55,86.9293,54.3549,-9.8,0.378027,-0.349316,0.551422,0.459839,0.553375,-0.422058,-26.175,6.83333,-26.025,-6986,-28905
1458,39420,0,0,0,131.55,86.9293,54.3549,-9.77607,0.397168,-0.354102,0.551422,0.459839,0.553375,-0.422058,-26.2,6.86667,-26.0667,-6986,-28905
1464,39426,0,0,0,131.55,86.9293,54.3549,-9.79521,0.363672,-0.349316,0.551422,0.459839,0.553375,-0.422058,-26.2333,6.86667,-26.0917,-6986,-28905
1470,39432,0,0,0,131.55,86.9293,54.3549,-9.79043,0.397168,-0.349316,0.551422,0.459839,0.553375,-0.422058,-26.25,6.86667,-26.1083,-6986,-28905
1476,39438,0,0,0,131.55,86.9293,54.3549,-9.82871,0.387598,-0.373242,0.551422,0.459839,0.553375,-0.422058,-26.2667,6.80833,-26.0833,-6986,-28905
1482,39444,0,0,0,131.55,86.9293,54.3549,-9.79521,0.392383,-0.334961,0.551422,0.459839,0.553375,-0.422058,-26.3,6.8,-26.1,-6986,-28905
1488,39450,0,0,0,131.55,86.9293,54.3549,-9.77607,0.397168,-0.344531,0.551422,0.459839,0.553375,-0.422058,-26.3333,6.8,-26.0917,-6986,-28905
1494,39456,0,0,0,131.55,86.9293,54.3549,-9.78086,0.411523,-0.363672,0.551422,0.459839,0.553375,-0.422058,-26.3667,6.79167,-26.0833,-6986,-28905
1500,39462,0,0,0,131.55,86.9293,54.3549,-9.80479,0.401953,-0.344531,0.551422,0.459839,0.553375,-0.422058,-26.3917,6.8,-26.05,-6986,-28905
1506,39468,0,0,0,131.55,86.9293,54.3549,-9.79043,0.387598,-0.373242,0.551422,0.459839,0.553375,-0.422058,-26.3833,6.79167,-25.9417,-6986,-28905
1512,39474,0,0,0,131.55,86.9293,54.3549,-9.79043,0.387598,-0.334961,0.551422,0.459839,0.553375,-0.422058,-26.3917,6.81667,-25.9167,-6986,-28905
1518,39480,0,0,0,131.55,86.9293,54.3549,-9.79521,0.401953,-0.349316,0.551422,0.459839,0.553375,-0.422058,-26.3833,6.825,-25.8667,-6986,-28905
1524,39486,0,0,0,131.55,86.9293,54.3549,-9.8,0.401953,-0.354102,0.551422,0.459839,0.553375,-0.422058,-26.375,6.84167,-25.8,-6986,-28905
1530,39492,0,0,0,131.55,86.9293,54.3549,-9.80957,0.387598,-0.368457,0.551422,0.459839,0.553375,-0.422058,-26.35,6.84167,-25.7667,-6986,-28905
1536,39498,0,0,0,131.55,86.9293,54.3549,-9.8,0.368457,-0.358887,0.551422,0.459839,0.553375,-0.422058,-26.325,6.83333,-25.7583,-6986,-28905
1542,39504,0,0,0,131.55,86.9293,54.3549,-9.79043,0.387598,-0.330176,0.551422,0.459839,0.553375,-0.422058,-26.3167,6.80833,-25.775,-6986,-28905
1548,39510,0,0,0,131.556,86.9293,54.3549,-9.80479,0.387598,-0.344531,0.551422,0.459839,0.553375,-0.422058,-26.3083,6.8,-25.775,-6986,-28905
1554,39516,0,0,0,131.556,86.9293,54.3549,-9.78086,0.378027,-0.354102,0.551422,0.459839,0.553375,-0.422058,-26.3083,6.80833,-25.7417,-6986,-28905
1560,39522,0,0,0,131.556,86.9293,54.3549,-9.77607,0.406738,-0.344531,0.551422,0.459869,0.553375,-0.422089,-26.2917,6.8,-25.7333,-6986,-28905
1566,39528,0,0,0,131.556,86.9293,54.3549,-9.82393,0.363672,-0.363672,0.551392,0.459869,0.553345,-0.422089,-26.25,6.79167,-25.8167,-6986,-28905
1572,39534,0,0,0,131.556,86.9293,54.3549,-9.78564,0.392383,-0.368457,0.551392,0.459869,0.553345,-0.422089,-26.2417,6.78333,-25.8667,-6986,-28905
1578,39540,0,0,0,131.556,86.9293,54.3549,-9.78564,0.368457,-0.334961,0.551392,0.459869,0.553345,-0.422089,-26.2333,6.80833,-25.9167,-6986,-28905
1584,39546,0,0,0,131.561,86.9293,54.3549,-9.79521,0.387598,-0.363672,0.551392,0.459869,0.553345,-0.422089,-26.2333,6.83333,-25.9417,-6986,-28905
1590,39552,0,0,0,131.561,86.9293,54.3549,-9.78564,0.416309,-0.330176,0.551392,0.4599,0.553345,-0.422119,-26.25,6.85,-25.95,-6986,-28905
1596,39558,0,0,0,131.561,86.9293,54.3549,-9.8,0.401953,-0.330176,0.551392,0.4599,0.553345,-0.422119,-26.2333,6.85833,-26.0083,-6986,-28905
1602,39564,0,0,0,131.561,86.9293,54.3549,-9.79043,0.373242,-0.368457,0.551392,0.4599,0.553345,-0.422119,-26.225,6.84167,-26,-6986,-28905
1608,39570,0,0,0,131.561,86.9293,54.3549,-9.77129,0.392383,-0.344531,0.551392,0.4599,0.553345,-0.422119,-26.2083,6.81667,-26,-6986,-28905
1614,39576,0,0,0,131.561,86.9293,54.3549,-9.8,0.392383,-0.330176,0.551392,0.4599,0.553345,-0.422119,-26.1917,6.80833,-25.9667,-6986,-28905
1620,39582,0,0,0,131.561,86.9293,54.3549,-9.7665,0.378027,-0.339746,0.551392,0.4599,0.553345,-0.422119,-26.1833,6.8,-25.8583,-6986,-28905
1626,39588,0,0,0,131.561,86.9293,54.3549,-9.8,0.397168,-0.334961,0.551361,0.4599,0.553345,-0.422119,-26.1917,6.80833,-25.825,-6986,-28905
1632,39594,0,0,0,131.561,86.9293,54.3549,-9.77129,0.368457,-0.334961,0.551361,0.4599,0.553345,-0.422119,-26.1833,6.81667,-25.775,-6986,-28905
1638,39600,0,0,0,131.561,86.9293,54.3549,-9.79043,0.382813,-0.339746,0.551361,0.4599,0.553314,-0.422119,-26.1833,6.81667,-25.7583,-6986,-28905
1644,39606,0,0,0,131.561,86.9293,54.3549,-9.79521,0.378027,-0.368457,0.551361,0.4599,0.553314,-0.422119,-26.1917,6.825,-25.6833,-6986,-28905
1650,39612,0,0,0,131.567,86.9293,54.3549,-9.8,0.368457,-0.344531,0.551361,0.4599,0.553314,-0.422119,-26.1833,6.83333,-25.6417,-6986,-28905
1656,39618,0,0,0,131.567,86.9293,54.3549,-9.79043,0.378027,-0.392383,0.551361,0.4599,0.553314,-0.422119,-26.1833,6.81667,-25.6417,-6986,-28905
1662,39624,0,0,0,131.567,86.9293,54.3549,-9.79043,0.387598,-0.358887,0.551361,0.4599,0.553314,-0.422119,-26.1917,6.81667,-25.675,-6986,-28905
1668,39630,0,0,0,131.567,86.9293,54.3549,-9.81436,0.411523,-0.344531,0.551361,0.45993,0.553314,-0.422119,-26.2167,6.825,-25.7417,-6986,-28905
1674,39636,0,0,0,131.567,86.9293,54.3549,-9.79521,0.397168,-0.339746,0.551361,0.45993,0.553314,-0.42215,-26.25,6.85,-25.75,-6986,-28905
1680,39642,0,0,0,131.572,86.9293,54.3549,-9.82393,0.392383,-0.354102,0.551361,0.45993,0.553314,-0.42215,-26.3083,6.85833,-25.7333,-6986,-28905
1686,39648,0,0,0,131.572,86.9293,54.3549,-9.80479,0.387598,-0.311035,0.551361,0.45993,0.553314,-0.42215,-26.325,6.85833,-25.7083,-6986,-28905
1692,39654,0,0,0,131.572,86.9293,54.3549,-9.81436,0.382813,-0.354102,0.551361,0.45993,0.553314,-0.42215,-26.325,6.85,-25.6833,-6986,-28905
1698,39660,0,0,0,131.572,86.9293,54.3549,-9.81436,0.382813,-0.330176,0.551361,0.45993,0.553314,-0.42215,-26.3417,6.83333,-25.6667,-6986,-28905
1704,39666,0,0,0,131.572,86.9293,54.3549,-9.78086,0.397168,-0.358887,0.551331,0.45993,0.553314,-0.42215,-26.3667,6.84167,-25.6917,-6986,-28905
1710,39672,0,0,0,131.572,86.9293,54.3549,-9.79043,0.387598,-0.339746,0.551331,0.45993,0.553284,-0.42215,-26.375,6.85833,-25.8083,-6986,-28905
1716,39678,0,0,0,131.572,86.9293,54.3549,-9.7665,0.397168,-0.339746,0.551331,0.45993,0.553284,-0.42215,-26.3667,6.85833,-25.8583,-6986,-28905
1722,39684,0,0,0,131.572,86.9293,54.3549,-9.79521,0.401953,-0.358887,0.551331,0.45993,0.553284,-0.42215,-26.35,6.85,-25.8833,-6986,-28905
1728,39690,0,0,0,131.572,86.9293,54.3549,-9.82393,0.382813,-0.344531,0.551331,0.459961,0.553284,-0.42215,-26.3417,6.83333,-25.8833,-6986,-28905
1734,39696,0,0,0,131.572,86.9293,54.3549,-9.80479,0.406738,-0.358887,0.551331,0.459961,0.553284,-0.42218,-26.35,6.81667,-25.8917,-6986,-28905
1740,39702,0,0,0,131.572,86.9293,54.3549,-9.7665,0.382813,-0.339746,0.551331,0.459961,0.553284,-0.42218,-26.35,6.78333,-25.9167,-6986,-28905
1746,39708,0,0,0,131.572,86.9293,54.3549,-9.78564,0.378027,-0.358887,0.551331,0.459961,0.553284,-0.42218,-26.35,6.75833,-25.9417,-6986,-28905
1752,39714,0,0,0,131.578,86.9293,54.3549,-9.80479,0.373242,-0.325391,0.551331,0.459961,0.553284,-0.42218,-26.3667,6.75833,-25.9417,-6986,-28905
1758,39720,0,0,0,131.578,86.9293,54.3549,-9.79521,0.378027,-0.344531,0.551331,0.459961,0.553284,-0.42218,-26.3917,6.75833,-25.9083,-6986,-28905
1764,39726,0,0,0,131.578,86.9293,54.3549,-9.78564,0.392383,-0.354102,0.551331,0.459961,0.553284,-0.42218,-26.4,6.74167,-25.8667,-6986,-28905
1770,39732,0,0,0,131.578,86.9293,54.3549,-9.79043,0.382813,-0.339746,0.551331,0.459961,0.553284,-0.42218,-26.4083,6.7,-25.7917,-6986,-28905
1776,39738,0,0,0,131.578,86.9293,54.3549,-9.8,0.397168,-0.330176,0.5513,0.459961,0.553284,-0.42218,-26.375,6.66667,-25.7833,-6986,-28905
1782,39744,0,0,0,131.578,86.9293,54.3549,-9.78564,0.382813,-0.354102,0.5513,0.459991,0.553284,-0.42218,-26.35,6.65833,-25.8,-6986,-28905
1788,39750,0,0,0,131.583,86.9293,54.3549,-9.8,0.373242,-0.349316,0.5513,0.459991,0.553253,-0.422211,-26.3583,6.675,-25.8333,-6986,-28905
1794,39756,0,0,0,131.583,86.9293,54.3549,-9.80479,0.387598,-0.363672,0.5513,0.459991,0.553253,-0.422211,-26.35,6.7,-25.825,-6986,-28905
1800,39762,0,0,0,131.583,86.9293,54.3549,-9.78564,0.397168,-0.339746,0.5513,0.459991,0.553253,-0.422211,-26.3667,6.75,-25.8417,-6986,-28905
1806,39768,0,0,0,131.583,86.9293,54.3549,-9.80957,0.378027,-0.344531,0.5513,0.459991,0.553253,-0.422211,-26.3583,6.75833,-25.8083,-6986,-28905
1812,39774,0,0,0,131.589,86.9293,54.3549,-9.79043,0.387598,-0.358887,0.5513,0.459991,0.553253,-0.422211,-26.3417,6.76667,-25.8083,-6986,-28905
1818,39780,0,0,0,131.589,86.9293,54.3549,-9.80479,0.382813,-0.31582,0.55127,0.460022,0.553253,-0.422241,-26.325,6.78333,-25.8167,-6986,-28905
1824,39786,0,0,0,131.589,86.9293,54.3549,-9.8,0.397168,-0.31582,0.55127,0.460022,0.553253,-0.422241,-26.3083,6.79167,-25.825,-6986,-28905
1830,39792,0,0,0,131.589,86.9293,54.3549,-9.80479,0.378027,-0.325391,0.55127,0.460022,0.553253,-0.422241,-26.275,6.78333,-25.875,-6986,-28905
1836,39798,0,0,0,131.589,86.9293,54.3549,-9.79043,0.397168,-0.363672,0.55127,0.460022,0.553253,-0.422241,-26.275,6.775,-25.8833,-6986,-28905
1842,39804,0,0,0,131.589,86.9293,54.3549,-9.77129,0.387598,-0.339746,0.55127,0.460022,0.553253,-0.422241,-26.2667,6.775,-25.8917,-6986,-28905
1848,39810,0,0,0,131.589,86.9293,54.3549,-9.80479,0.397168,-0.334961,0.55127,0.460022,0.553223,-0.422241,-26.2667,6.76667,-25.925,-6986,-28905
1854,39816,0,0,0,131.589,86.9293,54.3549,-9.77607,0.406738,-0.373242,0.55127,0.460022,0.553223,-0.422241,-26.2667,6.75,-25.95,-6986,-28905
1860,39822,0,0,0,131.589,86.9293,54.3549,-9.79521,0.392383,-0.339746,0.55127,0.460022,0.553223,-0.422241,-26.2917,6.71667,-26.025,-6986,-28905
1866,39828,0,0,0,131.589,86.9293,54.3549,-9.80479,0.392383,-0.363672,0.55127,0.460022,0.553223,-0.422241,-26.2917,6.70833,-26.05,-6986,-28905
1872,39834,0,0,0,131.589,86.9293,54.3549,-9.81436,0.382813,-0.334961,0.55127,0.460022,0.553223,-0.422241,-26.3,6.71667,-26.0417,-6986,-28905
1878,39840,0,0,0,131.589,86.9293,54.3549,-9.79521,0.416309,-0.330176,0.55127,0.460022,0.553223,-0.422241,-26.3083,6.71667,-26.0167,-6986,-28905
1884,39846,0,0,0,131.589,86.9293,54.3549,-9.78564,0.382813,-0.334961,0.55127,0.460022,0.553223,-0.422241,-26.325,6.71667,-25.9917,-6986,-28905
1890,39852,0,0,0,131.589,86.9293,54.3549,-9.81436,0.382813,-0.354102,0.55127,0.460022,0.553223,-0.422241,-26.3833,6.7,-25.875,-6986,-28905
1896,39858,0,0,0,131.589,86.9293,54.3549,-9.78564,0.397168,-0.349316,0.55127,0.460022,0.553223,-0.422241,-26.3833,6.68333,-25.85,-6986,-28905
1902,39864,0,0,0,131.589,86.9293,54.3549,-9.80957,0.401953,-0.330176,0.55127,0.460022,0.553223,-0.422241,-26.3667,6.675,-25.8417,-6986,-28905
1908,39870,0,0,0,131.589,86.9293,54.3549,-9.80479,0.406738,-0.334961,0.55127,0.460022,0.553223,-0.422241,-26.3417,6.65,-25.8667,-6986,-28905
1914,39876,0,0,0,131.589,86.9348,54.3549,-9.80957,0.425879,-0.31582,0.55127,0.460022,0.553223,-0.422241,-26.3167,6.63333,-25.9333,-6986,-28905
1920,39882,0,0,0,131.583,86.9293,54.3549,-9.80479,0.373242,-0.354102,0.55127,0.460022,0.553253,-0.422241,-26.2917,6.61667,-26.05,-6986,-28905
1926,39888,0,0,0,131.583,86.9348,54.3549,-9.8,0.378027,-0.368457,0.55127,0.459991,0.553253,-0.422241,-26.3,6.64167,-26.1,-6986,-28905
1932,39894,0,0,0,131.583,86.9348,54.3549,-9.80479,0.392383,-0.363672,0.55127,0.459991,0.553253,-0.422241,-26.3167,6.68333,-26.1167,-6986,-28905
1938,39900,0,0,0,131.583,86.9348,54.3549,-9.81914,0.387598,-0.339746,0.5513,0.459991,0.553253,-0.422241,-26.3333,6.725,-26.125,-6986,-28905
1944,39906,0,0,0,131.583,86.9348,54.3549,-9.77607,0.378027,-0.363672,0.5513,0.459991,0.553253,-0.422241,-26.325,6.775,-26.1,-6986,-28905
1950,39912,0,0,0,131.583,86.9348,54.3549,-9.77607,0.392383,-0.339746,0.5513,0.459991,0.553253,-0.422241,-26.3083,6.84167,-26.1167,-6986,-28905
1956,39918,0,0,0,131.583,86.9348,54.3549,-9.78564,0.392383,-0.363672,0.5513,0.459991,0.553253,-0.422241,-26.3,6.85,-26.1417,-6986,-28905
1962,39924,0,0,0,131.583,86.9348,54.3549,-9.79043,0.382813,-0.325391,0.5513,0.459991,0.553253,-0.422241,-26.2917,6.86667,-26.1583,-6986,-28905
1968,39930,0,0,0,131.583,86.9348,54.3549,-9.81436,0.392383,-0.354102,0.5513,0.459991,0.553253,-0.422241,-26.3,6.85833,-26.15,-6986,-28905
1974,39936,0,0,0,131.583,86.9348,54.3549,-9.78086,0.406738,-0.334961,0.5513,0.459991,0.553253,-0.422241,-26.3083,6.85833,-26.1667,-6986,-28905
1980,39942,0,0,0,131.583,86.9348,54.3549,-9.79043,0.406738,-0.334961,0.5513,0.459991,0.553253,-0.422211,-26.3,6.85,-26.2083,-6986,-28905
1986,39948,0,0,0,131.583,86.9293,54.3549,-9.78086,0.411523,-0.373242,0.5513,0.459991,0.553253,-0.422211,-26.2917,6.83333,-26.15,-6986,-28905
1992,39954,0,0,0,131.583,86.9293,54.3549,-9.7665,0.397168,-0.363672,0.5513,0.459991,0.553253,-0.422211,-26.25,6.80833,-26.0667,-6986,-28905
1998,39960,0,0,0,131.583,86.9293,54.3549,-9.80479,0.387598,-0.363672,0.5513,0.459991,0.553253,-0.422211,-26.2417,6.78333,-25.9417,-6986,-28905
2004,39966,0,0,0,131.583,86.9293,54.3549,-9.79043,0.387598,-0.344531,0.5513,0.459991,0.553253,-0.422211,-26.25,6.775,-25.85,-6986,-28905
2010,39972,0,0,0,131.583,86.9293,54.3549,-9.77129,0.401953,-0.354102,0.5513,0.459991,0.553253,-0.422211,-26.2667,6.75833,-25.7917,-6986,-28905
2016,39978,0,0,0,131.583,86.9293,54.3549,-9.79521,0.382813,-0.334961,0.5513,0.459991,0.553253,-0.422211,-26.2667,6.775,-25.7917,-6986,-28905
2022,39984,0,0,0,131.583,86.9293,54.3549,-9.79521,0.392383,-0.373242,0.5513,0.459991,0.553253,-0.422211,-26.2667,6.79167,-25.85,-6986,-28905
2028,39990,0,0,0,131.583,86.9293,54.3549,-9.80957,0.387598,-0.344531,0.5513,0.459991,0.553253,-0.422211,-26.2417,6.81667,-25.8917,-6986,-28905
2034,39996,0,0,0,131.583,86.9293,54.3549,-9.78086,0.401953,-0.358887,0.5513,0.459991,0.553253,-0.422211,-26.225,6.84167,-25.925,-6986,-28905
2040,40002,0,0,0,131.583,86.9293,54.3549,-9.79521,0.392383,-0.354102,0.5513,0.459991,0.553253,-0.422211,-26.2,6.86667,-25.9583,-6986,-28905
2046,40008,0,0,0,131.583,86.9293,54.3549,-9.78564,0.382813,-0.339746,0.5513,0.459991,0.553253,-0.422211,-26.1833,6.86667,-25.9667,-6986,-28905
2052,40014,0,0,0,131.583,86.9293,54.3549,-9.78564,0.411523,-0.325391,0.5513,0.459991,0.553253,-0.422211,-26.1917,6.88333,-25.975,-6986,-28905
2058,40020,0,0,0,131.583,86.9293,54.3549,-9.79043,0.416309,-0.344531,0.5513,0.459991,0.553253,-0.422211,-26.2083,6.89167,-25.9917,-6986,-28905
2064,40026,0,0,0,131.583,86.9293,54.3549,-9.79043,0.378027,-0.320605,0.5513,0.459991,0.553253,-0.422211,-26.225,6.9,-26.0083,-6986,-28905
2070,40032,0,0,0,131.583,86.9293,54.3549,-9.8,0.382813,-0.349316,0.5513,0.459991,0.553253,-0.422211,-26.2417,6.88333,-25.9083,-6986,-28905
2076,40038,0,0,0,131.583,86.9293,54.3549,-9.79521,0.387598,-0.373242,0.5513,0.459991,0.553253,-0.422211,-26.25,6.85833,-25.8417,-6986,-28905
2082,40044,0,0,0,131.583,86.9293,54.3549,-9.78564,0.397168,-0.368457,0.5513,0.459991,0.553253,-0.422211,-26.25,6.825,-25.775,-6986,-28905
2088,40050,0,0,0,131.583,86.9293,54.3549,-9.79521,0.373242,-0.349316,0.5513,0.459991,0.553253,-0.422211,-26.2583,6.80833,-25.7167,-6986,-28905
2094,40056,0,0,0,131.583,86.9293,54.3549,-9.8,0.378027,-0.349316,0.5513,0.459991,0.553253,-0.422211,-26.2583,6.775,-25.6667,-6986,-28905
2100,40062,0,0,0,131.583,86.9293,54.3549,-9.78564,0.382813,-0.358887,0.5513,0.459991,0.553253,-0.422211,-26.2417,6.725,-25.5333,-6986,-28905
2106,40068,0,0,0,131.589,86.9293,54.3549,-9.79043,0.382813,-0.363672,0.5513,0.460022,0.553253,-0.422211,-26.2333,6.69167,-25.475,-6986,-28905
2112,40074,0,0,0,131.589,86.9293,54.3549,-9.79043,0.406738,-0.354102,0.55127,0.460022,0.553253,-0.422241,-26.225,6.675,-25.425,-6986,-28905
2118,40080,0,0,0,131.589,86.9293,54.3549,-9.79521,0.392383,-0.339746,0.55127,0.460022,0.553253,-0.422241,-26.2417,6.675,-25.3833,-6986,-28905
2124,40086,0,0,0,131.589,86.9293,54.3549,-9.78564,0.406738,-0.354102,0.55127,0.460022,0.553223,-0.422241,-26.2583,6.675,-25.3333,-6986,-28905
2130,40092,0,0,0,131.594,86.9293,54.3549,-9.8,0.363672,-0.354102,0.55127,0.460022,0.553223,-0.422241,-26.2583,6.70833,-25.35,-6986,-28905
2136,40098,0,0,0,131.594,86.9293,54.3549,-9.80957,0.401953,-0.354102,0.55127,0.460052,0.553223,-0.422241,-26.2583,6.73333,-25.425,-6986,-28905
2142,40104,0,0,0,131.594,86.9293,54.3549,-9.79521,0.382813,-0.358887,0.55127,0.460052,0.553223,-0.422272,-26.2667,6.76667,-25.475,-6986,-28905
2148,40110,0,0,0,131.594,86.9293,54.3549,-9.8,0.392383,-0.349316,0.551239,0.460052,0.553223,-0.422272,-26.2667,6.78333,-25.5,-6986,-28905
2154,40116,0,0,0,131.6,86.9293,54.3549,-9.77129,0.411523,-0.378027,0.551239,0.460052,0.553192,-0.422272,-26.2833,6.79167,-25.525,-6986,-28905
2160,40122,0,0,0,131.6,86.9293,54.3549,-9.80479,0.382813,-0.373242,0.551239,0.460083,0.553192,-0.422272,-26.3083,6.80833,-25.575,-6986,-28905
2166,40128,0,0,0,131.6,86.9293,54.3549,-9.77607,0.387598,-0.339746,0.551239,0.460083,0.553192,-0.422302,-26.3083,6.8,-25.65,-6986,-28905
2172,40134,0,0,0,131.605,86.9293,54.3549,-9.79043,0.358887,-0.334961,0.551208,0.460083,0.553192,-0.422302,-26.3,6.79167,-25.7083,-6986,-28905
2178,40140,0,0,0,131.605,86.9293,54.3549,-9.8,0.401953,-0.334961,0.551208,0.460114,0.553192,-0.422302,-26.2833,6.78333,-25.7333,-6986,-28905
2184,40146,0,0,0,131.605,86.9293,54.3549,-9.78564,0.401953,-0.325391,0.551208,0.460114,0.553162,-0.422302,-26.2667,6.775,-25.7333,-6986,-28905
2190,40152,0,0,0,131.611,86.9293,54.3549,-9.77607,0.411523,-0.349316,0.551208,0.460114,0.553162,-0.422333,-26.3167,6.78333,-25.725,-6986,-28905
2196,40158,0,0,0,131.611,86.9293,54.3549,-9.80479,0.382813,-0.31582,0.551208,0.460114,0.553162,-0.422333,-26.325,6.79167,-25.7417,-6986,-28905
2202,40164,0,0,0,131.611,86.9293,54.3549,-9.8,0.397168,-0.334961,0.551208,0.460114,0.553162,-0.422333,-26.35,6.8,-25.7833,-6986,-28905
2208,40170,0,0,0,131.611,86.9293,54.3549,-9.81436,0.397168,-0.325391,0.551208,0.460114,0.553162,-0.422333,-26.3417,6.81667,-25.85,-6986,-28905
2214,40176,0,0,0,131.605,86.9293,54.3549,-9.8,0.411523,-0.344531,0.551208,0.460114,0.553162,-0.422333,-26.3083,6.83333,-25.875,-6986,-28905
2220,40182,0,0,0,131.605,86.9293,54.3549,-9.79521,0.387598,-0.349316,0.551208,0.460114,0.553162,-0.422333,-26.2583,6.85833,-25.875,-6986,-28905
2226,40188,0,0,0,131.605,86.9293,54.3549,-9.81436,0.373242,-0.330176,0.551208,0.460114,0.553162,-0.422302,-26.2083,6.88333,-25.9,-6986,-28905
2232,40194,0,0,0,131.605,86.9293,54.3549,-9.79521,0.401953,-0.339746,0.551208,0.460114,0.553162,-0.422302,-26.1833,6.89167,-25.9083,-6986,-28905
2238,40200,0,0,0,131.605,86.9293,54.3549,-9.80957,0.387598,-0.358887,0.551208,0.460114,0.553162,-0.422302,-26.1833,6.90833,-25.9417,-6986,-28905
2244,40206,0,0,0,131.605,86.9293,54.3549,-9.81436,0.378027,-0.344531,0.551208,0.460114,0.553192,-0.422302,-26.175,6.9,-25.9917,-6986,-28905
2250,40212,0,0,0,131.605,86.9293,54.3549,-9.78564,0.406738,-0.368457,0.551208,0.460114,0.553192,-0.422302,-26.1833,6.88333,-26.05,-6986,-28905
2256,40218,0,0,0,131.605,86.9293,54.3549,-9.77607,0.397168,-0.344531,0.551208,0.460114,0.553192,-0.422302,-26.1917,6.86667,-26.075,-6986,-28905
2262,40224,0,0,0,131.6,86.9293,54.3549,-9.80957,0.392383,-0.344531,0.551208,0.460114,0.553192,-0.422302,-26.1917,6.88333,-26.0917,-6986,-28905
2268,40230,0,0,0,131.6,86.9293,54.3549,-9.8,0.406738,-0.354102,0.551208,0.460083,0.553192,-0.422302,-26.1833,6.9,-26.1167,-6986,-28905
2274,40236,0,0,0,131.6,86.9293,54.3549,-9.79043,0.397168,-0.354102,0.551239,0.460083,0.553192,-0.422272,-26.175,6.91667,-26.1167,-6986,-28905
2280,40242,0,0,0,131.6,86.9293,54.3549,-9.78086,0.416309,-0.373242,0.551239,0.460083,0.553192,-0.422272,-26.1583,6.95,-26.1333,-6986,-28905
2286,40248,0,0,0,131.6,86.9293,54.3549,-9.78564,0.387598,-0.344531,0.551239,0.460083,0.553192,-0.422272,-26.175,6.94167,-26.1083,-6986,-28905
2292,40254,0,0,0,131.6,86.9293,54.3549,-9.8,0.392383,-0.368457,0.551239,0.460083,0.553192,-0.422272,-26.1833,6.925,-26.0833,-6986,-28905
2298,40260,0,0,0,131.6,86.9293,54.3549,-9.79521,0.373242,-0.354102,0.551239,0.460083,0.553192,-0.422272,-26.2083,6.9,-26.0583,-6986,-28905
2304,40266,0,0,0,131.6,86.9293,54.3549,-9.79521,0.397168,-0.344531,0.551239,0.460083,0.553192,-0.422272,-26.2417,6.85,-26,-6986,-28905
2310,40272,0,0,0,131.6,86.9293,54.3549,-9.80957,0.406738,-0.349316,0.551239,0.460083,0.553192,-0.422272,-26.275,6.80833,-25.9833,-6986,-28905
2316,40278,0,0,0,131.6,86.9293,54.3549,-9.78564,0.397168,-0.339746,0.551239,0.460083,0.553192,-0.422272,-26.3083,6.79167,-26,-6986,-28905
2322,40284,0,0,0,131.594,86.9293,54.3549,-9.8,0.392383,-0.344531,0.551239,0.460083,0.553192,-0.422272,-26.325,6.8,-25.9833,-6986,-28905
2328,40290,0,0,0,131.594,86.9293,54.3549,-9.80957,0.368457,-0.330176,0.551239,0.460083,0.553223,-0.422272,-26.325,6.78333,-25.9833,-6986,-28905
2334,40296,0,0,0,131.594,86.9293,54.3549,-9.79521,0.421094,-0.354102,0.551239,0.460083,0.553223,-0.422272,-26.2917,6.775,-25.9167,-6986,-28905
2340,40302,0,0,0,131.594,86.9293,54.3549,-9.80479,0.401953,-0.349316,0.551239,0.460083,0.553223,-0.422241,-26.275,6.74167,-25.8917,-6986,-28905
2346,40308,0,0,0,131.594,86.9293,54.3549,-9.79043,0.392383,-0.344531,0.551239,0.460052,0.553223,-0.422241,-26.2583,6.71667,-25.85,-6986,-28905
2352,40314,0,0,0,131.594,86.9293,54.3549,-9.79521,0.382813,-0.344531,0.551239,0.460052,0.553223,-0.422241,-26.2583,6.7,-25.8083,-6986,-28905
2358,40320,0,0,0,131.594,86.9293,54.3549,-9.78564,0.382813,-0.325391,0.551239,0.460052,0.553223,-0.422241,-26.25,6.68333,-25.725,-6986,-28905
2364,40326,0,0,0,131.594,86.9293,54.3549,-9.78564,0.387598,-0.368457,0.55127,0.460052,0.553223,-0.422241,-26.2583,6.66667,-25.6417,-6986,-28905
2370,40332,0,0,0,131.594,86.9293,54.3549,-9.79521,0.401953,-0.358887,0.55127,0.460052,0.553223,-0.422241,-26.25,6.66667,-25.6333,-6986,-28905
2376,40338,0,0,0,131.594,86.9293,54.3549,-9.79043,0.411523,-0.344531,0.55127,0.460052,0.553223,-0.422241,-26.2417,6.675,-25.6833,-6986,-28905
2382,40344,0,0,0,131.594,86.9293,54.3549,-9.79043,0.378027,-0.349316,0.55127,0.460052,0.553223,-0.422241,-26.225,6.675,-25.7333,-6986,-28905
2388,40350,0,0,0,131.594,86.9293,54.3549,-9.79043,0.387598,-0.344531,0.55127,0.460052,0.553223,-0.422241,-26.2167,6.69167,-25.7417,-6986,-28905
2394,40356,0,0,0,131.594,86.9293,54.3549,-9.79521,0.397168,-0.358887,0.55127,0.460052,0.553223,-0.422241,-26.25,6.66667,-25.7333,-6986,-28905
2400,40362,0,0,0,131.594,86.9293,54.3549,-9.78086,0.411523,-0.339746,0.55127,0.460052,0.553223,-0.422241,-26.2667,6.65833,-25.7167,-6986,-28905
2406,40368,0,0,0,131.594,86.9293,54.3549,-9.79521,0.387598,-0.349316,0.55127,0.460052,0.553223,-0.422241,-26.2917,6.63333,-25.7,-6986,-28905
2412,40374,0,0,0,131.589,86.9293,54.3549,-9.81914,0.397168,-0.358887,0.55127,0.460052,0.553223,-0.422241,-26.3083,6.625,-25.6667,-6986,-28905
2418,40380,0,0,0,131.589,86.9293,54.3549,-9.78086,0.401953,-0.344531,0.55127,0.460052,0.553223,-0.422241,-26.3167,6.6,-25.6167,-6986,-28905
2424,40386,0,0,0,131.589,86.9293,54.3549,-9.8,0.401953,-0.31582,0.55127,0.460052,0.553223,-0.422241,-26.3667,6.6,-25.5667,-6986,-28905
2430,40392,0,0,0,131.589,86.9293,54.3549,-9.79521,0.392383,-0.354102,0.55127,0.460052,0.553223,-0.422211,-26.3833,6.60833,-25.55,-6986,-28905
2436,40398,0,0,0,131.589,86.9293,54.3549,-9.77129,0.373242,-0.344531,0.55127,0.460052,0.553223,-0.422211,-26.4167,6.625,-25.5417,-6986,-28905
2442,40404,0,0,0,131.589,86.9293,54.3549,-9.79521,0.378027,-0.320605,0.55127,0.460052,0.553223,-0.422211,-26.4333,6.63333,-25.5083,-6986,-28905
2448,40410,0,0,0,131.589,86.9293,54.3549,-9.79521,0.382813,-0.349316,0.55127,0.460052,0.553223,-0.422211,-26.45,6.64167,-25.4833,-6986,-28905
2454,40416,0,0,0,131.589,86.9293,54.3549,-9.81436,0.387598,-0.339746,0.55127,0.460052,0.553253,-0.422211,-26.3833,6.65833,-25.4583,-6986,-28905
2460,40422,0,0,0,131.589,86.9293,54.3549,-9.80957,0.401953,-0.349316,0.55127,0.460052,0.553253,-0.422211,-26.3583,6.675,-25.4583,-6986,-28905
2466,40428,0,0,0,131.589,86.9293,54.3549,-9.78086,0.382813,-0.363672,0.55127,0.460022,0.553253,-0.422211,-26.3333,6.68333,-25.4917,-6986,-28905
2472,40434,0,0,0,131.589,86.9293,54.3549,-9.78086,0.392383,-0.330176,0.55127,0.460022,0.553253,-0.422211,-26.3417,6.675,-25.5333,-6986,-28905
2478,40440,0,0,0,131.589,86.9293,54.3549,-9.80479,0.397168,-0.363672,0.55127,0.460022,0.553253,-0.422211,-26.3333,6.675,-25.575,-6986,-28905
2484,40446,0,0,0,131.589,86.9293,54.3549,-9.78564,0.387598,-0.31582,0.55127,0.460022,0.553253,-0.422211,-26.325,6.675,-25.625,-6986,-28905
2490,40452,0,0,0,131.589,86.9293,54.3549,-9.8,0.411523,-0.325391,0.55127,0.460022,0.553253,-0.422211,-26.3,6.675,-25.6,-6986,-28905
2496,40458,0,0,0,131.589,86.9293,54.3549,-9.78564,0.368457,-0.373242,0.55127,0.460022,0.553253,-0.422211,-26.2833,6.68333,-25.625,-6986,-28905
2502,40464,0,0,0,131.589,86.9293,54.3549,-9.8,0.392383,-0.344531,0.55127,0.460022,0.553253,-0.422211,-26.275,6.68333,-25.6417,-6986,-28905
2508,40470,0,0,0,131.583,86.9293,54.3549,-9.8,0.392383,-0.325391,0.5513,0.460022,0.553253,-0.422211,-26.2667,6.69167,-25.6583,-6986,-28905
2514,40476,0,0,0,131.583,86.9293,54.3549,-9.80957,0.411523,-0.339746,0.5513,0.460022,0.553253,-0.422211,-26.3,6.70833,-25.75,-6986,-28905
2520,40482,0,0,0,131.583,86.9293,54.3549,-9.79521,0.411523,-0.330176,0.5513,0.460022,0.553253,-0.42218,-26.3,6.71667,-25.8,-6986,-28905
2526,40488,0,0,0,131.583,86.9293,54.3549,-9.77129,0.382813,-0.354102,0.5513,0.460022,0.553253,-0.42218,-26.2917,6.725,-25.8417,-6986,-28905
2532,40494,0,0,0,131.583,86.9293,54.3549,-9.8,0.397168,-0.334961,0.5513,0.460022,0.553253,-0.42218,-26.2667,6.725,-25.875,-6986,-28905
2538,40500,0,0,0,131.583,86.9293,54.3549,-9.78086,0.382813,-0.344531,0.5513,0.459991,0.553253,-0.42218,-26.2417,6.725,-25.875,-6986,-28905
2544,40506,0,0,0,131.578,86.9293,54.3549,-9.78564,0.397168,-0.339746,0.5513,0.459991,0.553253,-0.42218,-26.2167,6.73333,-25.8167,-6986,-28905
