TimeSinceCollection,Timestamp,AccX,AccY,AccZ,AngleRoll,AnglePitch,AngleYaw,AngularVelX,AngularVelY,AngularVelZ,Q1,Q2,Q3,Q4,MagX,MagY,MagZ,Height,Airpressure
0,35514,0,0,-0.12207,-101.519,-88.407,-137.84,9.81436,-0.272754,-0.0430664,0.340759,0.611176,-0.359406,0.61731,-116.408,44.7917,-32.775,-7829,-28803
6,35520,-0.0610352,-0.183105,0.183105,-101.547,-88.407,-137.807,9.80957,-0.277539,-0.0382813,0.340759,0.611176,-0.359406,0.61731,-116.408,44.8,-32.775,-7829,-28803
12,35526,0,0.0610352,0.0610352,-101.591,-88.407,-137.769,9.79521,-0.258398,-0.0717773,0.340729,0.611206,-0.359406,0.617279,-116.392,44.8,-32.7583,-7829,-28803
18,35532,0,-0.0610352,-0.366211,-101.574,-88.407,-137.78,9.80479,-0.287109,-0.0334961,0.340729,0.611206,-0.359406,0.61731,-116.392,44.7917,-32.7,-7829,-28803
24,35538,0.0610352,0,-0.244141,-101.596,-88.407,-137.758,9.78086,-0.244043,-0.0287109,0.340729,0.611206,-0.359375,0.61731,-116.383,44.7583,-32.6167,-7829,-28803
30,35544,0.0610352,-0.0610352,0.183105,-101.602,-88.407,-137.747,9.82393,-0.29668,-0.062207,0.340729,0.611206,-0.359375,0.61731,-116.392,44.7167,-32.5583,-7829,-28803
36,35550,-0.12207,0.12207,-0.12207,-101.585,-88.407,-137.758,9.80957,-0.253613,-0.0382813,0.340698,0.611237,-0.359344,0.61731,-116.4,44.6833,-32.55,-7829,-28803
42,35556,0.0610352,0,0.0610352,-101.585,-88.407,-137.763,9.81914,-0.272754,-0.0717773,0.340698,0.611237,-0.359344,0.61731,-116.4,44.6083,-32.5583,-7829,-28803
48,35562,0.12207,0,0.183105,-101.58,-88.407,-137.763,9.79043,-0.244043,-0.0334961,0.340698,0.611237,-0.359344,0.61734,-116.408,44.6,-32.575,-7829,-28803
54,35568,0.12207,0.0610352,0,-101.574,-88.407,-137.769,9.8335,-0.301465,-0.062207,0.340668,0.611237,-0.359314,0.61734,-116.425,44.5917,-32.5583,-7829,-28803
60,35574,0,0,0.12207,-101.558,-88.407,-137.78,9.81436,-0.248828,-0.0334961,0.340668,0.611237,-0.359314,0.61734,-116.425,44.6083,-32.5417,-7829,-28803
66,35580,0,0,0.0610352,-101.552,-88.407,-137.785,9.81914,-0.267969,-0.0382813,0.340637,0.611237,-0.359314,0.61734,-116.375,44.6583,-32.5,-7829,-28803
72,35586,-0.12207,0,0.183105,-101.58,-88.407,-137.752,9.83828,-0.272754,-0.0717773,0.340637,0.611267,-0.359283,0.617371,-116.35,44.6667,-32.4917,-7821,-28804
78,35592,0.0610352,0.0610352,0.12207,-101.574,-88.407,-137.758,9.80957,-0.244043,-0.0143555,0.340607,0.611267,-0.359283,0.617371,-116.317,44.6667,-32.4833,-7821,-28804
84,35598,0,0.0610352,0,-101.558,-88.407,-137.774,9.8,-0.267969,-0.0430664,0.340607,0.611267,-0.359283,0.617371,-116.325,44.6667,-32.45,-7821,-28804
90,35604,-0.183105,0,-0.183105,-101.547,-88.407,-137.785,9.81914,-0.267969,-0.062207,0.340576,0.611267,-0.359253,0.617371,-116.358,44.6833,-32.4667,-7821,-28804
96,35610,0.12207,0,-0.12207,-101.552,-88.407,-137.774,9.81436,-0.272754,-0.0478516,0.340576,0.611267,-0.359253,0.617371,-116.417,44.6917,-32.4333,-7821,-28804
102,35616,0.12207,0,0.183105,-101.541,-88.407,-137.78,9.79521,-0.267969,-0.0334961,0.340546,0.611298,-0.359222,0.617401,-116.458,44.7,-32.425,-7821,-28804
108,35622,0,0,-0.0610352,-101.53,-88.407,-137.785,9.8,-0.272754,-0.0382813,0.340515,0.611298,-0.359222,0.617401,-116.483,44.7,-32.4083,-7821,-28804
114,35628,0,0.12207,-0.12207,-101.53,-88.407,-137.785,9.83828,-0.277539,-0.0334961,0.340515,0.611298,-0.359192,0.617432,-116.492,44.6917,-32.4,-7821,-28804
120,35634,0,0,0.0610352,-101.508,-88.407,-137.802,9.8,-0.253613,-0.0287109,0.340485,0.611328,-0.359161,0.617432,-116.483,44.675,-32.4083,-7821,-28804
126,35640,0,-0.0610352,-0.183105,-101.514,-88.407,-137.785,9.82393,-0.263184,-0.0526367,0.340485,0.611328,-0.359161,0.617462,-116.492,44.6417,-32.4167,-7821,-28804
132,35646,0,-0.0610352,-0.305176,-101.497,-88.407,-137.802,9.80479,-0.267969,-0.0526367,0.340424,0.611359,-0.3591,0.617462,-116.5,44.625,-32.4,-7821,-28804
138,35652,0.0610352,0,0.305176,-101.514,-88.407,-137.78,9.80957,-0.267969,-0.0287109,0.340424,0.611359,-0.35907,0.617493,-116.492,44.6,-32.375,-7821,-28804
144,35658,0,-0.0610352,0.12207,-101.497,-88.407,-137.791,9.80957,-0.244043,-0.0191406,0.340393,0.611389,-0.35907,0.617493,-116.483,44.575,-32.375,-7821,-28804
150,35664,-0.0610352,0.12207,0.0610352,-101.503,-88.407,-137.785,9.82393,-0.258398,-0.0717773,0.340363,0.611389,-0.359039,0.617523,-116.458,44.575,-32.3917,-7821,-28804
156,35670,-0.0610352,-0.183105,-0.366211,-101.514,-88.407,-137.763,9.82393,-0.277539,-0.0669922,0.340332,0.611389,-0.359009,0.617523,-116.417,44.5917,-32.3917,-7821,-28804
162,35676,0,0.0610352,-0.183105,-101.519,-88.407,-137.758,9.80479,-0.248828,-0.062207,0.340302,0.61142,-0.358978,0.617554,-116.4,44.625,-32.3583,-7821,-28804
168,35682,0,-0.12207,0,-101.514,-88.407,-137.758,9.8,-0.263184,-0.0334961,0.340302,0.61145,-0.358948,0.617554,-116.383,44.6417,-32.3417,-7821,-28804
174,35688,0.0610352,0.0610352,0.183105,-101.53,-88.407,-137.741,9.82393,-0.277539,-0.0478516,0.340271,0.61145,-0.358948,0.617554,-116.367,44.6667,-32.3417,-7821,-28804
180,35694,0,0.12207,-0.12207,-101.508,-88.407,-137.758,9.81914,-0.267969,-0.0574219,0.34024,0.61145,-0.358917,0.617584,-116.35,44.6667,-32.4083,-7821,-28804
186,35700,0,0.12207,0.12207,-101.459,-88.407,-137.802,9.79521,-0.277539,-0.0334961,0.34024,0.611481,-0.358887,0.617584,-116.342,44.6833,-32.4833,-7821,-28804
192,35706,0,-0.0610352,-0.12207,-101.442,-88.407,-137.818,9.8335,-0.267969,-0.0765625,0.34021,0.611481,-0.358856,0.617615,-116.333,44.7083,-32.4833,-7821,-28804
198,35712,0,0.183105,0,-101.453,-88.407,-137.802,9.80479,-0.267969,-0.062207,0.34021,0.611481,-0.358856,0.617615,-116.35,44.7333,-32.4167,-7821,-28804
204,35718,0,0,0,-101.42,-88.407,-137.834,9.79043,-0.253613,-0.0526367,0.34021,0.611481,-0.358856,0.617615,-116.367,44.7583,-32.3917,-7821,-28804
210,35724,0.0610352,0,-0.244141,-101.42,-88.407,-137.834,9.82393,-0.263184,-0.0526367,0.340179,0.611481,-0.358826,0.617615,-116.375,44.7667,-32.375,-7821,-28804
216,35730,-0.0610352,-0.183105,-0.12207,-101.464,-88.407,-137.785,9.82871,-0.253613,-0.062207,0.340179,0.611511,-0.358826,0.617615,-116.425,44.8167,-32.4417,-7821,-28804
222,35736,-0.0610352,0,-0.0610352,-101.464,-88.407,-137.785,9.81436,-0.277539,-0.0526367,0.340179,0.611511,-0.358795,0.617615,-116.467,44.8083,-32.475,-7821,-28804
228,35742,0,0.305176,0,-101.464,-88.407,-137.785,9.81436,-0.258398,-0.062207,0.340179,0.611511,-0.358795,0.617615,-116.475,44.7917,-32.5,-7821,-28804
234,35748,0.12207,0.0610352,0.183105,-101.409,-88.407,-137.834,9.8,-0.248828,-0.0526367,0.340179,0.611511,-0.358795,0.617645,-116.492,44.7583,-32.5083,-7821,-28804
240,35754,0,0.0610352,-0.12207,-101.387,-88.407,-137.856,9.8,-0.253613,-0.0334961,0.340179,0.611511,-0.358795,0.617645,-116.475,44.7417,-32.4917,-7821,-28804
246,35760,-0.12207,0,0.0610352,-101.376,-88.407,-137.862,9.78086,-0.277539,-0.0287109,0.340149,0.611511,-0.358765,0.617645,-116.475,44.7417,-32.4833,-7821,-28804
252,35766,0.12207,0,0.12207,-101.376,-88.407,-137.867,9.80957,-0.229688,-0.0526367,0.340149,0.611542,-0.358765,0.617676,-116.483,44.75,-32.4583,-7821,-28804
258,35772,-0.12207,0.0610352,0.0610352,-101.365,-88.407,-137.867,9.82871,-0.277539,-0.0334961,0.340118,0.611542,-0.358734,0.617676,-116.467,44.7583,-32.4583,-7821,-28804
264,35778,0.0610352,0,0,-101.354,-88.407,-137.884,9.82871,-0.248828,-0.0669922,0.340118,0.611542,-0.358734,0.617676,-116.45,44.8,-32.475,-7821,-28804
270,35784,-0.0610352,0,0.0610352,-101.349,-88.407,-137.884,9.81436,-0.258398,-0.0287109,0.340088,0.611542,-0.358734,0.617676,-116.425,44.8333,-32.45,-7821,-28804
276,35790,0.0610352,0,0,-101.343,-88.407,-137.884,9.81914,-0.244043,-0.0430664,0.340088,0.611542,-0.358704,0.617706,-116.417,44.8917,-32.4417,-7821,-28804
282,35796,0.0610352,0,-0.244141,-101.338,-88.407,-137.884,9.80479,-0.277539,-0.0430664,0.340057,0.611572,-0.358704,0.617706,-116.433,44.9,-32.4417,-7821,-28804
288,35802,0,0.12207,0,-101.343,-88.407,-137.878,9.80957,-0.267969,-0.0717773,0.340057,0.611572,-0.358673,0.617706,-116.45,44.9083,-32.4667,-7821,-28804
294,35808,0,0,-0.183105,-101.321,-88.407,-137.9,9.81436,-0.258398,-0.0430664,0.340057,0.611572,-0.358673,0.617737,-116.467,44.9083,-32.5083,-7821,-28804
300,35814,0,0,0,-101.327,-88.4125,-137.895,9.8,-0.258398,-0.0813477,0.340057,0.611572,-0.358643,0.617737,-116.467,44.9,-32.5083,-7821,-28804
306,35820,0,-0.0610352,-0.0610352,-101.338,-88.4125,-137.878,9.81436,-0.258398,-0.0478516,0.340027,0.611603,-0.358643,0.617737,-116.458,44.8583,-32.4917,-7821,-28804
312,35826,0,0,-0.488281,-101.332,-88.4125,-137.884,9.80957,-0.267969,-0.062207,0.340027,0.611603,-0.358643,0.617737,-116.458,44.825,-32.5,-7821,-28804
318,35832,0,0.0610352,0.12207,-101.349,-88.4125,-137.867,9.79521,-0.258398,-0.0382813,0.340057,0.611603,-0.358612,0.617737,-116.475,44.7917,-32.4667,-7821,-28804
324,35838,0.12207,0,0.183105,-101.338,-88.4125,-137.884,9.81436,-0.267969,-0.062207,0.340057,0.611603,-0.358643,0.617737,-116.492,44.775,-32.4667,-7821,-28804
330,35844,0.12207,0.12207,0,-101.327,-88.4125,-137.889,9.81914,-0.263184,-0.0813477,0.340027,0.611603,-0.358643,0.617737,-116.5,44.775,-32.475,-7821,-28804
336,35850,0.0610352,0.183105,-0.0610352,-101.277,-88.4125,-137.939,9.82871,-0.282324,-0.0574219,0.340057,0.611572,-0.358643,0.617737,-116.55,44.7917,-32.4917,-7821,-28804
342,35856,0.183105,0.0610352,0.12207,-101.277,-88.4125,-137.939,9.81914,-0.29668,-0.0478516,0.340057,0.611572,-0.358643,0.617737,-116.575,44.8083,-32.5,-7821,-28804
348,35862,0.0610352,0.0610352,-0.244141,-101.266,-88.4125,-137.955,9.80957,-0.263184,-0.0382813,0.340057,0.611572,-0.358643,0.617737,-116.592,44.8167,-32.525,-7821,-28804
354,35868,0,0,0.0610352,-101.261,-88.4125,-137.955,9.80479,-0.263184,-0.0574219,0.340057,0.611572,-0.358643,0.617737,-116.625,44.825,-32.5583,-7821,-28804
360,35874,0,0,-0.488281,-101.261,-88.4125,-137.961,9.83828,-0.267969,-0.0287109,0.340057,0.611572,-0.358643,0.617737,-116.633,44.8333,-32.6083,-7821,-28804
366,35880,-0.12207,-0.0610352,-0.12207,-101.294,-88.4125,-137.928,9.80957,-0.258398,-0.0430664,0.340088,0.611572,-0.358612,0.617737,-116.625,44.825,-32.65,-7821,-28804
372,35886,0,0,0.0610352,-101.294,-88.4125,-137.928,9.81914,-0.282324,-0.0287109,0.340057,0.611603,-0.358612,0.617737,-116.608,44.8167,-32.6417,-7821,-28804
378,35892,0,0,-0.183105,-101.288,-88.4125,-137.928,9.8,-0.267969,-0.0239258,0.340057,0.611603,-0.358612,0.617737,-116.6,44.8,-32.6333,-7821,-28804
384,35898,0.12207,0.12207,0,-101.294,-88.418,-137.922,9.78564,-0.239258,-0.0287109,0.340057,0.611603,-0.358582,0.617737,-116.583,44.7833,-32.6083,-7821,-28804
390,35904,0,0.12207,-0.0610352,-101.266,-88.418,-137.944,9.79521,-0.263184,-0.0526367,0.340027,0.611603,-0.358551,0.617767,-116.567,44.7833,-32.6083,-7821,-28804
396,35910,0.12207,0,0,-101.245,-88.418,-137.961,9.78086,-0.253613,-0.0574219,0.339996,0.611633,-0.358521,0.617767,-116.542,44.8083,-32.5583,-7821,-28804
402,35916,0,-0.0610352,-0.0610352,-101.234,-88.4125,-137.972,9.80957,-0.267969,-0.0526367,0.339996,0.611633,-0.358521,0.617798,-116.533,44.8,-32.525,-7821,-28804
408,35922,0.0610352,0,0.244141,-101.245,-88.4125,-137.955,9.80479,-0.263184,-0.0717773,0.339966,0.611633,-0.358521,0.617798,-116.533,44.8167,-32.5333,-7821,-28804
414,35928,0.12207,0.0610352,0.0610352,-101.234,-88.4125,-137.966,9.82393,-0.282324,-0.0574219,0.339966,0.611633,-0.35849,0.617798,-116.517,44.825,-32.5583,-7829,-28803
420,35934,0.0610352,0,-0.244141,-101.217,-88.4125,-137.983,9.80957,-0.267969,-0.0574219,0.339935,0.611633,-0.35849,0.617798,-116.5,44.8167,-32.6,-7829,-28803
426,35940,-0.0610352,-0.12207,0.0610352,-101.239,-88.4125,-137.95,9.81914,-0.267969,-0.0239258,0.339935,0.611664,-0.35849,0.617798,-116.508,44.8083,-32.6667,-7821,-28804
432,35946,0,-0.0610352,0,-101.234,-88.4125,-137.961,9.8,-0.248828,-0.0334961,0.339935,0.611664,-0.358459,0.617828,-116.525,44.8,-32.6833,-7821,-28804
438,35952,0,0,-0.12207,-101.239,-88.4125,-137.95,9.81436,-0.258398,-0.0478516,0.339905,0.611664,-0.358459,0.617828,-116.542,44.7833,-32.7167,-7821,-28804
444,35958,0,0,-0.12207,-101.245,-88.418,-137.944,9.80479,-0.272754,-0.0526367,0.339905,0.611694,-0.358429,0.617828,-116.55,44.775,-32.7167,-7821,-28804
450,35964,0,-0.0610352,0,-101.245,-88.418,-137.939,9.8,-0.263184,-0.0478516,0.339905,0.611694,-0.358429,0.617828,-116.558,44.7667,-32.7167,-7821,-28804
456,35970,0,-0.12207,0.0610352,-101.272,-88.418,-137.911,9.8,-0.258398,-0.0813477,0.339874,0.611694,-0.358398,0.617828,-116.542,44.8083,-32.7417,-7821,-28804
462,35976,0,0.0610352,0,-101.272,-88.418,-137.911,9.82393,-0.267969,-0.0574219,0.339874,0.611694,-0.358398,0.617859,-116.525,44.8167,-32.7333,-7821,-28804
468,35982,0.12207,0,-0.244141,-101.261,-88.418,-137.922,9.79043,-0.248828,-0.0717773,0.339874,0.611694,-0.358398,0.617859,-116.525,44.8333,-32.775,-7821,-28804
474,35988,0,0.0610352,0.366211,-101.266,-88.418,-137.911,9.8,-0.263184,-0.0574219,0.339874,0.611725,-0.358398,0.617859,-116.525,44.8333,-32.775,-7821,-28804
480,35994,0.12207,-0.0610352,0,-101.245,-88.4125,-137.933,9.78564,-0.263184,-0.0669922,0.339874,0.611694,-0.358398,0.617859,-116.517,44.8083,-32.775,-7821,-28804
486,36000,0,0,0,-101.255,-88.4125,-137.922,9.8335,-0.258398,-0.0382813,0.339874,0.611694,-0.358398,0.617859,-116.542,44.7917,-32.8167,-7821,-28804
492,36006,0,0,0,-101.255,-88.4125,-137.922,9.80479,-0.258398,-0.0526367,0.339874,0.611694,-0.358398,0.617828,-116.517,44.7833,-32.7917,-7821,-28804
498,36012,0,0,0,-101.255,-88.4125,-137.922,9.80957,-0.282324,-0.0191406,0.339874,0.611694,-0.358429,0.617828,-116.508,44.775,-32.75,-7821,-28804
504,36018,0,0,0,-101.255,-88.4125,-137.928,9.80957,-0.267969,-0.0382813,0.339874,0.611694,-0.358398,0.617859,-116.508,44.7833,-32.7167,-7821,-28804
510,36024,0,0,0,-101.255,-88.4125,-137.928,9.80479,-0.277539,-0.0334961,0.339874,0.611694,-0.358398,0.617859,-116.5,44.7917,-32.6833,-7821,-28804
516,36030,0,0,0,-101.25,-88.4125,-137.928,9.82871,-0.263184,-0.0478516,0.339844,0.611725,-0.358398,0.617859,-116.517,44.8167,-32.7167,-7821,-28804
522,36036,0,0,0,-101.25,-88.4125,-137.928,9.8335,-0.253613,-0.0478516,0.339844,0.611725,-0.358398,0.617859,-116.542,44.8333,-32.7417,-7821,-28804
528,36042,0,0,0,-101.25,-88.4125,-137.928,9.80957,-0.272754,-0.0765625,0.339844,0.611725,-0.358368,0.617859,-116.567,44.8417,-32.775,-7821,-28804
534,36048,0,0,0,-101.25,-88.4125,-137.928,9.81914,-0.248828,-0.0526367,0.339844,0.611725,-0.358368,0.617859,-116.583,44.85,-32.8333,-7829,-28803
540,36054,0,0,0,-101.25,-88.4125,-137.928,9.83828,-0.291895,-0.0574219,0.339844,0.611725,-0.358368,0.617859,-116.608,44.85,-32.8333,-7829,-28803
546,36060,0,0,0,-101.25,-88.4125,-137.928,9.82871,-0.244043,-0.062207,0.339844,0.611725,-0.358368,0.617859,-116.592,44.8167,-32.8083,-7829,-28803
552,36066,0,0,0,-101.25,-88.4125,-137.928,9.80957,-0.267969,-0.062207,0.339844,0.611725,-0.358398,0.617859,-116.6,44.7917,-32.8,-7829,-28803
558,36072,0,0,0,-101.25,-88.4125,-137.928,9.80957,-0.234473,-0.062207,0.339844,0.611725,-0.358398,0.617859,-116.6,44.7917,-32.8,-7829,-28803
564,36078,0,0,0,-101.255,-88.4125,-137.928,9.84307,-0.258398,-0.062207,0.339844,0.611694,-0.358398,0.617859,-116.617,44.8,-32.7833,-7829,-28803
570,36084,0,0,0,-101.255,-88.4125,-137.928,9.80479,-0.244043,-0.0430664,0.339874,0.611694,-0.358398,0.617859,-116.633,44.8,-32.7583,-7829,-28803
576,36090,0,0,0,-101.261,-88.4125,-137.928,9.81914,-0.267969,-0.0526367,0.339874,0.611694,-0.358429,0.617828,-116.675,44.8,-32.75,-7829,-28803
582,36096,0,0,0,-101.261,-88.4125,-137.928,9.80479,-0.234473,-0.0430664,0.339905,0.611694,-0.358429,0.617828,-116.683,44.7833,-32.7583,-7829,-28803
588,36102,0,0,0,-101.261,-88.4125,-137.928,9.8,-0.267969,-0.0765625,0.339905,0.611694,-0.358459,0.617828,-116.667,44.775,-32.775,-7829,-28803
594,36108,0,0,0,-101.266,-88.4125,-137.928,9.8,-0.267969,-0.090918,0.339905,0.611664,-0.358459,0.617828,-116.658,44.7833,-32.775,-7829,-28803
600,36114,0,0,0,-101.266,-88.4125,-137.928,9.80479,-0.239258,-0.062207,0.339935,0.611664,-0.35849,0.617798,-116.625,44.8083,-32.775,-7829,-28803
606,36120,0,0,0,-101.272,-88.4125,-137.928,9.80479,-0.258398,-0.0526367,0.339966,0.611633,-0.358521,0.617798,-116.575,44.8583,-32.7667,-7829,-28803
612,36126,0,0,0,-101.277,-88.4125,-137.928,9.80957,-0.282324,-0.0765625,0.339966,0.611633,-0.358521,0.617767,-116.558,44.8667,-32.7417,-7829,-28803
618,36132,0,0,0,-101.277,-88.4125,-137.928,9.81436,-0.272754,-0.0478516,0.339996,0.611633,-0.358551,0.617767,-116.542,44.8583,-32.7417,-7829,-28803
624,36138,0,0,0,-101.283,-88.4125,-137.928,9.81436,-0.272754,-0.0382813,0.339996,0.611633,-0.358551,0.617767,-116.525,44.85,-32.725,-7829,-28803
630,36144,0,0,0,-101.288,-88.4125,-137.928,9.79521,-0.263184,-0.0717773,0.340027,0.611603,-0.358551,0.617767,-116.5,44.8583,-32.725,-7829,-28803
636,36150,0,0,0,-101.288,-88.4125,-137.928,9.79043,-0.244043,-0.0239258,0.340057,0.611603,-0.358582,0.617737,-116.483,44.8917,-32.7333,-7829,-28803
642,36156,0,0,0,-101.294,-88.4125,-137.928,9.81436,-0.272754,-0.0669922,0.340057,0.611603,-0.358612,0.617737,-116.492,44.8917,-32.725,-7829,-28803
648,36162,0,0,0,-101.294,-88.4125,-137.928,9.8,-0.267969,-0.0526367,0.340088,0.611572,-0.358612,0.617737,-116.483,44.8833,-32.6833,-7821,-28804
654,36168,0,0,0,-101.299,-88.4125,-137.928,9.80957,-0.263184,-0.0334961,0.340088,0.611572,-0.358643,0.617706,-116.483,44.8833,-32.675,-7821,-28804
660,36174,0,0,0,-101.299,-88.4125,-137.928,9.8,-0.244043,-0.062207,0.340088,0.611572,-0.358643,0.617706,-116.483,44.8833,-32.7,-7821,-28804
666,36180,0,0,0,-101.305,-88.4125,-137.928,9.8,-0.272754,-0.0382813,0.340118,0.611572,-0.358673,0.617706,-116.508,44.9167,-32.725,-7829,-28803
672,36186,0,0,0,-101.305,-88.4125,-137.928,9.83828,-0.258398,-0.062207,0.340118,0.611572,-0.358673,0.617706,-116.542,44.925,-32.75,-7829,-28803
678,36192,0,0,0,-101.305,-88.4125,-137.928,9.80957,-0.267969,-0.0669922,0.340149,0.611542,-0.358673,0.617676,-116.575,44.9417,-32.7333,-7829,-28803
684,36198,0,0,0,-101.305,-88.4125,-137.928,9.81436,-0.258398,-0.0430664,0.340149,0.611542,-0.358673,0.617676,-116.592,44.925,-32.6833,-7829,-28803
690,36204,0,0,0,-101.31,-88.4125,-137.928,9.82871,-0.258398,-0.0382813,0.340149,0.611542,-0.358704,0.617676,-116.6,44.9167,-32.6667,-7829,-28803
696,36210,0,0,0,-101.31,-88.4125,-137.928,9.81914,-0.263184,-0.0382813,0.340179,0.611542,-0.358704,0.617676,-116.575,44.9,-32.5917,-7829,-28803
702,36216,0,0,0,-101.31,-88.4125,-137.928,9.80957,-0.253613,-0.0334961,0.340179,0.611542,-0.358704,0.617676,-116.558,44.9083,-32.5917,-7829,-28803
708,36222,0,0,0,-101.31,-88.4125,-137.928,9.81436,-0.258398,-0.0287109,0.340179,0.611542,-0.358704,0.617676,-116.55,44.9083,-32.575,-7829,-28803
714,36228,0,0,0,-101.31,-88.4125,-137.928,9.82393,-0.272754,-0.0143555,0.340179,0.611542,-0.358704,0.617676,-116.533,44.9,-32.5833,-7829,-28803
720,36234,0,0,0,-101.31,-88.4125,-137.928,9.82871,-0.258398,-0.0430664,0.340179,0.611542,-0.358704,0.617676,-116.5,44.8833,-32.6083,-7829,-28803
726,36240,0,0,0,-101.31,-88.4125,-137.928,9.80479,-0.263184,-0.0191406,0.340149,0.611542,-0.358673,0.617676,-116.5,44.8833,-32.625,-7829,-28803
732,36246,0,0,0,-101.305,-88.4125,-137.928,9.8,-0.272754,-0.0526367,0.340149,0.611542,-0.358673,0.617676,-116.5,44.8833,-32.5917,-7829,-28803
738,36252,0,0,0,-101.299,-88.4125,-137.928,9.8,-0.239258,-0.0382813,0.340118,0.611572,-0.358673,0.617706,-116.5,44.8833,-32.5583,-7829,-28803
744,36258,0,0,0,-101.299,-88.4125,-137.928,9.8,-0.263184,-0.0717773,0.340118,0.611572,-0.358643,0.617706,-116.5,44.8833,-32.525,-7829,-28803
750,36264,0,0,0,-101.294,-88.418,-137.928,9.80957,-0.277539,-0.0478516,0.340088,0.611572,-0.358643,0.617706,-116.492,44.8333,-32.45,-7829,-28803
756,36270,0,0,0,-101.294,-88.418,-137.928,9.8,-0.244043,-0.0191406,0.340088,0.611603,-0.358612,0.617737,-116.475,44.8167,-32.4917,-7829,-28803
762,36276,0,0,0,-101.288,-88.418,-137.928,9.81914,-0.277539,-0.0574219,0.340057,0.611603,-0.358582,0.617737,-116.467,44.8083,-32.5333,-7829,-28803
768,36282,0,0,0,-101.288,-88.418,-137.928,9.82871,-0.263184,-0.0574219,0.340057,0.611603,-0.358582,0.617737,-116.458,44.8167,-32.5917,-7829,-28803
774,36288,0,0,0,-101.283,-88.418,-137.928,9.82393,-0.267969,-0.0334961,0.340027,0.611603,-0.358551,0.617737,-116.45,44.825,-32.65,-7829,-28803
780,36294,0,0,0,-101.283,-88.418,-137.928,9.82393,-0.263184,-0.0813477,0.340027,0.611633,-0.358551,0.617767,-116.458,44.8167,-32.65,-7821,-28804
786,36300,0,0,0,-101.277,-88.418,-137.928,9.80957,-0.263184,-0.0478516,0.339996,0.611633,-0.358521,0.617767,-116.467,44.8083,-32.6417,-7821,-28804
792,36306,0,0,0,-101.277,-88.418,-137.928,9.79521,-0.282324,-0.0669922,0.339996,0.611633,-0.358521,0.617767,-116.483,44.8,-32.625,-7821,-28804
798,36312,0,0,0,-101.277,-88.418,-137.928,9.80479,-0.267969,-0.0430664,0.339996,0.611633,-0.358521,0.617767,-116.492,44.8083,-32.6,-7821,-28804
804,36318,0,0,0,-101.277,-88.418,-137.928,9.81436,-0.272754,-0.0334961,0.339996,0.611633,-0.358521,0.617767,-116.492,44.825,-32.5833,-7821,-28804
810,36324,0,0,0,-101.272,-88.418,-137.928,9.80479,-0.258398,-0.0669922,0.339966,0.611633,-0.35849,0.617798,-116.467,44.8667,-32.5833,-7821,-28804
816,36330,0,0,0,-101.272,-88.418,-137.928,9.79521,-0.253613,-0.0334961,0.339966,0.611664,-0.35849,0.617798,-116.45,44.8583,-32.5833,-7821,-28804
822,36336,0,0,0,-101.272,-88.418,-137.928,9.79521,-0.272754,-0.0669922,0.339966,0.611664,-0.35849,0.617798,-116.417,44.8333,-32.5917,-7821,-28804
828,36342,0,0,0,-101.272,-88.418,-137.928,9.80479,-0.282324,-0.0574219,0.339966,0.611664,-0.35849,0.617798,-116.408,44.8083,-32.6,-7821,-28804
834,36348,0,0,0,-101.272,-88.418,-137.928,9.80479,-0.272754,-0.0813477,0.339966,0.611664,-0.35849,0.617798,-116.425,44.775,-32.5917,-7821,-28804
840,36354,0,0,0,-101.272,-88.418,-137.928,9.80479,-0.253613,-0.0669922,0.339966,0.611664,-0.35849,0.617798,-116.425,44.725,-32.55,-7821,-28804
846,36360,0,0,0,-101.272,-88.418,-137.928,9.83828,-0.258398,-0.062207,0.339966,0.611664,-0.35849,0.617798,-116.433,44.725,-32.5417,-7821,-28804
852,36366,0,0,0,-101.272,-88.418,-137.928,9.81914,-0.263184,-0.0717773,0.339966,0.611664,-0.35849,0.617798,-116.425,44.7167,-32.5667,-7821,-28804
858,36372,0,0,0,-101.277,-88.418,-137.928,9.80479,-0.258398,-0.0669922,0.339966,0.611633,-0.358521,0.617798,-116.417,44.7083,-32.6,-7821,-28804
864,36378,0,0,0,-101.277,-88.418,-137.928,9.82393,-0.263184,-0.0526367,0.339996,0.611633,-0.358521,0.617767,-116.425,44.7,-32.625,-7821,-28804
870,36384,0,0,0,-101.283,-88.418,-137.928,9.81436,-0.258398,-0.0574219,0.339996,0.611633,-0.358521,0.617767,-116.433,44.675,-32.5583,-7821,-28804
876,36390,0,0,0,-101.283,-88.418,-137.928,9.8,-0.267969,-0.0526367,0.340027,0.611633,-0.358551,0.617767,-116.433,44.6583,-32.5083,-7821,-28804
882,36396,0,0,0,-101.283,-88.418,-137.928,9.79521,-0.244043,-0.062207,0.340027,0.611603,-0.358551,0.617737,-116.417,44.6417,-32.5167,-7829,-28803
888,36402,0,0,0,-101.288,-88.418,-137.928,9.80479,-0.263184,-0.0669922,0.340057,0.611603,-0.358582,0.617737,-116.425,44.625,-32.5333,-7829,-28803
894,36408,0,0,0,-101.288,-88.418,-137.928,9.82393,-0.272754,-0.0813477,0.340057,0.611603,-0.358582,0.617737,-116.417,44.6167,-32.5667,-7829,-28803
900,36414,0,0,0,-101.299,-88.418,-137.928,9.80957,-0.258398,-0.0382813,0.340088,0.611572,-0.358612,0.617706,-116.475,44.625,-32.5917,-7829,-28803
906,36420,0,0,0,-101.299,-88.418,-137.928,9.80479,-0.253613,-0.0526367,0.340118,0.611572,-0.358643,0.617706,-116.5,44.6417,-32.6083,-7829,-28803
912,36426,0,0,0,-101.305,-88.418,-137.928,9.80957,-0.267969,-0.0574219,0.340149,0.611572,-0.358673,0.617676,-116.525,44.6417,-32.575,-7829,-28803
918,36432,0,0,0,-101.305,-88.418,-137.928,9.81914,-0.253613,-0.0478516,0.340149,0.611542,-0.358673,0.617676,-116.533,44.6333,-32.55,-7829,-28803
924,36438,0,0,0,-101.31,-88.418,-137.928,9.8,-0.277539,-0.062207,0.340179,0.611542,-0.358704,0.617676,-116.525,44.6333,-32.55,-7829,-28803
930,36444,0,0,0,-101.316,-88.418,-137.928,9.80957,-0.282324,-0.0334961,0.340179,0.611542,-0.358734,0.617645,-116.542,44.6583,-32.5667,-7829,-28803
936,36450,0,0,0,-101.321,-88.418,-137.928,9.79521,-0.272754,-0.0334961,0.34021,0.611511,-0.358734,0.617645,-116.533,44.675,-32.5833,-7829,-28803
942,36456,0,0,0,-101.321,-88.418,-137.928,9.79521,-0.253613,-0.0430664,0.34021,0.611511,-0.358765,0.617645,-116.55,44.6917,-32.5833,-7829,-28803
948,36462,0,0,0,-101.321,-88.418,-137.928,9.8,-0.263184,-0.0574219,0.34024,0.611511,-0.358765,0.617645,-116.55,44.6917,-32.55,-7829,-28803
954,36468,0,0,0,-101.321,-88.418,-137.928,9.8335,-0.277539,-0.0526367,0.34024,0.611511,-0.358765,0.617615,-116.558,44.7,-32.5333,-7829,-28803
960,36474,0,0,0,-101.327,-88.418,-137.928,9.81436,-0.272754,-0.0669922,0.34024,0.611481,-0.358795,0.617615,-116.567,44.7417,-32.5667,-7829,-28803
966,36480,0,0,0,-101.327,-88.418,-137.928,9.81436,-0.253613,-0.0478516,0.340271,0.611481,-0.358795,0.617615,-116.558,44.7667,-32.6083,-7829,-28803
972,36486,0,0,0,-101.332,-88.418,-137.928,9.80479,-0.277539,-0.0382813,0.340271,0.611481,-0.358795,0.617615,-116.558,44.7667,-32.575,-7829,-28803
978,36492,0,0,0,-101.332,-88.418,-137.928,9.81436,-0.267969,-0.00957031,0.340271,0.611481,-0.358826,0.617615,-116.567,44.7417,-32.5417,-7829,-28803
984,36498,0,0,0,-101.332,-88.418,-137.928,9.82393,-0.258398,-0.090918,0.340271,0.611481,-0.358795,0.617615,-116.575,44.7083,-32.5167,-7829,-28803
990,36504,0,0,0,-101.332,-88.418,-137.928,9.80957,-0.277539,-0.0430664,0.340271,0.611481,-0.358826,0.617615,-116.583,44.6333,-32.45,-7829,-28803
996,36510,0,0,0,-101.332,-88.4125,-137.928,9.81914,-0.287109,-0.0813477,0.340271,0.611481,-0.358826,0.617615,-116.558,44.6333,-32.4333,-7829,-28803
1002,36516,0,0,0,-101.332,-88.418,-137.928,9.80957,-0.239258,-0.0478516,0.340302,0.611481,-0.358826,0.617584,-116.533,44.6417,-32.425,-7829,-28803
1008,36522,0,0,0,-101.338,-88.418,-137.928,9.79043,-0.258398,-0.0574219,0.340302,0.61145,-0.358826,0.617584,-116.517,44.65,-32.4083,-7829,-28803
1014,36528,0,0,0,-101.338,-88.4125,-137.928,9.81914,-0.272754,-0.0526367,0.340302,0.61145,-0.358856,0.617584,-116.508,44.6667,-32.4083,-7829,-28803
1020,36534,0,0,0,-101.343,-88.4125,-137.928,9.80957,-0.220117,-0.0526367,0.340332,0.61145,-0.358856,0.617584,-116.525,44.6833,-32.4,-7829,-28803
1026,36540,0,0,0,-101.343,-88.4125,-137.928,9.81914,-0.267969,-0.0191406,0.340332,0.61145,-0.358887,0.617554,-116.525,44.6917,-32.4083,-7829,-28803
1032,36546,0,0,0,-101.343,-88.418,-137.928,9.81436,-0.272754,-0.00957031,0.340363,0.61145,-0.358887,0.617554,-116.517,44.6917,-32.4167,-7829,-28803
1038,36552,0,0,0,-101.343,-88.4125,-137.928,9.80479,-0.267969,-0.0430664,0.340363,0.61145,-0.358887,0.617554,-116.517,44.6833,-32.425,-7829,-28803
1044,36558,0,0,0,-101.343,-88.418,-137.928,9.80957,-0.277539,-0.0765625,0.340363,0.61145,-0.358887,0.617554,-116.5,44.6583,-32.4167,-7829,-28803
1050,36564,0,0,0,-101.343,-88.418,-137.928,9.82871,-0.282324,-0.062207,0.340363,0.61145,-0.358887,0.617554,-116.483,44.625,-32.4417,-7829,-28803
1056,36570,0,0,0,-101.343,-88.418,-137.928,9.8,-0.263184,-0.0430664,0.340363,0.61145,-0.358887,0.617554,-116.483,44.6417,-32.475,-7829,-28803
1062,36576,0,0,0,-101.343,-88.4125,-137.928,9.80957,-0.253613,-0.062207,0.340363,0.61145,-0.358887,0.617554,-116.458,44.6583,-32.4833,-7829,-28803
1068,36582,0,0,0,-101.343,-88.418,-137.928,9.80479,-0.267969,-0.0526367,0.340363,0.61145,-0.358887,0.617554,-116.425,44.6667,-32.4667,-7829,-28803
1074,36588,0,0,0,-101.343,-88.4125,-137.928,9.8,-0.267969,-0.0287109,0.340363,0.61145,-0.358887,0.617554,-116.392,44.6667,-32.4417,-7829,-28803
1080,36594,0,0,0,-101.343,-88.4125,-137.928,9.8,-0.234473,-0.0239258,0.340332,0.61145,-0.358887,0.617584,-116.342,44.65,-32.475,-7829,-28803
1086,36600,0,0,0,-101.338,-88.4125,-137.928,9.79521,-0.272754,-0.0143555,0.340332,0.61145,-0.358856,0.617584,-116.333,44.6333,-32.5167,-7829,-28803
1092,36606,0,0,0,-101.338,-88.4125,-137.928,9.81436,-0.267969,-0.0669922,0.340302,0.61145,-0.358856,0.617584,-116.333,44.6583,-32.5583,-7829,-28803
1098,36612,0,0,0,-101.338,-88.4125,-137.928,9.80957,-0.239258,-0.062207,0.340302,0.61145,-0.358826,0.617584,-116.35,44.6583,-32.5417,-7829,-28803
1104,36618,0,0,0,-101.332,-88.418,-137.928,9.82871,-0.267969,-0.0430664,0.340302,0.611481,-0.358826,0.617584,-116.358,44.6833,-32.5583,-7829,-28803
1110,36624,0,0,0,-101.332,-88.418,-137.928,9.80957,-0.272754,-0.0765625,0.340271,0.611481,-0.358826,0.617615,-116.367,44.7167,-32.5917,-7829,-28803
1116,36630,0,0,0,-101.327,-88.4125,-137.928,9.8,-0.267969,-0.0478516,0.340271,0.611481,-0.358795,0.617615,-116.383,44.7083,-32.6167,-7829,-28803
1122,36636,0,0,0,-101.327,-88.4125,-137.928,9.80479,-0.291895,-0.0430664,0.340271,0.611481,-0.358795,0.617615,-116.383,44.7083,-32.6583,-7829,-28803
1128,36642,0,0,0,-101.327,-88.418,-137.928,9.81436,-0.267969,-0.062207,0.34024,0.611481,-0.358795,0.617615,-116.392,44.725,-32.6333,-7829,-28803
1134,36648,0,0,0,-101.321,-88.4125,-137.928,9.81914,-0.244043,-0.0526367,0.34024,0.611511,-0.358765,0.617645,-116.392,44.7167,-32.5917,-7829,-28803
1140,36654,0,0,0,-101.321,-88.4125,-137.928,9.79521,-0.263184,-0.0526367,0.34021,0.611511,-0.358765,0.617645,-116.375,44.6833,-32.475,-7829,-28803
1146,36660,0,0,0,-101.316,-88.4125,-137.928,9.80479,-0.263184,-0.0430664,0.34021,0.611511,-0.358734,0.617645,-116.375,44.6583,-32.4083,-7829,-28803
1152,36666,0,0,0,-101.316,-88.418,-137.928,9.79521,-0.272754,-0.0430664,0.34021,0.611511,-0.358734,0.617645,-116.367,44.65,-32.3417,-7829,-28803
1158,36672,0,0,0,-101.316,-88.4125,-137.928,9.80479,-0.263184,-0.0526367,0.340179,0.611542,-0.358734,0.617676,-116.367,44.6667,-32.35,-7829,-28803
1164,36678,0,0,0,-101.31,-88.4125,-137.928,9.81436,-0.258398,-0.062207,0.340179,0.611542,-0.358704,0.617676,-116.392,44.6917,-32.3667,-7829,-28803
1170,36684,0,0,0,-101.31,-88.4125,-137.928,9.81436,-0.239258,-0.0526367,0.340149,0.611542,-0.358704,0.617676,-116.425,44.7333,-32.5,-7829,-28803
1176,36690,0,0,0,-101.31,-88.4125,-137.928,9.79521,-0.263184,-0.0478516,0.340149,0.611542,-0.358704,0.617676,-116.442,44.75,-32.5333,-7829,-28803
1182,36696,0,0,0,-101.31,-88.4125,-137.928,9.80957,-0.258398,-0.0191406,0.340149,0.611542,-0.358704,0.617676,-116.458,44.75,-32.5333,-7829,-28803
1188,36702,0,0,0,-101.305,-88.418,-137.928,9.79043,-0.248828,-0.0430664,0.340149,0.611542,-0.358673,0.617676,-116.475,44.75,-32.5417,-7829,-28803
1194,36708,0,0,0,-101.305,-88.418,-137.928,9.84307,-0.267969,-0.0430664,0.340149,0.611542,-0.358673,0.617676,-116.492,44.725,-32.5083,-7829,-28803
1200,36714,0,0,0,-101.299,-88.4125,-137.928,9.80957,-0.253613,-0.0574219,0.340118,0.611572,-0.358643,0.617706,-116.525,44.7083,-32.5,-7829,-28803
1206,36720,0,0,0,-101.299,-88.418,-137.928,9.78086,-0.239258,-0.0382813,0.340118,0.611572,-0.358643,0.617706,-116.542,44.7167,-32.5167,-7829,-28803
1212,36726,0,0,0,-101.299,-88.418,-137.928,9.80479,-0.277539,-0.0382813,0.340088,0.611572,-0.358643,0.617706,-116.542,44.7333,-32.5417,-7829,-28803
1218,36732,0,0,0,-101.294,-88.418,-137.928,9.8,-0.267969,-0.0574219,0.340088,0.611572,-0.358612,0.617706,-116.55,44.7417,-32.575,-7829,-28803
1224,36738,0,0,0,-101.294,-88.418,-137.928,9.8335,-0.277539,-0.0574219,0.340088,0.611603,-0.358612,0.617737,-116.542,44.7583,-32.5667,-7829,-28803
1230,36744,0,0,0,-101.288,-88.418,-137.928,9.78564,-0.277539,-0.062207,0.340057,0.611603,-0.358582,0.617737,-116.492,44.7667,-32.4917,-7829,-28803
1236,36750,0,0,0,-101.288,-88.418,-137.928,9.82393,-0.301465,-0.062207,0.340057,0.611603,-0.358582,0.617737,-116.467,44.775,-32.4583,-7829,-28803
1242,36756,0,0,0,-101.288,-88.418,-137.928,9.79521,-0.239258,-0.062207,0.340057,0.611603,-0.358582,0.617737,-116.433,44.7833,-32.4583,-7829,-28803
1248,36762,0,0,0,-101.288,-88.418,-137.928,9.81436,-0.282324,-0.0574219,0.340057,0.611603,-0.358582,0.617737,-116.4,44.7917,-32.4833,-7821,-28804
1254,36768,0,0,0,-101.288,-88.418,-137.928,9.81436,-0.258398,-0.0382813,0.340057,0.611603,-0.358582,0.617737,-116.375,44.8083,-32.525,-7821,-28804
1260,36774,0,0,0,-101.283,-88.418,-137.928,9.8335,-0.263184,-0.0526367,0.340027,0.611603,-0.358551,0.617737,-116.358,44.775,-32.5583,-7821,-28804
1266,36780,0,0,0,-101.283,-88.418,-137.928,9.79521,-0.253613,-0.0478516,0.340027,0.611603,-0.358551,0.617737,-116.35,44.7667,-32.5917,-7821,-28804
1272,36786,0,0,0,-101.283,-88.418,-137.928,9.8,-0.287109,-0.0382813,0.340027,0.611633,-0.358551,0.617767,-116.342,44.775,-32.6167,-7821,-28804
1278,36792,0,0,0,-101.283,-88.418,-137.928,9.8,-0.272754,-0.0430664,0.340027,0.611633,-0.358551,0.617767,-116.317,44.7583,-32.625,-7821,-28804
1284,36798,0,0,0,-101.283,-88.418,-137.928,9.79521,-0.263184,-0.062207,0.340027,0.611633,-0.358551,0.617767,-116.283,44.7833,-32.6583,-7821,-28804
1290,36804,0,0,0,-101.277,-88.418,-137.928,9.80479,-0.258398,-0.0765625,0.339996,0.611633,-0.358521,0.617767,-116.25,44.7833,-32.6833,-7821,-28804
1296,36810,0,0,0,-101.277,-88.418,-137.928,9.83828,-0.258398,-0.062207,0.339996,0.611633,-0.358521,0.617767,-116.208,44.7833,-32.7167,-7821,-28804
1302,36816,0,0,0,-101.277,-88.418,-137.928,9.79521,-0.253613,-0.0717773,0.339996,0.611633,-0.358521,0.617767,-116.158,44.775,-32.725,-7821,-28804
1308,36822,0,0,0,-101.277,-88.418,-137.928,9.80479,-0.282324,-0.0478516,0.339996,0.611633,-0.358521,0.617767,-116.125,44.7583,-32.7417,-7821,-28804
1314,36828,0,0,0,-101.283,-88.418,-137.928,9.81436,-0.248828,-0.0526367,0.339996,0.611633,-0.358551,0.617767,-116.1,44.7667,-32.7167,-7821,-28804
1320,36834,0,0,0,-101.283,-88.418,-137.928,9.8335,-0.272754,-0.0430664,0.340027,0.611633,-0.358551,0.617767,-116.1,44.7833,-32.7083,-7821,-28804
1326,36840,0,0,0,-101.283,-88.418,-137.928,9.81914,-0.258398,-0.0382813,0.340027,0.611633,-0.358551,0.617767,-116.117,44.8,-32.7083,-7821,-28804
1332,36846,0,0,0,-101.283,-88.418,-137.928,9.83828,-0.272754,-0.0430664,0.340027,0.611633,-0.358551,0.617767,-116.108,44.8,-32.6917,-7821,-28804
1338,36852,0,0,0,-101.283,-88.418,-137.928,9.78564,-0.277539,-0.0526367,0.340027,0.611633,-0.358551,0.617767,-116.1,44.8,-32.6583,-7821,-28804
1344,36858,0,0,0,-101.283,-88.418,-137.928,9.81914,-0.30625,-0.0574219,0.340027,0.611633,-0.358551,0.617767,-116.117,44.7833,-32.6167,-7821,-28804
1350,36864,0,0,0,-101.283,-88.418,-137.928,9.80957,-0.263184,-0.0430664,0.340027,0.611633,-0.358551,0.617767,-116.133,44.7417,-32.575,-7829,-28803
1356,36870,0,0,0,-101.283,-88.418,-137.928,9.8,-0.244043,-0.0334961,0.339996,0.611633,-0.358551,0.617767,-116.15,44.725,-32.5833,-7829,-28803
1362,36876,0,0,0,-101.277,-88.418,-137.928,9.82393,-0.291895,-0.0334961,0.339996,0.611633,-0.358521,0.617767,-116.175,44.7083,-32.6167,-7829,-28803
1368,36882,0,0,0,-101.277,-88.418,-137.928,9.81436,-0.282324,-0.0334961,0.339996,0.611633,-0.358521,0.617767,-116.183,44.7,-32.65,-7829,-28803
1374,36888,0,0,0,-101.272,-88.4125,-137.928,9.81914,-0.253613,-0.0478516,0.339966,0.611633,-0.358521,0.617798,-116.192,44.6917,-32.7083,-7829,-28803
1380,36894,0,0,0,-101.272,-88.4125,-137.928,9.79043,-0.258398,-0.0382813,0.339966,0.611664,-0.35849,0.617798,-116.2,44.675,-32.7833,-7829,-28803
1386,36900,0,0,0,-101.272,-88.4125,-137.928,9.8335,-0.234473,-0.0143555,0.339935,0.611664,-0.35849,0.617798,-116.192,44.6583,-32.7917,-7829,-28803
1392,36906,0,0,0,-101.266,-88.4125,-137.928,9.82393,-0.258398,-0.0574219,0.339935,0.611664,-0.358459,0.617798,-116.175,44.6583,-32.8,-7829,-28803
1398,36912,0,0,0,-101.266,-88.4125,-137.928,9.82393,-0.253613,-0.0717773,0.339935,0.611664,-0.358459,0.617798,-116.158,44.6583,-32.8167,-7829,-28803
1404,36918,0,0,0,-101.266,-88.4125,-137.928,9.80957,-0.272754,-0.0669922,0.339935,0.611664,-0.358459,0.617828,-116.15,44.65,-32.8333,-7829,-28803
1410,36924,0,0,0,-101.266,-88.4125,-137.928,9.79521,-0.244043,-0.0478516,0.339905,0.611694,-0.358459,0.617828,-116.167,44.65,-32.8083,-7829,-28803
1416,36930,0,0,0,-101.261,-88.4125,-137.928,9.81436,-0.267969,-0.0478516,0.339905,0.611694,-0.358459,0.617828,-116.192,44.6417,-32.7667,-7829,-28803
1422,36936,0,0,0,-101.261,-88.4125,-137.928,9.81436,-0.263184,-0.0574219,0.339905,0.611694,-0.358429,0.617828,-116.192,44.65,-32.725,-7829,-28803
1428,36942,0,0,0,-101.261,-88.4125,-137.928,9.82393,-0.267969,-0.0334961,0.339905,0.611694,-0.358429,0.617828,-116.192,44.6667,-32.6833,-7829,-28803
1434,36948,0,0,0,-101.261,-88.4125,-137.928,9.80479,-0.291895,-0.0478516,0.339905,0.611694,-0.358429,0.617828,-116.183,44.675,-32.6333,-7829,-28803
1440,36954,0,0,0,-101.261,-88.4125,-137.928,9.81436,-0.272754,-0.0287109,0.339905,0.611694,-0.358429,0.617828,-116.183,44.7,-32.575,-7829,-28803
1446,36960,0,0,0,-101.261,-88.4125,-137.928,9.79043,-0.253613,-0.0430664,0.339874,0.611694,-0.358429,0.617828,-116.183,44.7083,-32.5917,-7829,-28803
1452,36966,0,0,0,-101.255,-88.4125,-137.922,9.79043,-0.258398,-0.0574219,0.339874,0.611694,-0.358429,0.617828,-116.192,44.725,-32.625,-7829,-28803
1458,36972,0,0,0,-101.255,-88.4125,-137.922,9.81914,-0.263184,-0.0574219,0.339874,0.611694,-0.358429,0.617828,-116.183,44.7333,-32.6667,-7829,-28803
1464,36978,0,0,0,-101.255,-88.4125,-137.928,9.80479,-0.267969,-0.0765625,0.339874,0.611694,-0.358398,0.617828,-116.133,44.7333,-32.7417,-7829,-28803
1470,36984,0,0,0,-101.255,-88.4125,-137.928,9.81436,-0.253613,-0.0574219,0.339874,0.611694,-0.358398,0.617828,-116.117,44.7333,-32.775,-7829,-28803
1476,36990,0,0,0,-101.255,-88.4125,-137.928,9.80957,-0.277539,-0.0717773,0.339874,0.611694,-0.358429,0.617828,-116.1,44.7083,-32.7917,-7829,-28803
1482,36996,0,0,0,-101.255,-88.4125,-137.928,9.8,-0.248828,-0.0526367,0.339874,0.611694,-0.358429,0.617828,-116.1,44.6833,-32.8083,-7829,-28803
1488,37002,0,0,0,-101.261,-88.4125,-137.928,9.81436,-0.301465,-0.0574219,0.339874,0.611694,-0.358429,0.617828,-116.075,44.675,-32.8083,-7829,-28803
1494,37008,0,0,0,-101.261,-88.4125,-137.922,9.81436,-0.263184,-0.0430664,0.339905,0.611694,-0.358429,0.617828,-116.092,44.7,-32.7333,-7829,-28803
1500,37014,0,0,0,-101.261,-88.4125,-137.922,9.82393,-0.263184,-0.0430664,0.339905,0.611694,-0.358429,0.617828,-116.1,44.725,-32.6917,-7829,-28803
1506,37020,0,0,0,-101.261,-88.4125,-137.922,9.82871,-0.244043,-0.0717773,0.339905,0.611694,-0.358429,0.617828,-116.117,44.7417,-32.65,-7829,-28803
1512,37026,0,0,0,-101.266,-88.4125,-137.928,9.82393,-0.253613,-0.090918,0.339905,0.611694,-0.358459,0.617828,-116.125,44.75,-32.6333,-7829,-28803
1518,37032,0,0,0,-101.266,-88.4125,-137.922,9.8,-0.263184,-0.0239258,0.339935,0.611664,-0.358459,0.617828,-116.125,44.75,-32.65,-7829,-28803
1524,37038,0,0,0,-101.272,-88.4125,-137.922,9.82393,-0.248828,-0.0287109,0.339935,0.611664,-0.358459,0.617798,-116.108,44.7333,-32.6583,-7829,-28803
1530,37044,0,0,0,-101.272,-88.4125,-137.922,9.81436,-0.258398,-0.0430664,0.339935,0.611664,-0.35849,0.617798,-116.108,44.7333,-32.6333,-7829,-28803
1536,37050,0,0,0,-101.272,-88.4125,-137.928,9.8,-0.253613,-0.062207,0.339935,0.611664,-0.35849,0.617798,-116.108,44.7167,-32.6167,-7829,-28803
1542,37056,0,0,0,-101.272,-88.4125,-137.922,9.82393,-0.258398,-0.0430664,0.339935,0.611664,-0.35849,0.617798,-116.117,44.7083,-32.6167,-7829,-28803
1548,37062,0,0,0,-101.272,-88.4125,-137.928,9.79521,-0.258398,-0.062207,0.339935,0.611664,-0.35849,0.617798,-116.133,44.7,-32.6833,-7829,-28803
1554,37068,0,0,0,-101.272,-88.4125,-137.928,9.81436,-0.272754,-0.0478516,0.339935,0.611664,-0.35849,0.617798,-116.175,44.7417,-32.8667,-7829,-28803
1560,37074,0,0,0,-101.272,-88.4125,-137.922,9.81914,-0.239258,-0.0334961,0.339935,0.611664,-0.35849,0.617798,-116.2,44.7583,-32.9,-7829,-28803
1566,37080,0,0,0,-101.272,-88.4125,-137.922,9.82393,-0.267969,-0.0287109,0.339935,0.611664,-0.35849,0.617798,-116.225,44.7833,-32.875,-7829,-28803
1572,37086,0,0,0,-101.266,-88.4125,-137.928,9.80957,-0.258398,-0.0478516,0.339935,0.611664,-0.358459,0.617798,-116.25,44.7917,-32.85,-7829,-28803
1578,37092,0,0,0,-101.266,-88.4125,-137.922,9.80957,-0.277539,-0.0574219,0.339935,0.611664,-0.358459,0.617798,-116.242,44.8083,-32.8417,-7829,-28803
1584,37098,0,0,0,-101.266,-88.418,-137.922,9.82393,-0.272754,-0.0334961,0.339935,0.611664,-0.358459,0.617798,-116.242,44.7583,-32.825,-7829,-28803
1590,37104,0,0,0,-101.266,-88.418,-137.928,9.81914,-0.258398,-0.0669922,0.339905,0.611694,-0.358459,0.617828,-116.225,44.7417,-32.8167,-7829,-28803
1596,37110,0,0,0,-101.266,-88.418,-137.922,9.80479,-0.253613,-0.0430664,0.339905,0.611694,-0.358459,0.617828,-116.233,44.725,-32.7917,-7829,-28803
1602,37116,0,0,0,-101.261,-88.418,-137.922,9.80479,-0.258398,-0.0382813,0.339905,0.611694,-0.358429,0.617828,-116.233,44.7417,-32.8167,-7829,-28803
1608,37122,0,0,0,-101.261,-88.418,-137.922,9.82393,-0.244043,-0.062207,0.339905,0.611694,-0.358429,0.617828,-116.25,44.75,-32.8167,-7829,-28803
1614,37128,0,0,0,-101.261,-88.418,-137.922,9.8335,-0.258398,-0.0669922,0.339905,0.611694,-0.358429,0.617828,-116.317,44.725,-32.7917,-7829,-28803
1620,37134,0,0,0,-101.261,-88.418,-137.922,9.80957,-0.239258,-0.0478516,0.339905,0.611694,-0.358429,0.617828,-116.358,44.7083,-32.8083,-7829,-28803
1626,37140,0,0,0,-101.261,-88.418,-137.922,9.81436,-0.263184,-0.0526367,0.339905,0.611694,-0.358429,0.617828,-116.383,44.7167,-32.8333,-7829,-28803
1632,37146,0,0,0,-101.261,-88.418,-137.922,9.81436,-0.253613,-0.0287109,0.339905,0.611694,-0.358429,0.617828,-116.4,44.725,-32.85,-7829,-28803
1638,37152,0,0,0,-101.261,-88.418,-137.922,9.81914,-0.263184,-0.0430664,0.339905,0.611694,-0.358429,0.617828,-116.417,44.7333,-32.8667,-7829,-28803
1644,37158,0,0,0,-101.261,-88.418,-137.928,9.8335,-0.287109,-0.0765625,0.339905,0.611694,-0.358429,0.617828,-116.375,44.7167,-32.8417,-7829,-28803
1650,37164,0,0,0,-101.261,-88.418,-137.928,9.81436,-0.253613,-0.0430664,0.339905,0.611694,-0.358429,0.617828,-116.358,44.7,-32.85,-7829,-28803
1656,37170,0,0,0,-101.261,-88.418,-137.922,9.82393,-0.258398,-0.0478516,0.339905,0.611694,-0.358429,0.617828,-116.325,44.675,-32.8583,-7829,-28803
1662,37176,0,0,0,-101.261,-88.418,-137.928,9.8335,-0.263184,-0.00478516,0.339905,0.611694,-0.358429,0.617828,-116.292,44.6417,-32.8417,-7829,-28803
1668,37182,0,0,0,-101.261,-88.418,-137.928,9.8335,-0.253613,-0.0334961,0.339905,0.611694,-0.358429,0.617828,-116.283,44.6083,-32.8083,-7829,-28803
1674,37188,0,0,0,-101.255,-88.418,-137.928,9.81914,-0.263184,-0.0478516,0.339905,0.611694,-0.358429,0.617828,-116.275,44.5583,-32.7333,-7829,-28803
1680,37194,0,0,0,-101.255,-88.418,-137.922,9.80957,-0.287109,-0.0382813,0.339874,0.611694,-0.358398,0.617859,-116.275,44.55,-32.725,-7829,-28803
1686,37200,0,0,0,-101.25,-88.418,-137.928,9.80479,-0.258398,-0.062207,0.339874,0.611725,-0.358368,0.617859,-116.275,44.5583,-32.7333,-7829,-28803
1692,37206,0,0,0,-101.25,-88.418,-137.928,9.80479,-0.282324,-0.0574219,0.339844,0.611725,-0.358368,0.617859,-116.275,44.5833,-32.7417,-7829,-28803
1698,37212,0,0,0,-101.25,-88.418,-137.928,9.80479,-0.277539,-0.0526367,0.339844,0.611725,-0.358337,0.617859,-116.267,44.6083,-32.7583,-7829,-28803
1704,37218,0,0,0,-101.245,-88.418,-137.928,9.82393,-0.258398,-0.0574219,0.339813,0.611725,-0.358337,0.617889,-116.283,44.65,-32.7917,-7829,-28803
1710,37224,0,0,0,-101.245,-88.418,-137.928,9.80957,-0.267969,-0.0717773,0.339813,0.611755,-0.358337,0.617889,-116.283,44.6417,-32.8167,-7829,-28803
1716,37230,0,0,0,-101.239,-88.418,-137.928,9.81914,-0.258398,-0.062207,0.339813,0.611755,-0.358307,0.617889,-116.283,44.6333,-32.8417,-7829,-28803
1722,37236,0,0,0,-101.239,-88.418,-137.928,9.81436,-0.258398,-0.0574219,0.339813,0.611755,-0.358307,0.617889,-116.292,44.625,-32.8583,-7829,-28803
1728,37242,0,0,0,-101.239,-88.418,-137.922,9.82393,-0.258398,-0.0478516,0.339813,0.611755,-0.358307,0.617889,-116.3,44.6083,-32.7917,-7829,-28803
1734,37248,0,0,0,-101.239,-88.418,-137.928,9.80479,-0.267969,-0.0478516,0.339783,0.611755,-0.358307,0.617889,-116.292,44.6333,-32.675,-7829,-28803
1740,37254,0,0,0,-101.239,-88.418,-137.928,9.80957,-0.263184,-0.0526367,0.339813,0.611755,-0.358307,0.617889,-116.275,44.65,-32.65,-7829,-28803
1746,37260,0,0,0,-101.239,-88.418,-137.928,9.82871,-0.263184,-0.0765625,0.339813,0.611755,-0.358307,0.617889,-116.25,44.675,-32.6583,-7829,-28803
1752,37266,0,0,0,-101.245,-88.418,-137.928,9.81914,-0.267969,-0.0430664,0.339813,0.611755,-0.358307,0.617889,-116.25,44.6917,-32.6833,-7829,-28803
1758,37272,0,0,0,-101.245,-88.418,-137.928,9.81436,-0.267969,-0.0574219,0.339813,0.611755,-0.358337,0.617889,-116.275,44.6917,-32.6917,-7829,-28803
1764,37278,0,0,0,-101.245,-88.418,-137.928,9.80479,-0.248828,-0.0478516,0.339813,0.611755,-0.358337,0.617889,-116.325,44.7167,-32.7,-7829,-28803
1770,37284,0,0,0,-101.245,-88.418,-137.928,9.8,-0.272754,-0.0717773,0.339844,0.611725,-0.358337,0.617859,-116.333,44.7333,-32.725,-7829,-28803
1776,37290,0,0,0,-101.25,-88.418,-137.928,9.82393,-0.263184,-0.0669922,0.339844,0.611725,-0.358337,0.617859,-116.342,44.7333,-32.7333,-7829,-28803
1782,37296,0,0,0,-101.25,-88.418,-137.928,9.82393,-0.258398,-0.0717773,0.339844,0.611725,-0.358368,0.617859,-116.325,44.7417,-32.8,-7829,-28803
1788,37302,0,0,0,-101.255,-88.418,-137.928,9.81436,-0.277539,-0.0669922,0.339874,0.611725,-0.358368,0.617859,-116.317,44.7417,-32.85,-7829,-28803
1794,37308,0,0,0,-101.261,-88.418,-137.928,9.80957,-0.267969,-0.0526367,0.339905,0.611694,-0.358429,0.617828,-116.267,44.7333,-32.9167,-7829,-28803
1800,37314,0,0,0,-101.261,-88.418,-137.928,9.7665,-0.282324,-0.0765625,0.339905,0.611694,-0.358429,0.617828,-116.275,44.7583,-32.9333,-7829,-28803
1806,37320,0,0,0,-101.266,-88.418,-137.928,9.80957,-0.277539,-0.062207,0.339935,0.611664,-0.358459,0.617798,-116.275,44.7667,-32.925,-7829,-28803
1812,37326,0,0,0,-101.272,-88.418,-137.928,9.8,-0.253613,-0.0334961,0.339966,0.611664,-0.358459,0.617798,-116.275,44.775,-32.9417,-7829,-28803
1818,37332,0,0,0,-101.272,-88.418,-137.928,9.80479,-0.267969,-0.0382813,0.339966,0.611664,-0.35849,0.617798,-116.275,44.7833,-32.9417,-7829,-28803
1824,37338,0,0,0,-101.277,-88.418,-137.928,9.80479,-0.234473,-0.0334961,0.339996,0.611633,-0.358521,0.617767,-116.267,44.7667,-32.9167,-7829,-28803
1830,37344,0,0,0,-101.277,-88.418,-137.928,9.82871,-0.277539,-0.062207,0.339996,0.611633,-0.358521,0.617767,-116.275,44.7583,-32.9,-7829,-28803
1836,37350,0,0,0,-101.277,-88.418,-137.928,9.82871,-0.282324,-0.0478516,0.339996,0.611633,-0.358521,0.617767,-116.275,44.7583,-32.875,-7829,-28803
1842,37356,0,0,0,-101.283,-88.418,-137.928,9.81436,-0.277539,-0.0334961,0.340027,0.611633,-0.358521,0.617767,-116.292,44.7583,-32.8417,-7829,-28803
1848,37362,0,0,0,-101.283,-88.418,-137.928,9.80957,-0.263184,-0.0478516,0.340027,0.611633,-0.358521,0.617767,-116.317,44.75,-32.825,-7829,-28803
1854,37368,0,0,0,-101.283,-88.418,-137.928,9.79521,-0.277539,-0.0813477,0.340027,0.611633,-0.358551,0.617767,-116.308,44.7083,-32.825,-7829,-28803
1860,37374,0,0,0,-101.283,-88.418,-137.928,9.80957,-0.277539,-0.062207,0.340027,0.611633,-0.358551,0.617767,-116.308,44.6917,-32.85,-7829,-28803
1866,37380,0,0,0,-101.283,-88.418,-137.928,9.80479,-0.263184,-0.0239258,0.340027,0.611603,-0.358551,0.617737,-116.3,44.675,-32.8417,-7829,-28803
1872,37386,0,0,0,-101.288,-88.418,-137.928,9.8,-0.244043,-0.0574219,0.340057,0.611603,-0.358551,0.617737,-116.308,44.6667,-32.825,-7829,-28803
1878,37392,0,0,0,-101.288,-88.418,-137.928,9.79521,-0.272754,-0.0382813,0.340057,0.611603,-0.358582,0.617737,-116.325,44.6667,-32.825,-7829,-28803
1884,37398,0,0,0,-101.288,-88.418,-137.928,9.80957,-0.253613,-0.0478516,0.340057,0.611603,-0.358582,0.617737,-116.358,44.6917,-32.8833,-7829,-28803
1890,37404,0,0,0,-101.288,-88.418,-137.928,9.80957,-0.287109,-0.0430664,0.340057,0.611603,-0.358582,0.617737,-116.367,44.6917,-32.9417,-7829,-28803
1896,37410,0,0,0,-101.288,-88.418,-137.928,9.82393,-0.253613,-0.0382813,0.340057,0.611603,-0.358582,0.617737,-116.367,44.7083,-32.9833,-7829,-28803
1902,37416,0,0,0,-101.288,-88.418,-137.928,9.83828,-0.263184,-0.062207,0.340057,0.611603,-0.358582,0.617737,-116.358,44.7,-33.0167,-7829,-28803
1908,37422,0,0,0,-101.288,-88.418,-137.928,9.8,-0.291895,-0.0430664,0.340057,0.611603,-0.358582,0.617737,-116.375,44.7,-33.0333,-7829,-28803
1914,37428,0,0,0,-101.288,-88.418,-137.928,9.82871,-0.248828,-0.0478516,0.340057,0.611603,-0.358582,0.617737,-116.383,44.7167,-33.1167,-7829,-28803
1920,37434,0,0,0,-101.288,-88.418,-137.928,9.8335,-0.258398,-0.0478516,0.340057,0.611603,-0.358582,0.617737,-116.392,44.7333,-33.15,-7829,-28803
1926,37440,0,0,0,-101.288,-88.418,-137.928,9.82393,-0.258398,-0.0765625,0.340057,0.611603,-0.358582,0.617737,-116.383,44.725,-33.2,-7829,-28803
1932,37446,0,0,0,-101.288,-88.418,-137.928,9.81914,-0.258398,-0.0287109,0.340057,0.611603,-0.358582,0.617737,-116.367,44.7333,-33.2333,-7829,-28803
1938,37452,0,0,0,-101.288,-88.418,-137.928,9.81914,-0.267969,0,0.340057,0.611603,-0.358582,0.617737,-116.367,44.725,-33.2333,-7821,-28804
1944,37458,0,0,0,-101.283,-88.418,-137.928,9.8,-0.239258,-0.0334961,0.340027,0.611633,-0.358551,0.617737,-116.35,44.7,-33.225,-7821,-28804
1950,37464,0,0,0,-101.283,-88.418,-137.928,9.79043,-0.277539,-0.0430664,0.340027,0.611633,-0.358551,0.617767,-116.333,44.6917,-33.2083,-7821,-28804
1956,37470,0,0,0,-101.277,-88.418,-137.928,9.8,-0.248828,-0.0239258,0.339996,0.611633,-0.358521,0.617767,-116.317,44.6583,-33.225,-7821,-28804
1962,37476,0,0,0,-101.277,-88.418,-137.928,9.80957,-0.282324,-0.0430664,0.339996,0.611633,-0.358521,0.617767,-116.292,44.6333,-33.25,-7821,-28804
1968,37482,0,0,0,-101.272,-88.418,-137.928,9.80957,-0.263184,-0.0574219,0.339966,0.611664,-0.35849,0.617798,-116.267,44.6333,-33.2917,-7821,-28804
1974,37488,0,0,0,-101.266,-88.418,-137.928,9.80957,-0.248828,-0.062207,0.339935,0.611664,-0.358459,0.617798,-116.258,44.6417,-33.35,-7821,-28804
1980,37494,0,0,0,-101.266,-88.418,-137.928,9.79521,-0.244043,-0.0526367,0.339935,0.611694,-0.358459,0.617828,-116.292,44.65,-33.3667,-7821,-28804
1986,37500,0,0,0,-101.261,-88.418,-137.928,9.81436,-0.263184,-0.0287109,0.339935,0.611694,-0.358429,0.617828,-116.3,44.65,-33.3667,-7821,-28804
1992,37506,0,0,0,-101.261,-88.418,-137.928,9.81436,-0.277539,-0.0478516,0.339905,0.611694,-0.358429,0.617828,-116.3,44.65,-33.375,-7821,-28804
1998,37512,0,0,0,-101.255,-88.418,-137.928,9.8,-0.272754,-0.0478516,0.339905,0.611694,-0.358398,0.617828,-116.283,44.675,-33.3917,-7821,-28804
2004,37518,0,0,0,-101.25,-88.418,-137.928,9.82393,-0.282324,-0.062207,0.339874,0.611725,-0.358368,0.617859,-116.25,44.7167,-33.4083,-7821,-28804
2010,37524,0,0,0,-101.25,-88.418,-137.928,9.8,-0.258398,-0.0334961,0.339844,0.611725,-0.358368,0.617859,-116.225,44.7167,-33.3833,-7821,-28804
2016,37530,0,0,0,-101.25,-88.418,-137.928,9.80957,-0.267969,-0.0478516,0.339844,0.611725,-0.358337,0.617859,-116.208,44.7083,-33.3583,-7821,-28804
2022,37536,0,0,0,-101.245,-88.418,-137.928,9.80479,-0.263184,-0.062207,0.339844,0.611725,-0.358337,0.617859,-116.175,44.7,-33.3917,-7821,-28804
2028,37542,0,0,0,-101.245,-88.418,-137.928,9.82393,-0.267969,-0.0239258,0.339813,0.611755,-0.358337,0.617889,-116.133,44.675,-33.4,-7821,-28804
2034,37548,0,0,0,-101.239,-88.418,-137.928,9.8,-0.253613,-0.062207,0.339783,0.611755,-0.358307,0.617889,-116.1,44.6833,-33.4,-7821,-28804
2040,37554,0,0,0,-101.239,-88.418,-137.928,9.81914,-0.287109,-0.0526367,0.339783,0.611755,-0.358307,0.617889,-116.108,44.6917,-33.3583,-7821,-28804
2046,37560,0,0,0,-101.239,-88.418,-137.928,9.80479,-0.263184,-0.0478516,0.339783,0.611755,-0.358276,0.617889,-116.117,44.7167,-33.3083,-7821,-28804
2052,37566,0,0,0,-101.234,-88.418,-137.928,9.8,-0.244043,-0.0669922,0.339783,0.611755,-0.358276,0.61792,-116.125,44.7333,-33.275,-7821,-28804
2058,37572,0,0,0,-101.234,-88.418,-137.928,9.82393,-0.272754,-0.0526367,0.339783,0.611755,-0.358276,0.61792,-116.15,44.725,-33.2333,-7821,-28804
2064,37578,0,0,0,-101.234,-88.418,-137.928,9.81436,-0.258398,-0.0191406,0.339752,0.611786,-0.358276,0.61792,-116.217,44.7083,-33.1667,-7821,-28804
2070,37584,0,0,0,-101.234,-88.418,-137.928,9.82871,-0.258398,-0.0574219,0.339752,0.611786,-0.358276,0.61792,-116.267,44.7,-33.1417,-7829,-28803
2076,37590,0,0,0,-101.234,-88.418,-137.928,9.8,-0.248828,-0.0861328,0.339752,0.611786,-0.358276,0.61792,-116.308,44.7,-33.125,-7829,-28803
2082,37596,0,0,0,-101.234,-88.418,-137.928,9.8,-0.258398,-0.0717773,0.339752,0.611786,-0.358276,0.61792,-116.325,44.725,-33.1333,-7829,-28803
2088,37602,0,0,0,-101.234,-88.418,-137.928,9.82871,-0.263184,-0.0526367,0.339752,0.611786,-0.358276,0.61792,-116.333,44.75,-33.1333,-7829,-28803
2094,37608,0,0,0,-101.234,-88.418,-137.928,9.80479,-0.277539,-0.0574219,0.339783,0.611755,-0.358276,0.617889,-116.317,44.7833,-33.1,-7829,-28803
2100,37614,0,0,0,-101.239,-88.418,-137.928,9.80479,-0.291895,-0.0334961,0.339783,0.611755,-0.358307,0.617889,-116.3,44.7833,-33.1,-7829,-28803
2106,37620,0,0,0,-101.239,-88.418,-137.928,9.81436,-0.258398,-0.0813477,0.339783,0.611755,-0.358307,0.617889,-116.283,44.7917,-33.0917,-7829,-28803
2112,37626,0,0,0,-101.239,-88.418,-137.928,9.80479,-0.267969,-0.0717773,0.339813,0.611755,-0.358307,0.617889,-116.267,44.8,-33.0833,-7829,-28803
2118,37632,0,0,0,-101.245,-88.418,-137.928,9.80957,-0.248828,-0.0669922,0.339813,0.611755,-0.358337,0.617889,-116.25,44.8083,-33.0583,-7829,-28803
2124,37638,0,0,0,-101.25,-88.418,-137.928,9.80479,-0.263184,-0.062207,0.339844,0.611725,-0.358368,0.617859,-116.267,44.8167,-32.9917,-7829,-28803
2130,37644,0,0,0,-101.25,-88.418,-137.928,9.80479,-0.272754,-0.0430664,0.339874,0.611725,-0.358368,0.617859,-116.283,44.775,-32.9417,-7829,-28803
2136,37650,0,0,0,-101.255,-88.418,-137.928,9.78564,-0.258398,-0.0861328,0.339874,0.611694,-0.358398,0.617859,-116.3,44.7333,-32.8833,-7829,-28803
2142,37656,0,0,0,-101.255,-88.418,-137.928,9.8,-0.258398,-0.0526367,0.339905,0.611694,-0.358398,0.617828,-116.308,44.7083,-32.875,-7829,-28803
2148,37662,0,0,0,-101.266,-88.418,-137.928,9.81436,-0.277539,-0.0526367,0.339905,0.611694,-0.358429,0.617828,-116.3,44.6833,-32.8667,-7829,-28803
2154,37668,0,0,0,-101.266,-88.418,-137.928,9.80957,-0.267969,-0.062207,0.339935,0.611664,-0.358459,0.617798,-116.3,44.6417,-32.8917,-7829,-28803
2160,37674,0,0,0,-101.272,-88.418,-137.928,9.8,-0.258398,-0.0526367,0.339966,0.611664,-0.35849,0.617798,-116.292,44.625,-32.9083,-7829,-28803
2166,37680,0,0,0,-101.272,-88.418,-137.928,9.80957,-0.267969,-0.062207,0.339996,0.611633,-0.35849,0.617767,-116.292,44.6167,-32.9167,-7829,-28803
2172,37686,0,0,0,-101.277,-88.418,-137.928,9.81914,-0.282324,-0.0334961,0.339996,0.611633,-0.358521,0.617767,-116.283,44.6083,-32.9417,-7821,-28804
2178,37692,0,0,0,-101.283,-88.418,-137.928,9.81914,-0.258398,-0.0430664,0.340027,0.611633,-0.358551,0.617767,-116.3,44.675,-33.0333,-7821,-28804
2184,37698,0,0,0,-101.283,-88.418,-137.928,9.82393,-0.263184,-0.0478516,0.340027,0.611603,-0.358551,0.617737,-116.317,44.6917,-33.0917,-7821,-28804
2190,37704,0,0,0,-101.288,-88.418,-137.928,9.80479,-0.258398,-0.0143555,0.340057,0.611603,-0.358582,0.617737,-116.317,44.7,-33.1083,-7821,-28804
2196,37710,0,0,0,-101.288,-88.418,-137.928,9.81436,-0.277539,-0.0574219,0.340057,0.611603,-0.358582,0.617737,-116.317,44.7,-33.15,-7821,-28804
2202,37716,0,0,0,-101.288,-88.418,-137.928,9.83828,-0.263184,-0.0430664,0.340057,0.611603,-0.358582,0.617737,-116.3,44.7083,-33.125,-7821,-28804
2208,37722,0,0,0,-101.288,-88.418,-137.928,9.80479,-0.287109,-0.0765625,0.340057,0.611603,-0.358582,0.617737,-116.292,44.725,-33.1083,-7821,-28804
2214,37728,0,0,0,-101.288,-88.418,-137.928,9.79521,-0.263184,-0.0478516,0.340057,0.611603,-0.358582,0.617737,-116.3,44.725,-33.0833,-7821,-28804
2220,37734,0,0,0,-101.288,-88.418,-137.928,9.78564,-0.234473,-0.0334961,0.340057,0.611603,-0.358582,0.617737,-116.325,44.7333,-33.0833,-7821,-28804
2226,37740,0,0,0,-101.288,-88.418,-137.922,9.8,-0.263184,-0.0382813,0.340057,0.611603,-0.358582,0.617737,-116.35,44.7167,-33.025,-7821,-28804
2232,37746,0,0,0,-101.288,-88.418,-137.928,9.8,-0.244043,-0.0717773,0.340057,0.611603,-0.358582,0.617737,-116.383,44.7083,-32.9917,-7821,-28804
2238,37752,0,0,0,-101.288,-88.418,-137.928,9.80957,-0.239258,-0.062207,0.340057,0.611603,-0.358582,0.617737,-116.408,44.7083,-33.025,-7821,-28804
2244,37758,0,0,0,-101.288,-88.418,-137.922,9.79521,-0.282324,-0.0574219,0.340057,0.611603,-0.358582,0.617737,-116.4,44.725,-33.0667,-7821,-28804
2250,37764,0,0,0,-101.294,-88.418,-137.928,9.81914,-0.267969,-0.0334961,0.340088,0.611603,-0.358582,0.617737,-116.4,44.7417,-33.1667,-7821,-28804
2256,37770,0,0,0,-101.294,-88.418,-137.928,9.80957,-0.263184,-0.0430664,0.340088,0.611603,-0.358582,0.617737,-116.392,44.775,-33.225,-7821,-28804
2262,37776,0,0,0,-101.294,-88.418,-137.928,9.8335,-0.258398,-0.0717773,0.340088,0.611603,-0.358612,0.617737,-116.408,44.7917,-33.3083,-7821,-28804
2268,37782,0,0,0,-101.294,-88.418,-137.928,9.81914,-0.277539,-0.0382813,0.340088,0.611603,-0.358612,0.617737,-116.433,44.8167,-33.4,-7821,-28804
2274,37788,0,0,0,-101.294,-88.418,-137.928,9.81436,-0.272754,-0.0430664,0.340088,0.611603,-0.358612,0.617706,-116.425,44.8167,-33.4417,-7821,-28804
2280,37794,0,0,0,-101.294,-88.418,-137.928,9.80957,-0.287109,-0.0526367,0.340088,0.611603,-0.358612,0.617706,-116.417,44.8167,-33.4417,-7821,-28804
2286,37800,0,0,0,-101.294,-88.418,-137.922,9.79043,-0.267969,-0.0669922,0.340088,0.611603,-0.358612,0.617706,-116.408,44.8167,-33.4,-7821,-28804
2292,37806,0,0,0,-101.294,-88.418,-137.928,9.80479,-0.253613,-0.0478516,0.340088,0.611603,-0.358612,0.617706,-116.417,44.825,-33.3167,-7821,-28804
2298,37812,0,0,0,-101.294,-88.418,-137.922,9.79043,-0.267969,-0.0526367,0.340088,0.611603,-0.358612,0.617706,-116.467,44.8417,-33.0667,-7821,-28804
2304,37818,0,0,0,-101.299,-88.418,-137.922,9.79521,-0.248828,-0.0382813,0.340088,0.611572,-0.358612,0.617706,-116.5,44.8417,-32.9417,-7821,-28804
2310,37824,0,0,0,-101.299,-88.418,-137.922,9.79043,-0.258398,-0.062207,0.340118,0.611572,-0.358612,0.617706,-116.525,44.85,-32.8833,-7821,-28804
2316,37830,0,0,0,-101.299,-88.418,-137.928,9.80957,-0.248828,-0.0717773,0.340118,0.611572,-0.358643,0.617706,-116.525,44.825,-32.8833,-7821,-28804
2322,37836,0,0,0,-101.299,-88.418,-137.928,9.82393,-0.239258,-0.062207,0.340118,0.611572,-0.358643,0.617706,-116.525,44.825,-32.8917,-7821,-28804
2328,37842,0,0,0,-101.305,-88.418,-137.928,9.80957,-0.263184,-0.0574219,0.340118,0.611572,-0.358643,0.617706,-116.483,44.8167,-32.8583,-7821,-28804
2334,37848,0,0,0,-101.31,-88.418,-137.928,9.82871,-0.277539,-0.0574219,0.340149,0.611542,-0.358673,0.617676,-116.458,44.8333,-32.8,-7821,-28804
2340,37854,0,0,0,-101.31,-88.418,-137.928,9.82871,-0.282324,-0.0478516,0.340179,0.611542,-0.358704,0.617676,-116.425,44.8417,-32.75,-7821,-28804
2346,37860,0,0,0,-101.316,-88.418,-137.928,9.80957,-0.282324,-0.0334961,0.340179,0.611542,-0.358704,0.617645,-116.408,44.8417,-32.75,-7821,-28804
2352,37866,0,0,0,-101.316,-88.418,-137.928,9.83828,-0.263184,-0.0430664,0.34021,0.611542,-0.358734,0.617645,-116.392,44.8333,-32.775,-7821,-28804
2358,37872,0,0,0,-101.321,-88.418,-137.928,9.81436,-0.267969,-0.0669922,0.34021,0.611511,-0.358734,0.617645,-116.392,44.8167,-32.9167,-7821,-28804
2364,37878,0,0,0,-101.321,-88.418,-137.928,9.80479,-0.282324,-0.0717773,0.34024,0.611511,-0.358734,0.617645,-116.392,44.825,-33.0083,-7821,-28804
2370,37884,0,0,0,-101.321,-88.418,-137.922,9.82871,-0.263184,-0.0526367,0.34024,0.611511,-0.358765,0.617645,-116.4,44.825,-33.075,-7821,-28804
2376,37890,0,0,0,-101.327,-88.418,-137.922,9.81436,-0.287109,-0.0717773,0.34024,0.611511,-0.358765,0.617615,-116.408,44.825,-33.1167,-7821,-28804
2382,37896,0,0,0,-101.327,-88.418,-137.928,9.79521,-0.277539,-0.0669922,0.340271,0.611481,-0.358795,0.617615,-116.4,44.8333,-33.125,-7821,-28804
2388,37902,0,0,0,-101.338,-88.418,-137.928,9.80957,-0.263184,-0.062207,0.340271,0.611481,-0.358795,0.617615,-116.375,44.875,-33.1167,-7821,-28804
2394,37908,0,0,0,-101.338,-88.418,-137.928,9.80479,-0.263184,-0.0669922,0.340332,0.61145,-0.358856,0.617584,-116.375,44.9,-33.1333,-7829,-28803
2400,37914,0,0,0,-101.343,-88.418,-137.928,9.80957,-0.287109,-0.0717773,0.340332,0.61145,-0.358887,0.617554,-116.392,44.9167,-33.1583,-7829,-28803
2406,37920,0,0,0,-101.349,-88.418,-137.928,9.83828,-0.248828,-0.0478516,0.340363,0.61142,-0.358887,0.617554,-116.408,44.925,-33.1667,-7829,-28803
2412,37926,0,0,0,-101.354,-88.418,-137.928,9.81914,-0.258398,-0.0430664,0.340393,0.61142,-0.358917,0.617554,-116.425,44.9333,-33.2,-7829,-28803
