TimeSinceCollection,Timestamp,AccX,AccY,AccZ,AngleRoll,AnglePitch,AngleYaw,AngularVelX,AngularVelY,AngularVelZ,Q1,Q2,Q3,Q4,MagX,MagY,MagZ,Height,Airpressure
0,61758,0,0,0,-124.42,-89.1156,-172.853,9.81436,-0.129199,-0.0669922,0.598785,0.365753,-0.608704,0.370209,-115.642,44.9167,-30.6167,-7094,-28892
6,61764,0,0,0,-124.42,-89.1156,-172.848,9.81914,-0.13877,-0.0574219,0.598785,0.365753,-0.608673,0.370209,-115.625,44.875,-30.6,-7094,-28892
12,61770,0,0,0,-124.409,-89.1211,-172.848,9.8335,-0.124414,-0.0669922,0.598785,0.365784,-0.608673,0.370239,-115.6,44.8583,-30.5833,-7094,-28892
18,61776,0,0,0,-124.409,-89.1211,-172.848,9.82871,-0.105273,-0.090918,0.598755,0.365814,-0.608643,0.37027,-115.6,44.8667,-30.5917,-7094,-28892
24,61782,0,0,0,-124.409,-89.1211,-172.848,9.81436,-0.13877,-0.129199,0.598755,0.365814,-0.608643,0.37027,-115.592,44.8917,-30.6083,-7094,-28892
30,61788,0,0,0,-124.409,-89.1211,-172.853,9.81914,-0.129199,-0.0765625,0.598755,0.365814,-0.608643,0.37027,-115.575,44.9083,-30.6417,-7094,-28892
36,61794,0,0,0,-124.404,-89.1211,-172.848,9.83828,-0.124414,-0.110059,0.598755,0.365814,-0.608643,0.37027,-115.558,44.9167,-30.6667,-7094,-28892
42,61800,0,0,0,-124.409,-89.1211,-172.853,9.80957,-0.124414,-0.090918,0.598755,0.365814,-0.608643,0.37027,-115.575,44.9167,-30.6833,-7094,-28892
48,61806,0,0,0,-124.409,-89.1211,-172.853,9.81914,-0.13877,-0.090918,0.598755,0.365814,-0.608643,0.370239,-115.6,44.9083,-30.6583,-7094,-28892
54,61812,0,0,0,-124.409,-89.1211,-172.853,9.8,-0.13877,-0.0765625,0.598785,0.365784,-0.608673,0.370239,-115.633,44.9167,-30.6083,-7094,-28892
60,61818,0,0,0,-124.415,-89.1211,-172.853,9.82393,-0.133984,-0.0813477,0.598785,0.365784,-0.608673,0.370239,-115.658,44.9167,-30.575,-7094,-28892
66,61824,0,0,0,-124.415,-89.1211,-172.853,9.8,-0.0957031,-0.0717773,0.598785,0.365784,-0.608673,0.370239,-115.65,44.9083,-30.5417,-7094,-28892
72,61830,0,0,0,-124.415,-89.1211,-172.853,9.81914,-0.110059,-0.0669922,0.598785,0.365784,-0.608673,0.370209,-115.633,44.9167,-30.4917,-7094,-28892
78,61836,0,0,0,-124.415,-89.1211,-172.848,9.80957,-0.0957031,-0.0861328,0.598785,0.365784,-0.608673,0.370209,-115.633,44.9167,-30.4917,-7094,-28892
84,61842,0,0,0,-124.415,-89.1211,-172.853,9.80957,-0.124414,-0.129199,0.598785,0.365753,-0.608673,0.370209,-115.642,44.925,-30.45,-7094,-28892
90,61848,0,0,0,-124.42,-89.1211,-172.853,9.79521,-0.124414,-0.0813477,0.598816,0.365753,-0.608704,0.370178,-115.658,44.9167,-30.4333,-7094,-28892
96,61854,0,0,0,-124.426,-89.1211,-172.853,9.82393,-0.129199,-0.0861328,0.598816,0.365723,-0.608704,0.370178,-115.658,44.9083,-30.4,-7094,-28892
102,61860,0,0,0,-124.431,-89.1211,-172.853,9.81914,-0.124414,-0.0813477,0.598846,0.365692,-0.608734,0.370148,-115.642,44.8833,-30.425,-7094,-28892
108,61866,0,0,0,-124.437,-89.1211,-172.853,9.80479,-0.129199,-0.0861328,0.598846,0.365662,-0.608734,0.370117,-115.625,44.8667,-30.4583,-7094,-28892
114,61872,0,0,0,-124.437,-89.1211,-172.853,9.80957,-0.119629,-0.0861328,0.598846,0.365662,-0.608734,0.370087,-115.6,44.85,-30.5083,-7094,-28892
120,61878,0,0,0,-124.442,-89.1211,-172.853,9.81914,-0.090918,-0.0765625,0.598877,0.365631,-0.608765,0.370087,-115.575,44.8417,-30.5583,-7094,-28892
126,61884,0,0,0,-124.448,-89.1156,-172.853,9.82393,-0.124414,-0.114844,0.598877,0.365601,-0.608765,0.370056,-115.558,44.8333,-30.575,-7094,-28892
132,61890,0,0,0,-124.459,-89.1211,-172.853,9.79521,-0.110059,-0.0765625,0.598907,0.36557,-0.608795,0.369995,-115.542,44.7917,-30.5917,-7094,-28892
138,61896,0,0,0,-124.459,-89.1211,-172.853,9.81436,-0.13877,-0.105273,0.598938,0.36554,-0.608826,0.369965,-115.533,44.7917,-30.5417,-7094,-28892
144,61902,0,0,0,-124.464,-89.1211,-172.853,9.82871,-0.133984,-0.090918,0.598938,0.365509,-0.608826,0.369965,-115.533,44.7833,-30.525,-7094,-28892
150,61908,0,0,0,-124.47,-89.1211,-172.853,9.81914,-0.114844,-0.062207,0.598969,0.365479,-0.608856,0.369934,-115.542,44.7833,-30.5167,-7094,-28892
156,61914,0,0,0,-124.475,-89.1156,-172.853,9.8335,-0.129199,-0.0861328,0.598969,0.365448,-0.608856,0.369904,-115.533,44.7833,-30.5167,-7094,-28892
162,61920,0,0,0,-124.481,-89.1156,-172.853,9.82871,-0.129199,-0.0765625,0.598999,0.365417,-0.608887,0.369873,-115.533,44.8,-30.6167,-7094,-28892
168,61926,0,0,0,-124.486,-89.1211,-172.853,9.82871,-0.133984,-0.0717773,0.598999,0.365417,-0.608887,0.369843,-115.525,44.8083,-30.6583,-7094,-28892
174,61932,0,0,0,-124.486,-89.1156,-172.853,9.81436,-0.114844,-0.0669922,0.598999,0.365387,-0.608917,0.369843,-115.533,44.825,-30.7167,-7094,-28892
180,61938,0,0,0,-124.492,-89.1156,-172.853,9.85264,-0.119629,-0.0861328,0.59903,0.365387,-0.608917,0.369812,-115.55,44.85,-30.7917,-7094,-28892
186,61944,0,0,0,-124.492,-89.1156,-172.853,9.81436,-0.133984,-0.0765625,0.59903,0.365356,-0.608917,0.369812,-115.558,44.8667,-30.8417,-7094,-28892
192,61950,0,0,0,-124.497,-89.1211,-172.853,9.81436,-0.124414,-0.0861328,0.59903,0.365356,-0.608948,0.369781,-115.567,44.8917,-30.875,-7094,-28892
198,61956,0,0,0,-124.497,-89.1156,-172.853,9.80957,-0.105273,-0.0717773,0.59906,0.365326,-0.608948,0.369781,-115.575,44.9,-30.8333,-7094,-28892
204,61962,0,0,0,-124.503,-89.1156,-172.853,9.79521,-0.110059,-0.0574219,0.59906,0.365326,-0.608948,0.369781,-115.575,44.9083,-30.8333,-7094,-28892
210,61968,0,0,0,-124.503,-89.1211,-172.853,9.8335,-0.110059,-0.0669922,0.59906,0.365326,-0.608948,0.369751,-115.583,44.9167,-30.875,-7094,-28892
216,61974,0,0,0,-124.503,-89.1156,-172.853,9.82393,-0.105273,-0.0765625,0.59906,0.365326,-0.608948,0.369751,-115.575,44.925,-30.9417,-7094,-28892
222,61980,0,0,0,-124.503,-89.1156,-172.853,9.79521,-0.110059,-0.0669922,0.59906,0.365295,-0.608948,0.369751,-115.6,44.9333,-31.0583,-7094,-28892
228,61986,0,0,0,-124.503,-89.1211,-172.853,9.77129,-0.110059,-0.0765625,0.59906,0.365295,-0.608978,0.369751,-115.617,44.925,-31.075,-7094,-28892
234,61992,0,0,0,-124.503,-89.1211,-172.853,9.82871,-0.119629,-0.0669922,0.59906,0.365295,-0.608978,0.369751,-115.625,44.9167,-31.0667,-7094,-28892
240,61998,0,0,0,-124.503,-89.1211,-172.853,9.80479,-0.119629,-0.0669922,0.59906,0.365295,-0.608978,0.369751,-115.625,44.9,-31.05,-7094,-28892
246,62004,0,0,0,-124.503,-89.1211,-172.853,9.81914,-0.114844,-0.090918,0.59906,0.365295,-0.608948,0.369751,-115.633,44.8917,-31.0083,-7094,-28892
252,62010,0,0,0,-124.503,-89.1211,-172.853,9.80957,-0.114844,-0.090918,0.59906,0.365295,-0.608948,0.369751,-115.65,44.8583,-30.9667,-7094,-28892
258,62016,0,0,0,-124.503,-89.1211,-172.853,9.80479,-0.124414,-0.0669922,0.59906,0.365295,-0.608948,0.369751,-115.658,44.8417,-30.9417,-7094,-28892
264,62022,0,0,0,-124.503,-89.1211,-172.853,9.80957,-0.13877,-0.0813477,0.59906,0.365295,-0.608948,0.369751,-115.667,44.8167,-30.9167,-7094,-28892
270,62028,0,0,0,-124.503,-89.1211,-172.853,9.82393,-0.100488,-0.0861328,0.59906,0.365326,-0.608948,0.369751,-115.675,44.8083,-30.9,-7094,-28892
276,62034,0,0,0,-124.503,-89.1211,-172.853,9.81436,-0.0957031,-0.090918,0.59906,0.365326,-0.608948,0.369751,-115.667,44.7917,-30.8917,-7094,-28892
282,62040,0,0,0,-124.508,-89.1211,-172.853,9.78564,-0.105273,-0.0861328,0.599091,0.365295,-0.608978,0.36972,-115.633,44.75,-30.9167,-7094,-28892
288,62046,0,0,0,-124.508,-89.1211,-172.853,9.82393,-0.13877,-0.090918,0.599091,0.365295,-0.608978,0.36972,-115.625,44.7417,-30.9167,-7094,-28892
294,62052,0,0,0,-124.514,-89.1211,-172.853,9.81436,-0.105273,-0.105273,0.599091,0.365265,-0.608978,0.36969,-115.625,44.7167,-30.8917,-7094,-28892
300,62058,0,0,0,-124.514,-89.1211,-172.853,9.81436,-0.114844,-0.0957031,0.599121,0.365234,-0.609009,0.36969,-115.65,44.725,-30.875,-7094,-28892
306,62064,0,0,0,-124.525,-89.1211,-172.853,9.8,-0.114844,-0.110059,0.599121,0.365234,-0.609009,0.369659,-115.658,44.7167,-30.8333,-7094,-28892
312,62070,0,0,0,-124.53,-89.1211,-172.853,9.81436,-0.119629,-0.110059,0.599152,0.365173,-0.609039,0.369598,-115.683,44.6917,-30.8417,-7094,-28892
318,62076,0,0,0,-124.536,-89.1211,-172.853,9.8,-0.133984,-0.0717773,0.599182,0.365143,-0.60907,0.369568,-115.675,44.6833,-30.8417,-7094,-28892
324,62082,0,0,0,-124.541,-89.1211,-172.853,9.80479,-0.13877,-0.0765625,0.599182,0.365112,-0.60907,0.369537,-115.658,44.7,-30.8417,-7094,-28892
330,62088,0,0,0,-124.547,-89.1211,-172.853,9.80957,-0.0957031,-0.0957031,0.599213,0.365082,-0.6091,0.369537,-115.642,44.7167,-30.8667,-7094,-28892
336,62094,0,0,0,-124.557,-89.1211,-172.853,9.82393,-0.124414,-0.105273,0.599213,0.365051,-0.6091,0.369507,-115.633,44.7333,-30.8417,-7094,-28892
342,62100,0,0,0,-124.563,-89.1211,-172.853,9.80957,-0.119629,-0.0765625,0.599274,0.365021,-0.609131,0.369446,-115.633,44.7583,-30.8,-7094,-28892
348,62106,0,0,0,-124.568,-89.1211,-172.853,9.83828,-0.124414,-0.0861328,0.599274,0.36499,-0.609161,0.369415,-115.633,44.7833,-30.7583,-7094,-28892
354,62112,0,0,0,-124.568,-89.1211,-172.853,9.82871,-0.110059,-0.0669922,0.599274,0.36496,-0.609161,0.369385,-115.625,44.8083,-30.725,-7094,-28892
360,62118,0,0,0,-124.574,-89.1211,-172.853,9.81436,-0.133984,-0.062207,0.599304,0.364929,-0.609192,0.369354,-115.625,44.8333,-30.6667,-7094,-28892
366,62124,0,0,0,-124.579,-89.1211,-172.853,9.82393,-0.114844,-0.0765625,0.599304,0.364929,-0.609192,0.369354,-115.617,44.8417,-30.6083,-7094,-28892
372,62130,0,0,0,-124.585,-89.1211,-172.853,9.79521,-0.133984,-0.0861328,0.599335,0.364899,-0.609222,0.369324,-115.65,44.825,-30.5667,-7094,-28892
378,62136,0,0,0,-124.585,-89.1211,-172.853,9.81436,-0.129199,-0.0861328,0.599335,0.364899,-0.609222,0.369324,-115.642,44.8167,-30.5917,-7094,-28892
384,62142,0,0,0,-124.585,-89.1211,-172.853,9.80957,-0.114844,-0.0765625,0.599335,0.364868,-0.609222,0.369324,-115.625,44.8167,-30.6583,-7094,-28892
390,62148,0,0,0,-124.585,-89.1211,-172.853,9.82393,-0.13877,-0.0957031,0.599335,0.364868,-0.609222,0.369293,-115.608,44.8083,-30.7,-7094,-28892
396,62154,0,0,0,-124.59,-89.1211,-172.853,9.82871,-0.110059,-0.0861328,0.599335,0.364868,-0.609222,0.369293,-115.583,44.8083,-30.7333,-7094,-28892
402,62160,0,0,0,-124.596,-89.1211,-172.853,9.80957,-0.119629,-0.090918,0.599365,0.364838,-0.609253,0.369263,-115.558,44.7833,-30.75,-7094,-28892
408,62166,0,0,0,-124.596,-89.1211,-172.853,9.81436,-0.110059,-0.0861328,0.599365,0.364807,-0.609253,0.369263,-115.533,44.7583,-30.7583,-7094,-28892
414,62172,0,0,0,-124.601,-89.1211,-172.853,9.80957,-0.119629,-0.105273,0.599396,0.364807,-0.609283,0.369232,-115.525,44.7417,-30.7417,-7094,-28892
420,62178,0,0,0,-124.607,-89.1211,-172.853,9.82393,-0.105273,-0.0861328,0.599396,0.364777,-0.609283,0.369202,-115.525,44.725,-30.7083,-7094,-28892
426,62184,0,0,0,-124.618,-89.1211,-172.853,9.80479,-0.133984,-0.090918,0.599426,0.364746,-0.609314,0.369171,-115.5,44.725,-30.6833,-7094,-28892
432,62190,0,0,0,-124.623,-89.1211,-172.853,9.81914,-0.114844,-0.0765625,0.599457,0.364685,-0.609344,0.36911,-115.492,44.6833,-30.6667,-7094,-28892
438,62196,0,0,0,-124.629,-89.1211,-172.853,9.81436,-0.110059,-0.0765625,0.599487,0.364655,-0.609344,0.36908,-115.492,44.675,-30.7083,-7094,-28892
444,62202,0,0,0,-124.634,-89.1211,-172.853,9.80957,-0.119629,-0.062207,0.599487,0.364624,-0.609375,0.369049,-115.517,44.6583,-30.7167,-7094,-28892
450,62208,0,0,0,-124.64,-89.1211,-172.853,9.80957,-0.119629,-0.0861328,0.599518,0.364624,-0.609375,0.369019,-115.542,44.6667,-30.7083,-7094,-28892
456,62214,0,0,0,-124.645,-89.1211,-172.853,9.80479,-0.14834,-0.105273,0.599518,0.364594,-0.609406,0.369019,-115.558,44.6833,-30.6833,-7094,-28892
462,62220,0,0,0,-124.651,-89.1211,-172.853,9.80957,-0.13877,-0.0669922,0.599548,0.364563,-0.609406,0.368988,-115.583,44.675,-30.6667,-7094,-28892
468,62226,0,0,0,-124.651,-89.1211,-172.853,9.80957,-0.124414,-0.0765625,0.599548,0.364563,-0.609436,0.368958,-115.6,44.65,-30.675,-7094,-28892
474,62232,0,0,0,-124.651,-89.1211,-172.853,9.80479,-0.119629,-0.0478516,0.599548,0.364563,-0.609436,0.368958,-115.608,44.6333,-30.7167,-7094,-28892
480,62238,0,0,0,-124.651,-89.1211,-172.853,9.8,-0.110059,-0.0861328,0.599548,0.364563,-0.609406,0.368988,-115.633,44.6083,-30.75,-7094,-28892
486,62244,0,0,0,-124.651,-89.1211,-172.853,9.79521,-0.110059,-0.105273,0.599548,0.364563,-0.609406,0.368988,-115.617,44.55,-30.7833,-7094,-28892
492,62250,0,0,0,-124.651,-89.1211,-172.853,9.77607,-0.114844,-0.0861328,0.599548,0.364563,-0.609406,0.368988,-115.633,44.55,-30.775,-7094,-28892
498,62256,0,0,0,-124.651,-89.1211,-172.853,9.79521,-0.100488,-0.0861328,0.599548,0.364563,-0.609436,0.368958,-115.65,44.5333,-30.75,-7094,-28892
504,62262,0,0,0,-124.651,-89.1211,-172.853,9.82393,-0.133984,-0.062207,0.599548,0.364532,-0.609436,0.368958,-115.667,44.525,-30.725,-7094,-28892
510,62268,0,0,0,-124.651,-89.1211,-172.853,9.80957,-0.129199,-0.119629,0.599548,0.364532,-0.609436,0.368958,-115.683,44.5333,-30.725,-7094,-28892
516,62274,0,0,0,-124.651,-89.1211,-172.853,9.8,-0.119629,-0.0813477,0.599548,0.364532,-0.609436,0.368958,-115.692,44.6,-30.7667,-7094,-28892
522,62280,0,0,0,-124.656,-89.1211,-172.853,9.81914,-0.143555,-0.062207,0.599548,0.364502,-0.609436,0.368927,-115.683,44.625,-30.825,-7094,-28892
528,62286,0,0,0,-124.656,-89.1211,-172.853,9.8335,-0.133984,-0.105273,0.599579,0.364502,-0.609436,0.368927,-115.658,44.6583,-30.85,-7094,-28892
534,62292,0,0,0,-124.656,-89.1211,-172.853,9.81914,-0.14834,-0.0861328,0.599579,0.364502,-0.609436,0.368927,-115.633,44.6667,-30.8333,-7094,-28892
540,62298,0,0,0,-124.656,-89.1211,-172.853,9.8,-0.105273,-0.0861328,0.599579,0.364502,-0.609467,0.368927,-115.6,44.6583,-30.7833,-7094,-28892
546,62304,0,0,0,-124.662,-89.1211,-172.853,9.79521,-0.14834,-0.090918,0.599579,0.364502,-0.609467,0.368896,-115.608,44.6917,-30.6333,-7094,-28892
552,62310,0,0,0,-124.662,-89.1211,-172.853,9.80479,-0.090918,-0.0813477,0.599579,0.364471,-0.609467,0.368896,-115.625,44.725,-30.5833,-7094,-28892
558,62316,0,0,0,-124.667,-89.1211,-172.853,9.79043,-0.105273,-0.090918,0.599579,0.364471,-0.609467,0.368896,-115.65,44.7583,-30.5583,-7094,-28892
564,62322,0,0,0,-124.667,-89.1211,-172.853,9.81436,-0.143555,-0.0669922,0.599609,0.364441,-0.609467,0.368866,-115.683,44.775,-30.5417,-7094,-28892
570,62328,0,0,0,-124.667,-89.1211,-172.853,9.80957,-0.124414,-0.105273,0.599609,0.364441,-0.609497,0.368866,-115.708,44.7667,-30.5833,-7094,-28892
576,62334,0,0,0,-124.673,-89.1211,-172.853,9.81436,-0.110059,-0.090918,0.599609,0.364441,-0.609497,0.368866,-115.708,44.775,-30.65,-7094,-28892
582,62340,0,0,0,-124.678,-89.1211,-172.853,9.80957,-0.129199,-0.0717773,0.59964,0.36441,-0.609497,0.368835,-115.7,44.775,-30.7167,-7094,-28892
588,62346,0,0,0,-124.678,-89.1211,-172.853,9.81914,-0.143555,-0.0813477,0.59964,0.36441,-0.609497,0.368835,-115.683,44.775,-30.7833,-7094,-28892
594,62352,0,0,0,-124.678,-89.1211,-172.853,9.81914,-0.13877,-0.0813477,0.59964,0.36441,-0.609497,0.368835,-115.675,44.7833,-30.8583,-7094,-28892
600,62358,0,0,0,-124.678,-89.1211,-172.853,9.81914,-0.129199,-0.090918,0.59964,0.36441,-0.609497,0.368835,-115.667,44.775,-30.9167,-7094,-28892
606,62364,0,0,0,-124.678,-89.1211,-172.853,9.80957,-0.110059,-0.0861328,0.59964,0.36441,-0.609497,0.368835,-115.642,44.7583,-30.9167,-7094,-28892
612,62370,0,0,0,-124.678,-89.1211,-172.853,9.80479,-0.124414,-0.0861328,0.59964,0.36441,-0.609528,0.368835,-115.633,44.7583,-30.9,-7102,-28891
618,62376,0,0,0,-124.678,-89.1211,-172.853,9.81914,-0.129199,-0.0957031,0.59964,0.36441,-0.609528,0.368805,-115.625,44.7667,-30.9,-7102,-28891
624,62382,0,0,0,-124.678,-89.1211,-172.853,9.80479,-0.124414,-0.062207,0.59964,0.36438,-0.609528,0.368805,-115.617,44.775,-30.9,-7102,-28891
630,62388,0,0,0,-124.678,-89.1211,-172.853,9.80957,-0.100488,-0.0765625,0.59964,0.36438,-0.609528,0.368805,-115.6,44.7833,-30.8917,-7102,-28891
636,62394,0,0,0,-124.678,-89.1211,-172.853,9.81436,-0.119629,-0.0861328,0.59964,0.36438,-0.609528,0.368805,-115.567,44.7583,-30.8917,-7102,-28891
642,62400,0,0,0,-124.684,-89.1211,-172.853,9.81914,-0.110059,-0.0526367,0.59964,0.36438,-0.609528,0.368805,-115.55,44.75,-30.8833,-7102,-28891
648,62406,0,0,0,-124.684,-89.1211,-172.853,9.82871,-0.0813477,-0.090918,0.59964,0.36438,-0.609528,0.368805,-115.533,44.7417,-30.875,-7102,-28891
654,62412,0,0,0,-124.684,-89.1211,-172.853,9.80957,-0.105273,-0.0669922,0.59964,0.36438,-0.609528,0.368774,-115.533,44.7333,-30.8583,-7102,-28891
660,62418,0,0,0,-124.684,-89.1211,-172.853,9.82393,-0.143555,-0.0861328,0.59964,0.364349,-0.609528,0.368774,-115.542,44.7333,-30.8333,-7102,-28891
666,62424,0,0,0,-124.689,-89.1211,-172.853,9.79043,-0.119629,-0.0861328,0.59967,0.364349,-0.609528,0.368774,-115.558,44.75,-30.7583,-7102,-28891
672,62430,0,0,0,-124.689,-89.1211,-172.853,9.8,-0.133984,-0.0765625,0.59967,0.364349,-0.609558,0.368774,-115.583,44.7667,-30.775,-7102,-28891
678,62436,0,0,0,-124.689,-89.1211,-172.853,9.80957,-0.119629,-0.0669922,0.59967,0.364349,-0.609558,0.368744,-115.592,44.7667,-30.8,-7102,-28891
684,62442,0,0,0,-124.689,-89.1211,-172.853,9.81436,-0.119629,-0.0717773,0.59967,0.364349,-0.609558,0.368744,-115.583,44.7583,-30.8,-7102,-28891
690,62448,0,0,0,-124.689,-89.1211,-172.853,9.80479,-0.110059,-0.0526367,0.59967,0.364349,-0.609558,0.368744,-115.592,44.75,-30.7583,-7102,-28891
696,62454,0,0,0,-124.684,-89.1211,-172.853,9.79521,-0.114844,-0.0765625,0.59967,0.364349,-0.609558,0.368774,-115.575,44.775,-30.7,-7102,-28891
702,62460,0,0,0,-124.684,-89.1211,-172.853,9.80479,-0.110059,-0.0813477,0.59964,0.364349,-0.609528,0.368774,-115.575,44.7833,-30.65,-7102,-28891
708,62466,0,0,0,-124.684,-89.1211,-172.853,9.81914,-0.129199,-0.0861328,0.59964,0.36438,-0.609528,0.368774,-115.567,44.8,-30.6667,-7102,-28891
714,62472,0,0,0,-124.684,-89.1211,-172.853,9.8,-0.110059,-0.0669922,0.59964,0.36438,-0.609528,0.368805,-115.575,44.825,-30.6417,-7102,-28891
720,62478,0,0,0,-124.678,-89.1211,-172.853,9.80957,-0.114844,-0.0574219,0.59964,0.36438,-0.609528,0.368805,-115.575,44.8417,-30.6167,-7102,-28891
726,62484,0,0,0,-124.678,-89.1211,-172.853,9.80957,-0.133984,-0.100488,0.59964,0.36441,-0.609528,0.368805,-115.575,44.875,-30.6167,-7102,-28891
732,62490,0,0,0,-124.673,-89.1211,-172.853,9.81914,-0.124414,-0.0813477,0.599609,0.364441,-0.609497,0.368835,-115.6,44.8583,-30.6167,-7102,-28891
738,62496,0,0,0,-124.673,-89.1211,-172.853,9.80957,-0.114844,-0.0765625,0.599609,0.364441,-0.609497,0.368866,-115.633,44.85,-30.6333,-7102,-28891
744,62502,0,0,0,-124.667,-89.1211,-172.853,9.79043,-0.129199,-0.062207,0.599609,0.364441,-0.609467,0.368866,-115.65,44.875,-30.6417,-7102,-28891
750,62508,0,0,0,-124.662,-89.1211,-172.853,9.81436,-0.100488,-0.100488,0.599579,0.364471,-0.609467,0.368896,-115.658,44.875,-30.625,-7102,-28891
756,62514,0,0,0,-124.662,-89.1211,-172.853,9.81436,-0.105273,-0.062207,0.599579,0.364502,-0.609467,0.368896,-115.675,44.9333,-30.575,-7102,-28891
762,62520,0,0,0,-124.656,-89.1211,-172.853,9.8,-0.124414,-0.062207,0.599579,0.364502,-0.609436,0.368927,-115.683,44.9167,-30.5583,-7102,-28891
768,62526,0,0,0,-124.656,-89.1211,-172.853,9.8,-0.13877,-0.0957031,0.599579,0.364532,-0.609436,0.368927,-115.7,44.9,-30.575,-7102,-28891
774,62532,0,0,0,-124.651,-89.1211,-172.853,9.81436,-0.13877,-0.0957031,0.599548,0.364532,-0.609436,0.368958,-115.717,44.9,-30.6083,-7102,-28891
780,62538,0,0,0,-124.651,-89.1211,-172.853,9.80957,-0.16748,-0.0957031,0.599548,0.364563,-0.609406,0.368958,-115.733,44.875,-30.6333,-7102,-28891
786,62544,0,0,0,-124.645,-89.1211,-172.853,9.80957,-0.13877,-0.100488,0.599548,0.364563,-0.609406,0.368988,-115.725,44.875,-30.6417,-7102,-28891
792,62550,0,0,0,-124.645,-89.1211,-172.853,9.81914,-0.129199,-0.0717773,0.599518,0.364594,-0.609406,0.368988,-115.7,44.8583,-30.65,-7102,-28891
798,62556,0,0,0,-124.64,-89.1211,-172.853,9.80479,-0.110059,-0.062207,0.599518,0.364594,-0.609375,0.369019,-115.667,44.8417,-30.65,-7102,-28891
804,62562,0,0,0,-124.634,-89.1211,-172.853,9.82393,-0.110059,-0.062207,0.599518,0.364624,-0.609375,0.369049,-115.633,44.825,-30.6833,-7102,-28891
810,62568,0,0,0,-124.634,-89.1211,-172.853,9.80957,-0.13877,-0.110059,0.599487,0.364655,-0.609375,0.369049,-115.592,44.825,-30.7333,-7102,-28891
816,62574,0,0,0,-124.629,-89.1211,-172.853,9.79043,-0.13877,-0.0765625,0.599487,0.364685,-0.609344,0.36908,-115.558,44.8417,-30.8083,-7102,-28891
822,62580,0,0,0,-124.623,-89.1211,-172.853,9.82393,-0.124414,-0.062207,0.599457,0.364685,-0.609314,0.36911,-115.542,44.8333,-30.8333,-7102,-28891
828,62586,0,0,0,-124.618,-89.1211,-172.853,9.81436,-0.110059,-0.090918,0.599426,0.364716,-0.609314,0.369141,-115.533,44.825,-30.85,-7102,-28891
834,62592,0,0,0,-124.612,-89.1211,-172.853,9.82393,-0.119629,-0.0861328,0.599426,0.364746,-0.609283,0.369171,-115.525,44.8167,-30.8667,-7102,-28891
840,62598,0,0,0,-124.607,-89.1211,-172.853,9.78564,-0.133984,-0.090918,0.599426,0.364777,-0.609283,0.369171,-115.517,44.7917,-30.8583,-7102,-28891
846,62604,0,0,0,-124.601,-89.1211,-172.853,9.8,-0.105273,-0.090918,0.599396,0.364807,-0.609253,0.369232,-115.517,44.7583,-30.8,-7102,-28891
852,62610,0,0,0,-124.596,-89.1211,-172.853,9.82393,-0.124414,-0.0957031,0.599396,0.364807,-0.609253,0.369232,-115.525,44.7417,-30.7583,-7102,-28891
858,62616,0,0,0,-124.596,-89.1211,-172.853,9.81914,-0.119629,-0.0717773,0.599365,0.364838,-0.609253,0.369263,-115.533,44.7417,-30.75,-7102,-28891
864,62622,0,0,0,-124.59,-89.1211,-172.853,9.82871,-0.119629,-0.100488,0.599365,0.364838,-0.609222,0.369263,-115.533,44.75,-30.775,-7102,-28891
870,62628,0,0,0,-124.59,-89.1211,-172.853,9.8335,-0.114844,-0.0717773,0.599365,0.364868,-0.609222,0.369263,-115.542,44.7583,-30.8167,-7102,-28891
876,62634,0,0,0,-124.59,-89.1211,-172.853,9.82871,-0.100488,-0.0717773,0.599365,0.364868,-0.609222,0.369293,-115.55,44.75,-30.925,-7102,-28891
882,62640,0,0,0,-124.585,-89.1211,-172.853,9.81914,-0.13877,-0.0717773,0.599365,0.364868,-0.609222,0.369293,-115.558,44.7333,-30.95,-7102,-28891
888,62646,0,0,0,-124.585,-89.1211,-172.853,9.81436,-0.133984,-0.0765625,0.599335,0.364868,-0.609222,0.369293,-115.558,44.7083,-30.95,-7102,-28891
894,62652,0,0,0,-124.585,-89.1211,-172.853,9.82393,-0.110059,-0.0669922,0.599335,0.364899,-0.609192,0.369324,-115.542,44.675,-30.9583,-7102,-28891
900,62658,0,0,0,-124.579,-89.1211,-172.853,9.81914,-0.133984,-0.0813477,0.599335,0.364899,-0.609192,0.369324,-115.533,44.65,-30.975,-7102,-28891
906,62664,0,0,0,-124.574,-89.1211,-172.853,9.82871,-0.133984,-0.090918,0.599304,0.364929,-0.609192,0.369354,-115.5,44.6,-30.9833,-7102,-28891
912,62670,0,0,0,-124.574,-89.1211,-172.853,9.8,-0.133984,-0.0526367,0.599304,0.36496,-0.609161,0.369354,-115.483,44.6,-31,-7102,-28891
918,62676,0,0,0,-124.568,-89.1211,-172.853,9.82393,-0.133984,-0.062207,0.599304,0.36496,-0.609161,0.369385,-115.458,44.5917,-30.9667,-7102,-28891
924,62682,0,0,0,-124.563,-89.1211,-172.853,9.80479,-0.129199,-0.0526367,0.599274,0.36499,-0.609131,0.369415,-115.45,44.5833,-30.9333,-7102,-28891
930,62688,0,0,0,-124.557,-89.1211,-172.853,9.8335,-0.110059,-0.0574219,0.599243,0.365021,-0.609131,0.369446,-115.442,44.5917,-30.8917,-7102,-28891
936,62694,0,0,0,-124.541,-89.1211,-172.853,9.84785,-0.114844,-0.090918,0.599213,0.365112,-0.60907,0.369537,-115.475,44.5667,-30.8167,-7102,-28891
942,62700,0,0,0,-124.541,-89.1211,-172.853,9.84307,-0.143555,-0.062207,0.599182,0.365143,-0.60907,0.369568,-115.492,44.5583,-30.8,-7102,-28891
948,62706,0,0,0,-124.53,-89.1211,-172.853,9.82871,-0.13877,-0.0813477,0.599182,0.365173,-0.609039,0.369598,-115.508,44.5417,-30.8,-7102,-28891
954,62712,0,0,0,-124.525,-89.1211,-172.853,9.81914,-0.133984,-0.105273,0.599152,0.365204,-0.609009,0.369629,-115.517,44.5417,-30.8,-7102,-28891
960,62718,0,0,0,-124.519,-89.1211,-172.853,9.79521,-0.114844,-0.0861328,0.599121,0.365234,-0.609009,0.369659,-115.525,44.5417,-30.7833,-7102,-28891
966,62724,0,0,0,-124.508,-89.1211,-172.853,9.81436,-0.110059,-0.0669922,0.599091,0.365295,-0.608948,0.36972,-115.533,44.5333,-30.7583,-7102,-28891
972,62730,0,0,0,-124.503,-89.1211,-172.853,9.81436,-0.100488,-0.0765625,0.599091,0.365326,-0.608948,0.369751,-115.542,44.55,-30.7333,-7102,-28891
978,62736,0,0,0,-124.497,-89.1211,-172.853,9.81914,-0.114844,-0.0813477,0.59906,0.365326,-0.608917,0.369751,-115.533,44.55,-30.7,-7102,-28891
984,62742,0,0,0,-124.497,-89.1211,-172.853,9.81436,-0.129199,-0.0813477,0.59906,0.365356,-0.608917,0.369781,-115.508,44.5583,-30.7,-7102,-28891
990,62748,0,0,0,-124.492,-89.1211,-172.853,9.82871,-0.133984,-0.0669922,0.59906,0.365387,-0.608917,0.369812,-115.458,44.575,-30.7167,-7102,-28891
996,62754,0,0,0,-124.481,-89.1211,-172.848,9.81436,-0.13877,-0.0717773,0.59903,0.365448,-0.608856,0.369873,-115.342,44.625,-30.7083,-7102,-28891
1002,62760,0,0,0,-124.475,-89.1211,-172.848,9.81436,-0.119629,-0.0957031,0.598999,0.365479,-0.608856,0.369904,-115.317,44.6667,-30.6833,-7102,-28891
1008,62766,0,0,0,-124.47,-89.1211,-172.853,9.80957,-0.119629,-0.0717773,0.598969,0.365479,-0.608826,0.369904,-115.283,44.7,-30.6417,-7102,-28891
1014,62772,0,0,0,-124.464,-89.1211,-172.853,9.81914,-0.14834,-0.105273,0.598969,0.365509,-0.608826,0.369934,-115.25,44.725,-30.6167,-7102,-28891
1020,62778,0,0,0,-124.464,-89.1211,-172.853,9.81436,-0.14834,-0.0765625,0.598938,0.36554,-0.608795,0.369965,-115.242,44.7333,-30.575,-7102,-28891
1026,62784,0,0,0,-124.453,-89.1211,-172.853,9.8,-0.110059,-0.062207,0.598907,0.365601,-0.608765,0.370026,-115.225,44.75,-30.55,-7102,-28891
1032,62790,0,0,0,-124.442,-89.1211,-172.853,9.80957,-0.129199,-0.0813477,0.598907,0.365631,-0.608765,0.370056,-115.217,44.7667,-30.525,-7102,-28891
1038,62796,0,0,0,-124.437,-89.1211,-172.853,9.82393,-0.100488,-0.0765625,0.598877,0.365662,-0.608734,0.370087,-115.2,44.7917,-30.575,-7102,-28891
1044,62802,0,0,0,-124.431,-89.1211,-172.853,9.82393,-0.119629,-0.0669922,0.598846,0.365692,-0.608704,0.370117,-115.192,44.7917,-30.6333,-7102,-28891
1050,62808,0,0,0,-124.426,-89.1211,-172.853,9.79043,-0.13877,-0.090918,0.598846,0.365723,-0.608704,0.370148,-115.183,44.7833,-30.7,-7102,-28891
1056,62814,0,0,0,-124.415,-89.1211,-172.853,9.82393,-0.13877,-0.0957031,0.598816,0.365784,-0.608673,0.370209,-115.167,44.7833,-30.775,-7102,-28891
1062,62820,0,0,0,-124.409,-89.1211,-172.853,9.82393,-0.133984,-0.100488,0.598785,0.365814,-0.608643,0.370239,-115.183,44.7917,-30.775,-7102,-28891
1068,62826,0,0,0,-124.404,-89.1211,-172.853,9.81436,-0.119629,-0.090918,0.598785,0.365814,-0.608643,0.37027,-115.175,44.8,-30.7417,-7102,-28891
1074,62832,0,0,0,-124.404,-89.1211,-172.853,9.81914,-0.129199,-0.0813477,0.598755,0.365845,-0.608612,0.37027,-115.183,44.8167,-30.7333,-7094,-28892
1080,62838,0,0,0,-124.398,-89.1211,-172.853,9.80957,-0.133984,-0.0957031,0.598755,0.365875,-0.608612,0.3703,-115.208,44.8417,-30.7083,-7094,-28892
1086,62844,0,0,0,-124.393,-89.1211,-172.853,9.82393,-0.124414,-0.0813477,0.598724,0.365906,-0.608582,0.370361,-115.233,44.8667,-30.7083,-7094,-28892
1092,62850,0,0,0,-124.387,-89.1211,-172.853,9.81914,-0.133984,-0.0717773,0.598694,0.365936,-0.608551,0.370361,-115.242,44.8833,-30.7083,-7094,-28892
1098,62856,0,0,0,-124.382,-89.1211,-172.853,9.8335,-0.13877,-0.0957031,0.598694,0.365967,-0.608551,0.370392,-115.242,44.9083,-30.6917,-7094,-28892
1104,62862,0,0,0,-124.376,-89.1211,-172.853,9.80957,-0.13877,-0.0717773,0.598663,0.365997,-0.608521,0.370422,-115.25,44.9083,-30.65,-7094,-28892
1110,62868,0,0,0,-124.365,-89.1211,-172.853,9.80957,-0.129199,-0.0813477,0.598663,0.366028,-0.608521,0.370453,-115.242,44.9167,-30.6417,-7094,-28892
1116,62874,0,0,0,-124.36,-89.1211,-172.853,9.80957,-0.13877,-0.0765625,0.598633,0.366058,-0.60849,0.370514,-115.225,44.9083,-30.6583,-7094,-28892
1122,62880,0,0,0,-124.354,-89.1211,-172.853,9.82393,-0.13877,-0.110059,0.598602,0.366089,-0.608459,0.370544,-115.2,44.9167,-30.675,-7094,-28892
1128,62886,0,0,0,-124.349,-89.1211,-172.853,9.82871,-0.119629,-0.0861328,0.598602,0.366119,-0.608459,0.370575,-115.175,44.9417,-30.7083,-7094,-28892
1134,62892,0,0,0,-124.343,-89.1211,-172.853,9.81914,-0.13877,-0.0717773,0.598572,0.36615,-0.608429,0.370575,-115.158,44.9583,-30.75,-7094,-28892
1140,62898,0,0,0,-124.332,-89.1211,-172.853,9.82871,-0.114844,-0.0717773,0.598572,0.36618,-0.608429,0.370605,-115.158,44.9917,-30.7417,-7094,-28892
1146,62904,0,0,0,-124.332,-89.1211,-172.853,9.82393,-0.114844,-0.062207,0.598541,0.366211,-0.608398,0.370667,-115.217,45,-30.75,-7094,-28892
1152,62910,0,0,0,-124.327,-89.1211,-172.853,9.81914,-0.100488,-0.0669922,0.598511,0.366241,-0.608368,0.370697,-115.258,44.9917,-30.75,-7094,-28892
1158,62916,0,0,0,-124.321,-89.1211,-172.853,9.79521,-0.124414,-0.0813477,0.598511,0.366272,-0.608368,0.370697,-115.283,44.9917,-30.7917,-7094,-28892
1164,62922,0,0,0,-124.316,-89.1211,-172.853,9.79043,-0.129199,-0.0717773,0.59848,0.366272,-0.608337,0.370728,-115.292,44.975,-30.8,-7094,-28892
1170,62928,0,0,0,-124.31,-89.1211,-172.853,9.80957,-0.119629,-0.0669922,0.59848,0.366302,-0.608337,0.370758,-115.3,44.9667,-30.85,-7094,-28892
1176,62934,0,0,0,-124.305,-89.1211,-172.853,9.79521,-0.114844,-0.0765625,0.59845,0.366364,-0.608307,0.370789,-115.317,44.9833,-30.875,-7094,-28892
1182,62940,0,0,0,-124.299,-89.1211,-172.853,9.80957,-0.110059,-0.0813477,0.59845,0.366364,-0.608307,0.370819,-115.35,44.9917,-30.8917,-7094,-28892
1188,62946,0,0,0,-124.299,-89.1211,-172.853,9.79043,-0.124414,-0.0861328,0.598419,0.366394,-0.608276,0.370819,-115.367,45,-30.8667,-7094,-28892
1194,62952,0,0,0,-124.294,-89.1211,-172.853,9.81436,-0.143555,-0.0717773,0.598419,0.366394,-0.608276,0.37085,-115.383,45,-30.8417,-7094,-28892
1200,62958,0,0,0,-124.288,-89.1211,-172.853,9.80957,-0.105273,-0.0717773,0.598419,0.366425,-0.608276,0.37085,-115.375,44.9917,-30.8,-7094,-28892
1206,62964,0,0,0,-124.288,-89.1211,-172.853,9.80479,-0.15791,-0.0957031,0.598389,0.366455,-0.608246,0.37088,-115.333,44.9583,-30.775,-7094,-28892
1212,62970,0,0,0,-124.283,-89.1211,-172.853,9.80957,-0.124414,-0.090918,0.598389,0.366455,-0.608246,0.370911,-115.308,44.9417,-30.7833,-7094,-28892
1218,62976,0,0,0,-124.283,-89.1211,-172.853,9.81914,-0.119629,-0.0813477,0.598358,0.366486,-0.608215,0.370911,-115.292,44.9417,-30.8083,-7094,-28892
1224,62982,0,0,0,-124.277,-89.1211,-172.853,9.82871,-0.124414,-0.062207,0.598358,0.366486,-0.608215,0.370941,-115.275,44.9333,-30.825,-7094,-28892
1230,62988,0,0,0,-124.272,-89.1211,-172.853,9.80957,-0.124414,-0.0765625,0.598358,0.366516,-0.608215,0.370941,-115.258,44.9167,-30.8167,-7094,-28892
1236,62994,0,0,0,-124.266,-89.1211,-172.853,9.81436,-0.105273,-0.0765625,0.598328,0.366547,-0.608185,0.371002,-115.25,44.9083,-30.8,-7094,-28892
1242,63000,0,0,0,-124.266,-89.1211,-172.853,9.81914,-0.13877,-0.0669922,0.598328,0.366547,-0.608185,0.371002,-115.258,44.9083,-30.8,-7094,-28892
1248,63006,0,0,0,-124.261,-89.1211,-172.853,9.82871,-0.129199,-0.0717773,0.598297,0.366577,-0.608154,0.371033,-115.258,44.9167,-30.7917,-7094,-28892
1254,63012,0,0,0,-124.255,-89.1211,-172.853,9.80957,-0.114844,-0.0717773,0.598297,0.366608,-0.608154,0.371063,-115.258,44.9083,-30.7917,-7094,-28892
1260,63018,0,0,0,-124.244,-89.1211,-172.853,9.82871,-0.14834,-0.0813477,0.598267,0.366638,-0.608124,0.371063,-115.267,44.8667,-30.8,-7094,-28892
1266,63024,0,0,0,-124.239,-89.1211,-172.853,9.82393,-0.114844,-0.100488,0.598236,0.366669,-0.608093,0.371124,-115.283,44.8417,-30.8333,-7094,-28892
1272,63030,0,0,0,-124.239,-89.1211,-172.853,9.80479,-0.124414,-0.0669922,0.598236,0.366699,-0.608093,0.371155,-115.3,44.825,-30.8667,-7094,-28892
1278,63036,0,0,0,-124.233,-89.1211,-172.853,9.79043,-0.143555,-0.090918,0.598236,0.36673,-0.608063,0.371185,-115.292,44.825,-30.9,-7094,-28892
1284,63042,0,0,0,-124.228,-89.1211,-172.853,9.80957,-0.110059,-0.0813477,0.598206,0.36673,-0.608063,0.371185,-115.25,44.8333,-30.9167,-7094,-28892
1290,63048,0,0,0,-124.222,-89.1211,-172.853,9.82393,-0.110059,-0.0765625,0.598206,0.36676,-0.608063,0.371216,-115.217,44.8417,-30.9333,-7094,-28892
1296,63054,0,0,0,-124.217,-89.1211,-172.853,9.79521,-0.124414,-0.062207,0.598175,0.366791,-0.608032,0.371246,-115.217,44.8333,-30.9417,-7094,-28892
1302,63060,0,0,0,-124.211,-89.1211,-172.853,9.79521,-0.124414,-0.100488,0.598175,0.366821,-0.608002,0.371277,-115.225,44.8333,-30.9417,-7094,-28892
1308,63066,0,0,0,-124.211,-89.1211,-172.853,9.80479,-0.133984,-0.0861328,0.598145,0.366821,-0.608002,0.371277,-115.258,44.825,-30.9167,-7094,-28892
1314,63072,0,0,0,-124.211,-89.1211,-172.853,9.80479,-0.114844,-0.062207,0.598145,0.366852,-0.608002,0.371307,-115.275,44.8333,-30.8833,-7094,-28892
1320,63078,0,0,0,-124.2,-89.1211,-172.853,9.82393,-0.124414,-0.0717773,0.598145,0.366882,-0.607971,0.371338,-115.267,44.7833,-30.7333,-7094,-28892
1326,63084,0,0,0,-124.195,-89.1211,-172.853,9.81914,-0.119629,-0.0957031,0.598114,0.366913,-0.607971,0.371368,-115.258,44.775,-30.6667,-7094,-28892
1332,63090,0,0,0,-124.195,-89.1211,-172.853,9.8335,-0.105273,-0.062207,0.598114,0.366913,-0.607941,0.371368,-115.242,44.7333,-30.6,-7094,-28892
1338,63096,0,0,0,-124.195,-89.1211,-172.853,9.80479,-0.13877,-0.0765625,0.598083,0.366943,-0.607941,0.371399,-115.217,44.7167,-30.5917,-7094,-28892
1344,63102,0,0,0,-124.189,-89.1211,-172.853,9.80479,-0.090918,-0.0813477,0.598083,0.366943,-0.607941,0.371399,-115.208,44.7167,-30.5917,-7094,-28892
1350,63108,0,0,0,-124.184,-89.1211,-172.853,9.81436,-0.129199,-0.0813477,0.598083,0.366974,-0.60791,0.371429,-115.2,44.7,-30.675,-7094,-28892
1356,63114,0,0,0,-124.184,-89.1211,-172.853,9.81436,-0.119629,-0.0861328,0.598053,0.367004,-0.60791,0.37146,-115.192,44.6917,-30.7083,-7094,-28892
1362,63120,0,0,0,-124.178,-89.1211,-172.853,9.80957,-0.119629,-0.0957031,0.598053,0.367004,-0.60791,0.37146,-115.2,44.7,-30.7667,-7094,-28892
1368,63126,0,0,0,-124.178,-89.1211,-172.853,9.82393,-0.129199,-0.0717773,0.598053,0.367004,-0.60788,0.37146,-115.2,44.7083,-30.7917,-7094,-28892
1374,63132,0,0,0,-124.173,-89.1211,-172.853,9.8,-0.143555,-0.110059,0.598022,0.367035,-0.60788,0.37149,-115.2,44.7333,-30.8417,-7094,-28892
1380,63138,0,0,0,-124.173,-89.1211,-172.853,9.82871,-0.110059,-0.0717773,0.598022,0.367035,-0.60788,0.37149,-115.217,44.7667,-30.875,-7094,-28892
1386,63144,0,0,0,-124.173,-89.1211,-172.853,9.80479,-0.105273,-0.0765625,0.598022,0.367065,-0.60788,0.371521,-115.25,44.7917,-30.8917,-7094,-28892
1392,63150,0,0,0,-124.167,-89.1211,-172.853,9.81436,-0.14834,-0.062207,0.598022,0.367065,-0.607849,0.371521,-115.275,44.8,-30.8917,-7094,-28892
1398,63156,0,0,0,-124.162,-89.1211,-172.853,9.81436,-0.105273,-0.0765625,0.597992,0.367096,-0.607849,0.371552,-115.3,44.8083,-30.9333,-7094,-28892
1404,63162,0,0,0,-124.162,-89.1211,-172.853,9.79043,-0.129199,-0.0717773,0.597992,0.367096,-0.607849,0.371552,-115.292,44.8,-30.975,-7094,-28892
1410,63168,0,0,0,-124.151,-89.1211,-172.853,9.81436,-0.105273,-0.0574219,0.597992,0.367126,-0.607819,0.371582,-115.208,44.7583,-31.05,-7102,-28891
1416,63174,0,0,0,-124.151,-89.1211,-172.853,9.8335,-0.119629,-0.0813477,0.597961,0.367157,-0.607788,0.371613,-115.175,44.7417,-31.0333,-7102,-28891
1422,63180,0,0,0,-124.146,-89.1211,-172.853,9.82393,-0.129199,-0.090918,0.597931,0.367188,-0.607788,0.371643,-115.167,44.7417,-31.0167,-7102,-28891
1428,63186,0,0,0,-124.14,-89.1211,-172.853,9.8,-0.124414,-0.0574219,0.597931,0.367218,-0.607758,0.371674,-115.158,44.7583,-31.0083,-7102,-28891
1434,63192,0,0,0,-124.135,-89.1211,-172.853,9.8335,-0.129199,-0.0861328,0.597931,0.367218,-0.607758,0.371674,-115.175,44.7833,-31.0167,-7102,-28891
1440,63198,0,0,0,-124.129,-89.1211,-172.853,9.82871,-0.13877,-0.090918,0.5979,0.367249,-0.607727,0.371704,-115.192,44.8417,-31.0167,-7102,-28891
1446,63204,0,0,0,-124.124,-89.1211,-172.853,9.80957,-0.119629,-0.110059,0.59787,0.36731,-0.607727,0.371765,-115.217,44.875,-31.05,-7102,-28891
1452,63210,0,0,0,-124.124,-89.1211,-172.853,9.80479,-0.114844,-0.0669922,0.59787,0.36731,-0.607697,0.371765,-115.233,44.8917,-31.075,-7102,-28891
1458,63216,0,0,0,-124.118,-89.1211,-172.853,9.80957,-0.124414,-0.0765625,0.59787,0.36731,-0.607697,0.371765,-115.25,44.9167,-31.125,-7102,-28891
1464,63222,0,0,0,-124.118,-89.1211,-172.853,9.82871,-0.129199,-0.0813477,0.59787,0.36734,-0.607697,0.371796,-115.275,44.9333,-31.2,-7102,-28891
1470,63228,0,0,0,-124.113,-89.1211,-172.853,9.83828,-0.110059,-0.0813477,0.597839,0.36734,-0.607697,0.371796,-115.308,44.975,-31.3167,-7102,-28891
1476,63234,0,0,0,-124.113,-89.1211,-172.853,9.80479,-0.124414,-0.090918,0.597839,0.367371,-0.607666,0.371826,-115.317,44.9917,-31.3167,-7102,-28891
1482,63240,0,0,0,-124.107,-89.1211,-172.853,9.80957,-0.119629,-0.0717773,0.597839,0.367371,-0.607666,0.371826,-115.333,45,-31.3,-7102,-28891
1488,63246,0,0,0,-124.107,-89.1211,-172.853,9.81436,-0.133984,-0.0765625,0.597809,0.367401,-0.607666,0.371857,-115.367,44.9833,-31.275,-7102,-28891
1494,63252,0,0,0,-124.107,-89.1211,-172.853,9.80479,-0.114844,-0.0861328,0.597809,0.367401,-0.607635,0.371857,-115.383,44.975,-31.2333,-7102,-28891
1500,63258,0,0,0,-124.102,-89.1211,-172.853,9.8335,-0.114844,-0.0717773,0.597809,0.367401,-0.607635,0.371857,-115.408,44.9333,-31.1833,-7102,-28891
1506,63264,0,0,0,-124.102,-89.1211,-172.853,9.80479,-0.114844,-0.100488,0.597809,0.367432,-0.607635,0.371887,-115.392,44.9167,-31.15,-7102,-28891
1512,63270,0,0,0,-124.102,-89.1211,-172.853,9.8335,-0.133984,-0.0861328,0.597809,0.367432,-0.607635,0.371887,-115.367,44.9083,-31.1333,-7102,-28891
1518,63276,0,0,0,-124.102,-89.1211,-172.853,9.79043,-0.124414,-0.0717773,0.597809,0.367432,-0.607635,0.371887,-115.35,44.9083,-31.125,-7102,-28891
1524,63282,0,0,0,-124.096,-89.1211,-172.853,9.81436,-0.13877,-0.090918,0.597778,0.367432,-0.607635,0.371887,-115.317,44.9083,-31.1417,-7102,-28891
1530,63288,0,0,0,-124.096,-89.1211,-172.853,9.85264,-0.124414,-0.105273,0.597778,0.367432,-0.607635,0.371887,-115.292,44.9333,-31.2333,-7094,-28892
1536,63294,0,0,0,-124.096,-89.1211,-172.853,9.82871,-0.124414,-0.0957031,0.597778,0.367432,-0.607635,0.371887,-115.308,44.925,-31.25,-7094,-28892
1542,63300,0,0,0,-124.102,-89.1211,-172.853,9.8335,-0.124414,-0.0861328,0.597809,0.367432,-0.607635,0.371887,-115.317,44.9,-31.2583,-7102,-28891
1548,63306,0,0,0,-124.102,-89.1211,-172.853,9.80479,-0.114844,-0.0813477,0.597809,0.367432,-0.607635,0.371887,-115.317,44.8833,-31.2583,-7102,-28891
1554,63312,0,0,0,-124.102,-89.1211,-172.853,9.82393,-0.129199,-0.0717773,0.597809,0.367401,-0.607635,0.371857,-115.308,44.85,-31.225,-7102,-28891
1560,63318,0,0,0,-124.107,-89.1211,-172.853,9.80957,-0.110059,-0.0765625,0.597809,0.367401,-0.607635,0.371857,-115.267,44.8,-31.175,-7102,-28891
1566,63324,0,0,0,-124.107,-89.1211,-172.853,9.80957,-0.133984,-0.0957031,0.597809,0.367401,-0.607666,0.371857,-115.258,44.775,-31.1667,-7102,-28891
1572,63330,0,0,0,-124.107,-89.1211,-172.853,9.82393,-0.129199,-0.0717773,0.597809,0.367401,-0.607666,0.371857,-115.292,44.7417,-31.1417,-7102,-28891
1578,63336,0,0,0,-124.107,-89.1211,-172.853,9.8,-0.124414,-0.0957031,0.597809,0.367401,-0.607666,0.371857,-115.317,44.7167,-31.125,-7102,-28891
1584,63342,0,0,0,-124.107,-89.1211,-172.853,9.80957,-0.114844,-0.090918,0.597809,0.367371,-0.607666,0.371826,-115.35,44.7167,-31.1083,-7102,-28891
1590,63348,0,0,0,-124.113,-89.1211,-172.853,9.82871,-0.100488,-0.105273,0.597839,0.36734,-0.607666,0.371826,-115.383,44.7417,-31.05,-7102,-28891
1596,63354,0,0,0,-124.118,-89.1211,-172.853,9.8,-0.143555,-0.0574219,0.597839,0.36734,-0.607697,0.371796,-115.4,44.7833,-31.0417,-7102,-28891
1602,63360,0,0,0,-124.118,-89.1211,-172.848,9.8,-0.119629,-0.0813477,0.59787,0.36734,-0.607697,0.371796,-115.417,44.8,-31.0833,-7102,-28891
1608,63366,0,0,0,-124.124,-89.1211,-172.848,9.82871,-0.119629,-0.0813477,0.59787,0.36731,-0.607697,0.371765,-115.45,44.8083,-31.1333,-7102,-28891
1614,63372,0,0,0,-124.124,-89.1211,-172.848,9.81914,-0.110059,-0.0861328,0.59787,0.36731,-0.607697,0.371765,-115.475,44.8167,-31.1917,-7102,-28891
1620,63378,0,0,0,-124.129,-89.1211,-172.848,9.81914,-0.133984,-0.0717773,0.59787,0.367279,-0.607727,0.371735,-115.433,44.775,-31.3,-7102,-28891
1626,63384,0,0,0,-124.129,-89.1211,-172.848,9.80957,-0.114844,-0.100488,0.59787,0.367279,-0.607727,0.371735,-115.417,44.75,-31.3083,-7102,-28891
1632,63390,0,0,0,-124.129,-89.1211,-172.848,9.79043,-0.0957031,-0.0717773,0.5979,0.367279,-0.607727,0.371735,-115.392,44.725,-31.325,-7102,-28891
1638,63396,0,0,0,-124.135,-89.1211,-172.848,9.80479,-0.119629,-0.0765625,0.5979,0.367249,-0.607727,0.371704,-115.383,44.7167,-31.3333,-7102,-28891
1644,63402,0,0,0,-124.135,-89.1211,-172.848,9.8,-0.114844,-0.105273,0.5979,0.367249,-0.607758,0.371704,-115.383,44.7083,-31.35,-7102,-28891
1650,63408,0,0,0,-124.14,-89.1211,-172.848,9.82393,-0.129199,-0.0765625,0.597931,0.367218,-0.607758,0.371674,-115.375,44.6917,-31.425,-7102,-28891
1656,63414,0,0,0,-124.146,-89.1211,-172.848,9.82871,-0.119629,-0.0861328,0.597931,0.367188,-0.607788,0.371643,-115.383,44.6917,-31.4583,-7102,-28891
1662,63420,0,0,0,-124.146,-89.1211,-172.848,9.8,-0.119629,-0.090918,0.597961,0.367188,-0.607788,0.371643,-115.375,44.6667,-31.45,-7102,-28891
1668,63426,0,0,0,-124.151,-89.1211,-172.848,9.79043,-0.129199,-0.0574219,0.597961,0.367157,-0.607788,0.371613,-115.375,44.6583,-31.4,-7102,-28891
1674,63432,0,0,0,-124.151,-89.1211,-172.848,9.82871,-0.114844,-0.0765625,0.597961,0.367157,-0.607819,0.371613,-115.367,44.65,-31.3083,-7102,-28891
1680,63438,0,0,0,-124.156,-89.1211,-172.848,9.83828,-0.119629,-0.0957031,0.597992,0.367126,-0.607819,0.371582,-115.367,44.6333,-31.1917,-7102,-28891
1686,63444,0,0,0,-124.162,-89.1211,-172.848,9.81914,-0.129199,-0.0765625,0.597992,0.367126,-0.607819,0.371582,-115.383,44.625,-31.1667,-7102,-28891
1692,63450,0,0,0,-124.162,-89.1211,-172.848,9.82393,-0.124414,-0.0813477,0.597992,0.367096,-0.607819,0.371552,-115.392,44.625,-31.1417,-7102,-28891
1698,63456,0,0,0,-124.162,-89.1211,-172.848,9.80479,-0.133984,-0.090918,0.597992,0.367096,-0.607849,0.371552,-115.4,44.625,-31.1333,-7102,-28891
1704,63462,0,0,0,-124.167,-89.1211,-172.848,9.80957,-0.124414,-0.114844,0.597992,0.367096,-0.607849,0.371552,-115.4,44.5917,-31.1333,-7102,-28891
1710,63468,0,0,0,-124.167,-89.1211,-172.848,9.81914,-0.124414,-0.0717773,0.598022,0.367065,-0.607849,0.371521,-115.417,44.5833,-31.1583,-7102,-28891
1716,63474,0,0,0,-124.173,-89.1211,-172.848,9.81436,-0.13877,-0.0765625,0.598022,0.367065,-0.60788,0.371521,-115.433,44.6,-31.15,-7102,-28891
1722,63480,0,0,0,-124.173,-89.1211,-172.848,9.78564,-0.13877,-0.100488,0.598022,0.367035,-0.60788,0.37149,-115.458,44.625,-31.15,-7102,-28891
1728,63486,0,0,0,-124.173,-89.1211,-172.848,9.80957,-0.119629,-0.0765625,0.598022,0.367035,-0.60788,0.37149,-115.483,44.65,-31.15,-7102,-28891
1734,63492,0,0,0,-124.178,-89.1211,-172.848,9.8,-0.13877,-0.0717773,0.598022,0.367035,-0.60788,0.37149,-115.483,44.6917,-31.1667,-7102,-28891
1740,63498,0,0,0,-124.178,-89.1211,-172.848,9.80957,-0.129199,-0.0717773,0.598022,0.367035,-0.60788,0.37149,-115.467,44.6917,-31.1917,-7102,-28891
1746,63504,0,0,0,-124.178,-89.1211,-172.848,9.81436,-0.110059,-0.0957031,0.598053,0.367035,-0.60788,0.37149,-115.458,44.675,-31.1833,-7102,-28891
1752,63510,0,0,0,-124.178,-89.1211,-172.848,9.81914,-0.119629,-0.062207,0.598053,0.367035,-0.60788,0.37146,-115.458,44.6417,-31.1833,-7102,-28891
1758,63516,0,0,0,-124.178,-89.1211,-172.848,9.82393,-0.100488,-0.090918,0.598053,0.367004,-0.60788,0.37146,-115.458,44.6333,-31.2,-7102,-28891
1764,63522,0,0,0,-124.184,-89.1211,-172.848,9.80957,-0.124414,-0.114844,0.598053,0.367004,-0.60791,0.37146,-115.458,44.6333,-31.2333,-7102,-28891
1770,63528,0,0,0,-124.189,-89.1211,-172.848,9.81914,-0.114844,-0.100488,0.598083,0.366974,-0.60791,0.371429,-115.458,44.675,-31.3333,-7102,-28891
1776,63534,0,0,0,-124.189,-89.1211,-172.848,9.82871,-0.100488,-0.0957031,0.598083,0.366974,-0.607941,0.371399,-115.467,44.675,-31.3417,-7102,-28891
1782,63540,0,0,0,-124.195,-89.1211,-172.848,9.80957,-0.133984,-0.0765625,0.598083,0.366943,-0.607941,0.371399,-115.492,44.6833,-31.3417,-7102,-28891
1788,63546,0,0,0,-124.2,-89.1211,-172.848,9.81914,-0.124414,-0.0574219,0.598114,0.366913,-0.607941,0.371368,-115.517,44.675,-31.3083,-7102,-28891
1794,63552,0,0,0,-124.2,-89.1211,-172.848,9.81914,-0.119629,-0.0765625,0.598114,0.366913,-0.607971,0.371368,-115.533,44.675,-31.25,-7102,-28891
1800,63558,0,0,0,-124.206,-89.1211,-172.848,9.80957,-0.110059,-0.0813477,0.598114,0.366882,-0.607971,0.371338,-115.567,44.675,-31.1833,-7102,-28891
1806,63564,0,0,0,-124.206,-89.1211,-172.848,9.8,-0.133984,-0.0717773,0.598145,0.366882,-0.607971,0.371338,-115.567,44.6583,-31.1917,-7102,-28891
1812,63570,0,0,0,-124.206,-89.1211,-172.848,9.81914,-0.124414,-0.0861328,0.598145,0.366852,-0.607971,0.371307,-115.558,44.6417,-31.2167,-7102,-28891
1818,63576,0,0,0,-124.211,-89.1211,-172.848,9.81914,-0.0957031,-0.0717773,0.598145,0.366852,-0.608002,0.371307,-115.533,44.6333,-31.2417,-7102,-28891
1824,63582,0,0,0,-124.211,-89.1211,-172.848,9.80479,-0.119629,-0.0717773,0.598145,0.366852,-0.608002,0.371307,-115.508,44.625,-31.2833,-7102,-28891
1830,63588,0,0,0,-124.211,-89.1211,-172.848,9.8,-0.124414,-0.090918,0.598145,0.366852,-0.608002,0.371307,-115.458,44.625,-31.3417,-7102,-28891
1836,63594,0,0,0,-124.211,-89.1211,-172.848,9.8335,-0.133984,-0.090918,0.598145,0.366852,-0.608002,0.371307,-115.45,44.6167,-31.3167,-7102,-28891
1842,63600,0,0,0,-124.211,-89.1211,-172.848,9.79521,-0.129199,-0.0717773,0.598145,0.366852,-0.608002,0.371307,-115.45,44.625,-31.2833,-7102,-28891
1848,63606,0,0,0,-124.211,-89.1211,-172.848,9.81914,-0.129199,-0.062207,0.598145,0.366852,-0.608002,0.371307,-115.442,44.625,-31.2417,-7102,-28891
1854,63612,0,0,0,-124.206,-89.1211,-172.848,9.79521,-0.119629,-0.0765625,0.598145,0.366852,-0.607971,0.371307,-115.45,44.6333,-31.175,-7102,-28891
1860,63618,0,0,0,-124.206,-89.1211,-172.848,9.80957,-0.110059,-0.100488,0.598114,0.366882,-0.607971,0.371338,-115.475,44.6667,-31.1167,-7102,-28891
1866,63624,0,0,0,-124.206,-89.1211,-172.848,9.8,-0.13877,-0.105273,0.598145,0.366882,-0.607971,0.371338,-115.508,44.6833,-31.1417,-7102,-28891
1872,63630,0,0,0,-124.206,-89.1211,-172.848,9.80957,-0.124414,-0.114844,0.598145,0.366852,-0.607971,0.371307,-115.525,44.7,-31.175,-7102,-28891
1878,63636,0,0,0,-124.211,-89.1211,-172.848,9.81436,-0.124414,-0.0717773,0.598145,0.366852,-0.608002,0.371307,-115.542,44.6917,-31.225,-7102,-28891
1884,63642,0,0,0,-124.211,-89.1211,-172.848,9.82393,-0.110059,-0.0813477,0.598145,0.366852,-0.608002,0.371277,-115.55,44.6833,-31.25,-7102,-28891
1890,63648,0,0,0,-124.217,-89.1211,-172.848,9.78086,-0.124414,-0.0957031,0.598175,0.366821,-0.608032,0.371277,-115.558,44.65,-31.275,-7102,-28891
1896,63654,0,0,0,-124.222,-89.1211,-172.848,9.82393,-0.0957031,-0.0813477,0.598175,0.366791,-0.608032,0.371246,-115.567,44.6417,-31.2583,-7102,-28891
1902,63660,0,0,0,-124.222,-89.1211,-172.848,9.82871,-0.129199,-0.0717773,0.598175,0.366791,-0.608032,0.371246,-115.567,44.625,-31.2333,-7102,-28891
1908,63666,0,0,0,-124.228,-89.1211,-172.848,9.8335,-0.124414,-0.100488,0.598206,0.36676,-0.608063,0.371216,-115.575,44.6,-31.2417,-7102,-28891
1914,63672,0,0,0,-124.233,-89.1211,-172.848,9.81914,-0.14834,-0.0669922,0.598206,0.36676,-0.608063,0.371216,-115.575,44.5833,-31.2167,-7102,-28891
1920,63678,0,0,0,-124.233,-89.1211,-172.848,9.82393,-0.124414,-0.0574219,0.598206,0.36673,-0.608063,0.371185,-115.575,44.5417,-31.2167,-7102,-28891
1926,63684,0,0,0,-124.233,-89.1211,-172.848,9.80957,-0.14834,-0.090918,0.598206,0.36673,-0.608063,0.371185,-115.567,44.525,-31.2083,-7102,-28891
1932,63690,0,0,0,-124.233,-89.1211,-172.848,9.82393,-0.129199,-0.0717773,0.598206,0.36673,-0.608063,0.371185,-115.567,44.5083,-31.175,-7102,-28891
1938,63696,0,0,0,-124.233,-89.1211,-172.848,9.81436,-0.119629,-0.0957031,0.598206,0.36673,-0.608063,0.371185,-115.575,44.525,-31.1583,-7102,-28891
1944,63702,0,0,0,-124.233,-89.1211,-172.848,9.84785,-0.110059,-0.100488,0.598206,0.36673,-0.608063,0.371185,-115.55,44.5333,-31.1333,-7102,-28891
1950,63708,0,0,0,-124.233,-89.1211,-172.848,9.81436,-0.129199,-0.0669922,0.598206,0.36673,-0.608063,0.371185,-115.517,44.575,-31.125,-7102,-28891
1956,63714,0,0,0,-124.233,-89.1211,-172.848,9.78564,-0.119629,-0.119629,0.598206,0.36673,-0.608063,0.371185,-115.5,44.575,-31.1333,-7102,-28891
1962,63720,0,0,0,-124.239,-89.1211,-172.848,9.80957,-0.110059,-0.0861328,0.598236,0.366699,-0.608093,0.371155,-115.508,44.5583,-31.1583,-7102,-28891
1968,63726,0,0,0,-124.239,-89.1211,-172.848,9.82393,-0.110059,-0.0813477,0.598236,0.366699,-0.608093,0.371155,-115.517,44.5333,-31.2083,-7102,-28891
1974,63732,0,0,0,-124.244,-89.1211,-172.848,9.8,-0.110059,-0.0765625,0.598236,0.366669,-0.608093,0.371124,-115.533,44.5083,-31.2167,-7102,-28891
1980,63738,0,0,0,-124.25,-89.1211,-172.848,9.82393,-0.119629,-0.0813477,0.598267,0.366638,-0.608124,0.371094,-115.558,44.5083,-31.2,-7102,-28891
1986,63744,0,0,0,-124.255,-89.1211,-172.848,9.8,-0.13877,-0.100488,0.598267,0.366638,-0.608154,0.371063,-115.567,44.5333,-31.1917,-7102,-28891
1992,63750,0,0,0,-124.261,-89.1211,-172.848,9.81914,-0.110059,-0.0813477,0.598297,0.366608,-0.608154,0.371063,-115.575,44.525,-31.175,-7102,-28891
1998,63756,0,0,0,-124.261,-89.1211,-172.848,9.80479,-0.129199,-0.0957031,0.598297,0.366577,-0.608154,0.371033,-115.592,44.525,-31.15,-7102,-28891
2004,63762,0,0,0,-124.272,-89.1211,-172.848,9.81436,-0.114844,-0.105273,0.598297,0.366577,-0.608185,0.371002,-115.592,44.5083,-31.1333,-7102,-28891
2010,63768,0,0,0,-124.277,-89.1211,-172.848,9.82871,-0.129199,-0.0765625,0.598358,0.366516,-0.608215,0.370972,-115.608,44.4917,-31.1,-7102,-28891
2016,63774,0,0,0,-124.283,-89.1211,-172.848,9.82871,-0.13877,-0.100488,0.598358,0.366486,-0.608215,0.370941,-115.6,44.5167,-31.1417,-7102,-28891
2022,63780,0,0,0,-124.283,-89.1211,-172.848,9.8,-0.105273,-0.105273,0.598358,0.366455,-0.608246,0.370911,-115.592,44.5417,-31.175,-7102,-28891
2028,63786,0,0,0,-124.288,-89.1211,-172.848,9.81436,-0.119629,-0.0574219,0.598389,0.366425,-0.608246,0.37088,-115.575,44.5667,-31.1917,-7102,-28891
2034,63792,0,0,0,-124.299,-89.1211,-172.848,9.80957,-0.124414,-0.0957031,0.598389,0.366425,-0.608276,0.37085,-115.533,44.6083,-31.2083,-7102,-28891
2040,63798,0,0,0,-124.305,-89.1211,-172.848,9.82393,-0.105273,-0.062207,0.598419,0.366364,-0.608307,0.370819,-115.433,44.6167,-31.2083,-7102,-28891
2046,63804,0,0,0,-124.31,-89.1211,-172.848,9.81436,-0.124414,-0.090918,0.59845,0.366333,-0.608307,0.370789,-115.4,44.6167,-31.2083,-7102,-28891
2052,63810,0,0,0,-124.31,-89.1211,-172.848,9.80479,-0.143555,-0.0861328,0.59845,0.366333,-0.608337,0.370789,-115.392,44.5833,-31.1833,-7102,-28891
2058,63816,0,0,0,-124.316,-89.1211,-172.848,9.81436,-0.119629,-0.0957031,0.59845,0.366302,-0.608337,0.370758,-115.375,44.5667,-31.1583,-7102,-28891
2064,63822,0,0,0,-124.321,-89.1211,-172.848,9.82871,-0.133984,-0.0813477,0.59848,0.366302,-0.608337,0.370728,-115.358,44.5333,-31.15,-7102,-28891
2070,63828,0,0,0,-124.327,-89.1211,-172.848,9.80479,-0.114844,-0.0765625,0.59848,0.366272,-0.608368,0.370728,-115.367,44.55,-31.1417,-7102,-28891
2076,63834,0,0,0,-124.327,-89.1211,-172.848,9.8,-0.124414,-0.0765625,0.598511,0.366241,-0.608368,0.370697,-115.383,44.5833,-31.1667,-7102,-28891
2082,63840,0,0,0,-124.327,-89.1211,-172.848,9.8335,-0.124414,-0.0765625,0.598511,0.366241,-0.608398,0.370697,-115.392,44.625,-31.1667,-7102,-28891
2088,63846,0,0,0,-124.332,-89.1211,-172.848,9.82393,-0.0861328,-0.090918,0.598511,0.366241,-0.608398,0.370667,-115.392,44.65,-31.1917,-7102,-28891
2094,63852,0,0,0,-124.338,-89.1211,-172.848,9.83828,-0.129199,-0.0717773,0.598511,0.366211,-0.608398,0.370667,-115.375,44.6667,-31.2083,-7102,-28891
2100,63858,0,0,0,-124.338,-89.1211,-172.848,9.80957,-0.133984,-0.110059,0.598541,0.36618,-0.608398,0.370636,-115.383,44.7,-31.2583,-7102,-28891
2106,63864,0,0,0,-124.343,-89.1211,-172.848,9.81436,-0.124414,-0.0813477,0.598541,0.36618,-0.608429,0.370636,-115.4,44.7083,-31.3083,-7102,-28891
2112,63870,0,0,0,-124.343,-89.1211,-172.848,9.8,-0.124414,-0.100488,0.598541,0.36615,-0.608429,0.370605,-115.425,44.725,-31.3667,-7102,-28891
2118,63876,0,0,0,-124.343,-89.1211,-172.848,9.82393,-0.143555,-0.0717773,0.598572,0.36615,-0.608429,0.370605,-115.442,44.725,-31.4167,-7102,-28891
2124,63882,0,0,0,-124.349,-89.1211,-172.848,9.81436,-0.114844,-0.0957031,0.598572,0.36615,-0.608459,0.370605,-115.392,44.7167,-31.5083,-7102,-28891
2130,63888,0,0,0,-124.349,-89.1211,-172.848,6.2877,17.1691,6.54131,0.598572,0.366119,-0.608459,0.370575,-115.383,44.7083,-31.5,-7102,-28891
2136,63894,-0.183105,-6.34766,35.5225,-121.223,-88.9508,-176.32,39.1952,-24.1315,6.41211,0.598877,0.363556,-0.610321,0.369537,-115.367,44.6833,-31.4917,-7102,-28891
2142,63900,1.0376,3.11279,28.0151,-116.554,-88.83,179.242,-5.69434,-15.7384,-0.995313,0.597748,0.363953,-0.609955,0.371613,-115.358,44.6833,-31.4583,-7102,-28891
2148,63906,-6.28662,-7.93457,-49.9878,-124.601,-89.0057,-172.573,1.77051,15.59,-9.90527,0.597839,0.365997,-0.609009,0.370972,-115.342,44.6917,-31.3917,-7102,-28891
2154,63912,11.2915,-10.437,1.83105,-116.537,-89.1431,179.555,18.7674,-3.80898,5.98623,0.599365,0.365509,-0.607635,0.371246,-115.233,44.7583,-31.2917,-7102,-28891
2160,63918,6.71387,-31.0059,-4.63867,-125.491,-89.0771,-171.249,11.7619,-2.70361,-3.48838,0.596802,0.368561,-0.607239,0.372955,-115.192,44.8083,-31.25,-7102,-28891
2166,63924,-3.479,14.7095,32.7759,-116.592,-88.9728,179.956,9.53203,-0.842188,3.46445,0.596283,0.368011,-0.607056,0.374664,-115.158,44.8167,-31.2417,-7102,-28891
2172,63930,-2.0752,15.1978,-16.7847,-114.401,-89.0717,177.918,9.54639,-1.0623,1.41162,0.596436,0.368988,-0.605896,0.375336,-115.133,44.8167,-31.225,-7102,-28891
2178,63936,0,4.57764,-0.732422,-112.835,-89.0826,176.534,9.79043,0.0861328,-1.54082,0.595978,0.369812,-0.605225,0.376373,-115.125,44.825,-31.2417,-7102,-28891
2184,63942,-7.99561,28.2593,-3.23486,-102.997,-89.2035,166.926,10.0105,-0.13877,-1.26328,0.595917,0.370789,-0.60434,0.376892,-115.1,44.85,-31.375,-7102,-28891
2190,63948,-2.99072,4.15039,-1.34277,-101.195,-89.209,165.317,10.0153,0.363672,0.291895,0.595886,0.371765,-0.60257,0.378845,-115.083,44.8583,-31.4417,-7102,-28891
2196,63954,4.08936,-25.0854,6.71387,-108.523,-89.1376,172.881,11.2643,-1.02402,-3.63672,0.59433,0.373169,-0.602539,0.379913,-115.067,44.8667,-31.475,-7102,-28891
2202,63960,-0.854492,3.84521,-2.74658,-107.276,-89.1486,171.804,9.12051,0.717773,-0.0239258,0.593903,0.374023,-0.601868,0.380829,-115.075,44.8417,-31.45,-7102,-28891
2208,63966,-3.17383,15.3198,-0.915527,-102.036,-89.165,166.723,8.76641,-0.334961,3.34004,0.593781,0.374603,-0.600952,0.381927,-115.05,44.825,-31.4583,-7102,-28891
2214,63972,3.90625,-26.9775,0.305176,-113.17,-89.0662,178.292,10.1685,-0.205762,-0.732129,0.592621,0.375732,-0.600677,0.382996,-115.017,44.7917,-31.4,-7102,-28891
2220,63978,1.83105,-10.0098,1.58691,-115.411,-89.0332,-179.269,9.85742,-0.191406,-0.0191406,0.59021,0.378387,-0.600311,0.384674,-114.983,44.7833,-31.4083,-7102,-28891
2226,63984,1.15967,-0.976563,2.86865,-115.01,-89.0167,-179.484,9.91484,-0.411523,1.03838,0.589508,0.379272,-0.599762,0.385742,-114.967,44.7667,-31.375,-7102,-28891
2232,63990,0,-8.54492,4.02832,-116.384,-88.9728,-177.913,9.8957,-0.334961,-0.617285,0.588562,0.38028,-0.599396,0.386749,-114.95,44.7583,-31.3333,-7102,-28891
2238,63996,0.0610352,-5.79834,-1.77002,-117.757,-88.9673,-176.353,9.62295,-0.0191406,-0.645996,0.58783,0.381348,-0.598907,0.387573,-114.942,44.7417,-31.2667,-7110,-28890
2244,64002,-0.305176,3.72314,-2.0752,-115.093,-88.9893,-178.682,9.60381,-0.267969,0.569434,0.587402,0.38208,-0.598206,0.38858,-114.967,44.7417,-31.175,-7110,-28890
2250,64008,0.0610352,-5.37109,1.2207,-116.032,-88.9673,-177.55,10.2785,-0.478516,-0.588574,0.586151,0.383942,-0.597046,0.390411,-114.983,44.7333,-31.1417,-7110,-28890
2256,64014,0.12207,-3.54004,0.305176,-116.636,-88.9563,-176.781,9.78564,0.253613,-0.478516,0.58548,0.384857,-0.596588,0.391266,-114.983,44.7417,-31.125,-7110,-28890
2262,64020,0.12207,4.02832,-1.09863,-115.56,-88.9673,-177.698,9.80479,-0.16748,0.411523,0.585052,0.38562,-0.595917,0.392151,-114.983,44.75,-31.1417,-7110,-28890
2268,64026,-0.12207,2.92969,0.915527,-114.494,-88.9673,-178.599,9.62295,-0.0143555,0.162695,0.584534,0.386353,-0.595306,0.393097,-114.975,44.7583,-31.1333,-7110,-28890
2274,64032,0.0610352,-1.83105,1.40381,-115.252,-88.9508,-177.517,9.80957,-0.229688,-0.483301,0.583893,0.387268,-0.594818,0.393921,-114.942,44.7917,-31.1167,-7110,-28890
2280,64038,-0.12207,2.92969,-1.52588,-114.527,-88.9618,-178.099,9.68994,0.119629,0.253613,0.582886,0.388763,-0.593781,0.395508,-114.925,44.7833,-31.1,-7110,-28890
2286,64044,0.0610352,1.89209,0.976563,-113.769,-88.9563,-178.709,10.0249,-0.29668,0.172266,0.582428,0.389465,-0.593231,0.396332,-114.917,44.7667,-31.075,-7110,-28890
2292,64050,0,-2.80762,0.183105,-114.274,-88.9508,-178.05,9.85264,0.0287109,-0.387598,0.581818,0.390259,-0.592773,0.397095,-114.925,44.75,-31.0667,-7110,-28890
2298,64056,0.0610352,-1.64795,0.244141,-114.505,-88.9453,-177.682,9.92441,-0.344531,-0.267969,0.581299,0.390991,-0.592346,0.397797,-114.942,44.7417,-31.0667,-7110,-28890
2304,64062,-0.183105,1.15967,-0.549316,-113.472,-88.9508,-178.456,9.62773,-0.00478516,0.105273,0.580902,0.391602,-0.591858,0.398499,-114.975,44.7333,-31.0917,-7110,-28890
2310,64068,0.0610352,-1.70898,0.0610352,-113.752,-88.9508,-178.044,9.82871,-0.0526367,-0.277539,0.580017,0.392914,-0.590973,0.399811,-114.975,44.75,-31.1083,-7110,-28890
2316,64074,0.244141,-1.70898,-1.2207,-114.192,-88.9508,-177.49,9.86699,-0.062207,-0.248828,0.579559,0.393585,-0.590576,0.40036,-114.958,44.7333,-31.1417,-7110,-28890
2322,64080,0.244141,1.40381,0.671387,-113.654,-88.9508,-177.913,9.86699,-0.172266,0.114844,0.579224,0.394104,-0.590179,0.40097,-114.95,44.7083,-31.1667,-7110,-28890
2328,64086,0.0610352,1.09863,-0.549316,-113.324,-88.9508,-178.132,9.72822,0.0239258,0.0574219,0.578857,0.394653,-0.589752,0.40155,-114.942,44.6917,-31.2167,-7110,-28890
2334,64092,0.305176,-1.15967,0.12207,-113.654,-88.9453,-177.583,9.83828,-0.258398,-0.200977,0.57843,0.395233,-0.589386,0.40213,-114.983,44.65,-31.2583,-7110,-28890
2340,64098,-0.12207,1.2207,0.183105,-113.242,-88.9453,-177.907,9.83828,-0.253613,0.0526367,0.577728,0.39624,-0.588684,0.403168,-115.017,44.65,-31.275,-7110,-28890
2346,64104,0,1.28174,0.12207,-112.819,-88.9508,-178.237,9.74736,-0.0430664,0.129199,0.577454,0.396667,-0.588348,0.403656,-115.033,44.675,-31.225,-7110,-28890
2352,64110,0.0610352,-1.09863,-0.244141,-113.022,-88.9453,-177.929,9.95313,-0.14834,-0.14834,0.577087,0.397186,-0.588013,0.404144,-115.025,44.6833,-31.2167,-7110,-28890
2358,64116,0,-0.915527,0.732422,-113.088,-88.9398,-177.775,9.90049,-0.13877,-0.215332,0.576721,0.397644,-0.587708,0.404633,-115.017,44.675,-31.2167,-7110,-28890
2364,64122,-0.0610352,1.09863,0.427246,-112.385,-88.9453,-178.314,9.79043,-0.110059,0.0478516,0.576477,0.398041,-0.587402,0.405029,-114.983,44.6667,-31.2,-7110,-28890
2370,64128,0.244141,-1.15967,-0.12207,-112.61,-88.9453,-178.006,9.76172,-0.0717773,-0.205762,0.575897,0.398895,-0.586823,0.405884,-114.992,44.65,-31.1583,-7110,-28890
2376,64134,0,-0.915527,0,-112.775,-88.9453,-177.764,9.8957,-0.191406,-0.177051,0.575623,0.399261,-0.586578,0.40625,-114.992,44.65,-31.1167,-7110,-28890
2382,64140,0,0.915527,-0.305176,-112.516,-88.9453,-177.957,9.77129,-0.0143555,0.0382813,0.575409,0.399597,-0.586334,0.406586,-114.992,44.6667,-31.1,-7110,-28890
2388,64146,0,0.610352,-0.427246,-112.352,-88.9508,-178.061,9.85742,-0.143555,0.0191406,0.575226,0.399933,-0.58606,0.406921,-114.992,44.6417,-31.1,-7110,-28890
2394,64152,0.0610352,-0.732422,-0.183105,-112.692,-88.9508,-177.594,9.80957,-0.0669922,-0.244043,0.574738,0.400604,-0.585663,0.407532,-114.942,44.6,-31.1417,-7110,-28890
2400,64158,0.0610352,0.915527,0.305176,-112.39,-88.9508,-177.847,9.73301,-0.0957031,0.0143555,0.574615,0.400787,-0.58548,0.407776,-114.942,44.575,-31.125,-7110,-28890
2406,64164,0.0610352,0.488281,-0.488281,-112.28,-88.9508,-177.913,9.79043,-0.105273,-0.062207,0.574463,0.401031,-0.585297,0.40802,-114.958,44.5667,-31.1,-7110,-28890
2412,64170,0.244141,-0.793457,0.183105,-112.423,-88.9508,-177.726,9.86221,-0.119629,-0.196191,0.57428,0.401276,-0.585144,0.408234,-114.983,44.575,-31.0833,-7110,-28890
2418,64176,0,-0.305176,-0.244141,-112.5,-88.9508,-177.616,9.85264,-0.0813477,-0.110059,0.574158,0.401459,-0.585022,0.408417,-115.025,44.575,-31.0917,-7110,-28890
