TimeSinceCollection,Timestamp,AccX,AccY,AccZ,AngleRoll,AnglePitch,AngleYaw,AngularVelX,AngularVelY,AngularVelZ,Q1,Q2,Q3,Q4,MagX,MagY,MagZ,Height,Airpressure
0,38832,9.78086,-0.119629,-0.401953,-165.635,-87.4677,-68.1372,0,0,0,0.309448,0.642181,-0.330017,0.618713,-111.725,60.7417,-36.125,-7788,-28808
6,38838,9.79521,-0.100488,-0.421094,-165.635,-87.4677,-68.1372,0,0,0,0.309448,0.642181,-0.330017,0.618744,-111.725,60.7417,-36.125,-7788,-28808
12,38844,9.81436,-0.100488,-0.401953,-165.635,-87.4677,-68.1372,0,0,0,0.309448,0.642181,-0.330017,0.618744,-111.717,60.75,-36.125,-7788,-28808
18,38850,9.80957,-0.0957031,-0.392383,-165.635,-87.4677,-68.1372,0,0,0,0.309448,0.642181,-0.330017,0.618744,-111.708,60.775,-36.1083,-7788,-28808
24,38856,9.79521,-0.110059,-0.392383,-165.635,-87.4677,-68.1372,0,0,0,0.309448,0.642181,-0.330017,0.618744,-111.692,60.8333,-36.075,-7788,-28808
30,38862,9.8,-0.110059,-0.401953,-165.635,-87.4677,-68.1372,0,0,0,0.309448,0.642181,-0.330017,0.618744,-111.7,60.875,-36.05,-7788,-28808
36,38868,9.78564,-0.124414,-0.406738,-165.635,-87.4677,-68.1372,0,0,0,0.309418,0.642181,-0.329987,0.618744,-111.725,60.9167,-36.0167,-7788,-28808
42,38874,9.79521,-0.110059,-0.392383,-165.635,-87.4677,-68.1372,0,0,0,0.309418,0.642181,-0.329987,0.618744,-111.725,60.9167,-36,-7788,-28808
48,38880,9.81436,-0.090918,-0.392383,-165.586,-87.4677,-68.1921,-0.12207,-0.12207,0.488281,0.309418,0.642181,-0.329987,0.618744,-111.717,60.9167,-35.975,-7788,-28808
54,38886,9.82393,-0.100488,-0.392383,-165.564,-87.4677,-68.2086,0.0610352,0.12207,0.12207,0.309387,0.642181,-0.329987,0.618744,-111.692,60.8667,-36.0167,-7788,-28808
60,38892,9.79521,-0.114844,-0.421094,-165.569,-87.4677,-68.2031,0,0.0610352,-0.0610352,0.309387,0.642181,-0.329987,0.618744,-111.667,60.8667,-36.0167,-7788,-28808
66,38898,9.79043,-0.110059,-0.416309,-165.575,-87.4677,-68.1921,0.12207,0,-0.0610352,0.309387,0.642181,-0.329987,0.618744,-111.658,60.8583,-36,-7788,-28808
72,38904,9.79521,-0.090918,-0.425879,-165.575,-87.4677,-68.1921,0,0,0,0.309387,0.642181,-0.329987,0.618774,-111.658,60.8667,-35.975,-7788,-28808
78,38910,9.80479,-0.0861328,-0.401953,-165.591,-87.4677,-68.1757,0.0610352,0,0,0.309387,0.642181,-0.329956,0.618774,-111.667,60.8667,-35.975,-7788,-28808
84,38916,9.82393,-0.105273,-0.406738,-165.575,-87.4677,-68.1921,0,-0.183105,0.183105,0.309387,0.642212,-0.329987,0.618774,-111.708,60.9083,-36.0083,-7788,-28808
90,38922,9.81436,-0.119629,-0.430664,-165.602,-87.4677,-68.1647,-0.0610352,0,-0.244141,0.309387,0.642212,-0.329956,0.618774,-111.708,60.925,-36.075,-7788,-28808
96,38928,9.79521,-0.090918,-0.392383,-165.602,-87.4677,-68.1647,-0.0610352,0,0,0.309387,0.642212,-0.329956,0.618774,-111.717,60.9333,-36.1333,-7788,-28808
102,38934,9.80479,-0.114844,-0.387598,-165.624,-87.4677,-68.1427,0.0610352,0,-0.183105,0.309387,0.642212,-0.329956,0.618774,-111.725,60.925,-36.1917,-7788,-28808
108,38940,9.79521,-0.124414,-0.401953,-165.624,-87.4731,-68.1427,-0.12207,0,-0.0610352,0.309387,0.642212,-0.329956,0.618774,-111.742,60.9167,-36.2,-7788,-28808
114,38946,9.79521,-0.105273,-0.411523,-165.624,-87.4731,-68.1427,0.0610352,0.0610352,0,0.309387,0.642212,-0.329926,0.618774,-111.775,60.9167,-36.1917,-7788,-28808
120,38952,9.78564,-0.090918,-0.397168,-165.624,-87.4731,-68.1372,-0.12207,0.0610352,-0.0610352,0.309387,0.642212,-0.329926,0.618774,-111.792,60.9083,-36.1917,-7788,-28808
126,38958,9.81436,-0.105273,-0.416309,-165.619,-87.4731,-68.1427,-0.0610352,0,0.0610352,0.309357,0.642212,-0.329926,0.618774,-111.792,60.8917,-36.2167,-7788,-28808
132,38964,9.78564,-0.114844,-0.411523,-165.619,-87.4731,-68.1427,0,0,0,0.309357,0.642212,-0.329926,0.618774,-111.792,60.875,-36.2833,-7788,-28808
138,38970,9.81436,-0.119629,-0.425879,-165.597,-87.4731,-68.1702,-0.0610352,0,-0.244141,0.309357,0.642212,-0.329926,0.618805,-111.8,60.8667,-36.3333,-7788,-28808
144,38976,9.82393,-0.100488,-0.421094,-165.586,-87.4731,-68.1757,0,0,0.0610352,0.309357,0.642212,-0.329926,0.618805,-111.817,60.875,-36.3167,-7788,-28808
150,38982,9.82393,-0.110059,-0.430664,-165.575,-87.4731,-68.1866,0.12207,0,0.12207,0.309357,0.642212,-0.329926,0.618805,-111.85,60.8917,-36.2833,-7788,-28808
156,38988,9.78564,-0.090918,-0.416309,-165.558,-87.4731,-68.2031,0,0,0.12207,0.309357,0.642212,-0.329926,0.618805,-111.867,60.9,-36.25,-7788,-28808
162,38994,9.8,-0.090918,-0.421094,-165.569,-87.4731,-68.1921,0,-0.12207,-0.0610352,0.309357,0.642212,-0.329926,0.618805,-111.867,60.8833,-36.2333,-7788,-28808
168,39000,9.81914,-0.119629,-0.411523,-165.58,-87.4731,-68.1812,0,0,-0.183105,0.309357,0.642212,-0.329926,0.618805,-111.9,60.8917,-36.2083,-7788,-28808
174,39006,9.8,-0.062207,-0.411523,-165.591,-87.4731,-68.1702,0.0610352,0,-0.12207,0.309357,0.642212,-0.329926,0.618805,-111.917,60.9,-36.2167,-7788,-28808
180,39012,9.79043,-0.100488,-0.406738,-165.597,-87.4731,-68.1647,-0.0610352,-0.0610352,0,0.309357,0.642212,-0.329926,0.618805,-111.925,60.9167,-36.2667,-7788,-28808
186,39018,9.79043,-0.105273,-0.416309,-165.591,-87.4731,-68.1702,0,0,0.0610352,0.309357,0.642212,-0.329926,0.618774,-111.925,60.9333,-36.325,-7788,-28808
192,39024,9.8,-0.0861328,-0.421094,-165.586,-87.4731,-68.1757,0,0.12207,0,0.309357,0.642212,-0.329926,0.618805,-111.892,60.9417,-36.3667,-7788,-28808
198,39030,9.82871,-0.0957031,-0.411523,-165.597,-87.4731,-68.1702,-0.0610352,0.0610352,-0.12207,0.309387,0.642181,-0.329926,0.618774,-111.842,60.9417,-36.4,-7788,-28808
204,39036,9.8,-0.110059,-0.430664,-165.597,-87.4731,-68.1702,0,0,0,0.309387,0.642181,-0.329956,0.618774,-111.833,60.9417,-36.3833,-7788,-28808
210,39042,9.80479,-0.0813477,-0.430664,-165.575,-87.4731,-68.1976,-0.0610352,0.183105,0.183105,0.309387,0.642181,-0.329956,0.618774,-111.833,60.925,-36.3833,-7788,-28808
216,39048,9.80479,-0.133984,-0.416309,-165.564,-87.4731,-68.2031,0.12207,0.0610352,0.0610352,0.309387,0.642181,-0.329956,0.618774,-111.842,60.925,-36.3583,-7788,-28808
222,39054,9.80479,-0.110059,-0.421094,-165.547,-87.4731,-68.2251,-0.183105,0,0.183105,0.309418,0.642151,-0.329987,0.618774,-111.85,60.9083,-36.3083,-7788,-28808
228,39060,9.8335,-0.114844,-0.430664,-165.52,-87.4731,-68.2526,-0.0610352,-0.0610352,0,0.309418,0.642151,-0.329987,0.618774,-111.875,60.8917,-36.35,-7788,-28808
234,39066,9.80479,-0.105273,-0.425879,-165.531,-87.4731,-68.2471,-0.0610352,0,-0.0610352,0.309418,0.642151,-0.329987,0.618774,-111.892,60.9,-36.4083,-7788,-28808
240,39072,9.8,-0.129199,-0.416309,-165.531,-87.4731,-68.2471,0.0610352,0,0,0.309418,0.642151,-0.329987,0.618774,-111.908,60.9,-36.4833,-7788,-28808
246,39078,9.80479,-0.0957031,-0.416309,-165.526,-87.4731,-68.2526,0.0610352,0,0.0610352,0.309418,0.642151,-0.329987,0.618774,-111.933,60.925,-36.5167,-7788,-28808
252,39084,9.82871,-0.114844,-0.411523,-165.52,-87.4731,-68.2581,-0.0610352,0.12207,0,0.309418,0.642151,-0.329987,0.618774,-111.942,60.9333,-36.5083,-7788,-28808
258,39090,9.79521,-0.0957031,-0.416309,-165.504,-87.4731,-68.2745,0,-0.0610352,0.183105,0.309418,0.642151,-0.330017,0.618774,-111.958,60.9583,-36.45,-7788,-28808
264,39096,9.8,-0.090918,-0.401953,-165.504,-87.4731,-68.2745,0,0,0,0.309418,0.642151,-0.330017,0.618774,-111.983,60.9417,-36.4,-7788,-28808
270,39102,9.79521,-0.119629,-0.411523,-165.504,-87.4731,-68.2745,0,0,0,0.309418,0.642151,-0.330017,0.618774,-112.017,60.925,-36.375,-7788,-28808
276,39108,9.77607,-0.0957031,-0.421094,-165.487,-87.4731,-68.291,-0.0610352,-0.0610352,0.183105,0.309418,0.642151,-0.330017,0.618774,-112.05,60.875,-36.3333,-7788,-28808
282,39114,9.8,-0.124414,-0.406738,-165.487,-87.4731,-68.291,-0.0610352,0.12207,-0.0610352,0.309418,0.64212,-0.330017,0.618774,-112.058,60.825,-36.3167,-7788,-28808
288,39120,9.80479,-0.0717773,-0.401953,-165.476,-87.4731,-68.302,0,0.12207,0.0610352,0.309418,0.64212,-0.330017,0.618774,-112.033,60.7833,-36.3417,-7788,-28808
294,39126,9.81914,-0.105273,-0.425879,-165.482,-87.4731,-68.2965,0,-0.183105,0,0.309448,0.64212,-0.330048,0.618774,-112.008,60.775,-36.325,-7788,-28808
300,39132,9.81914,-0.100488,-0.406738,-165.476,-87.4731,-68.3075,0,0,0.0610352,0.309448,0.64212,-0.330048,0.618774,-111.983,60.7833,-36.3,-7788,-28808
306,39138,9.80479,-0.105273,-0.435449,-165.476,-87.4731,-68.3075,-0.0610352,0.0610352,0,0.309448,0.64212,-0.330048,0.618774,-111.967,60.775,-36.25,-7788,-28808
312,39144,9.81436,-0.105273,-0.440234,-165.449,-87.4731,-68.335,0.0610352,0,0.244141,0.309448,0.64212,-0.330048,0.618774,-111.95,60.7333,-36.2167,-7788,-28808
318,39150,9.81914,-0.0765625,-0.425879,-165.454,-87.4731,-68.3295,0,0.12207,0.12207,0.309448,0.64212,-0.330048,0.618774,-111.892,60.6833,-36.2333,-7788,-28808
324,39156,9.79521,-0.100488,-0.401953,-165.443,-87.4731,-68.3459,0.0610352,0,0.12207,0.309479,0.64209,-0.330078,0.618744,-111.858,60.6583,-36.225,-7788,-28808
330,39162,9.8,-0.100488,-0.401953,-165.46,-87.4731,-68.3295,-0.0610352,0,-0.12207,0.309479,0.64209,-0.330078,0.618744,-111.85,60.65,-36.1917,-7788,-28808
336,39168,9.79521,-0.114844,-0.440234,-165.46,-87.4731,-68.3295,0,0,0,0.309479,0.64209,-0.330109,0.618744,-111.85,60.65,-36.1333,-7788,-28808
342,39174,9.80957,-0.129199,-0.416309,-165.476,-87.4731,-68.3185,0.12207,0,-0.12207,0.309509,0.64209,-0.330109,0.618744,-111.842,60.625,-36.0667,-7788,-28808
348,39180,9.79521,-0.100488,-0.430664,-165.421,-87.4731,-68.3734,0.0610352,0,0.183105,0.309509,0.64209,-0.330109,0.618744,-111.842,60.6083,-35.9917,-7788,-28808
354,39186,9.79521,-0.105273,-0.430664,-165.405,-87.4731,-68.3899,0,0.305176,0.0610352,0.309509,0.642059,-0.330139,0.618744,-111.817,60.6,-35.9917,-7788,-28808
360,39192,9.79521,-0.100488,-0.449805,-165.41,-87.4731,-68.3899,0,0,0,0.309509,0.642059,-0.330139,0.618744,-111.808,60.5833,-35.9667,-7788,-28808
366,39198,9.80479,-0.114844,-0.406738,-165.41,-87.4731,-68.3899,0.12207,0,0,0.309509,0.642059,-0.330139,0.618744,-111.792,60.5667,-35.95,-7788,-28808
372,39204,9.81914,-0.105273,-0.406738,-165.405,-87.4731,-68.3899,-0.0610352,0.12207,0,0.309509,0.642059,-0.330139,0.618744,-111.792,60.575,-35.9333,-7788,-28808
378,39210,9.82871,-0.105273,-0.401953,-165.399,-87.4731,-68.4009,0,0,-0.0610352,0.309509,0.642059,-0.330139,0.618744,-111.8,60.6167,-35.925,-7788,-28808
384,39216,9.79521,-0.105273,-0.411523,-165.388,-87.4731,-68.4119,0,0,0.12207,0.30954,0.642059,-0.33017,0.618744,-111.817,60.65,-35.9167,-7788,-28808
390,39222,9.81914,-0.110059,-0.430664,-165.388,-87.4731,-68.4174,0,0.12207,0,0.30954,0.642029,-0.33017,0.618744,-111.808,60.675,-35.9417,-7788,-28808
396,39228,9.80479,-0.129199,-0.406738,-165.388,-87.4786,-68.4119,0,0.12207,-0.0610352,0.30954,0.642029,-0.33017,0.618744,-111.8,60.7,-35.9833,-7788,-28808
402,39234,9.80957,-0.105273,-0.406738,-165.421,-87.4731,-68.3844,-0.0610352,-0.0610352,-0.244141,0.30954,0.642029,-0.33017,0.618744,-111.8,60.725,-36.0167,-7788,-28808
408,39240,9.79043,-0.090918,-0.411523,-165.41,-87.4786,-68.3899,0,-0.0610352,-0.12207,0.30957,0.642029,-0.33017,0.618744,-111.825,60.7417,-36.075,-7788,-28808
414,39246,9.8,-0.105273,-0.401953,-165.377,-87.4731,-68.4229,0,-0.0610352,0.305176,0.30954,0.642029,-0.33017,0.618744,-111.833,60.7417,-36.0583,-7788,-28808
420,39252,9.8,-0.0957031,-0.406738,-165.383,-87.4731,-68.4229,0,0,0,0.30957,0.642029,-0.3302,0.618744,-111.85,60.7583,-36.025,-7788,-28808
426,39258,9.80957,-0.105273,-0.430664,-165.383,-87.4731,-68.4229,0,0,0,0.30957,0.642029,-0.3302,0.618713,-111.85,60.7667,-35.9833,-7788,-28808
432,39264,9.79521,-0.100488,-0.425879,-165.394,-87.4731,-68.4119,-0.0610352,0.0610352,-0.12207,0.30957,0.642029,-0.3302,0.618713,-111.85,60.775,-35.9333,-7796,-28807
438,39270,9.81914,-0.110059,-0.406738,-165.399,-87.4731,-68.4119,-0.12207,0,0,0.30957,0.642029,-0.3302,0.618713,-111.85,60.7667,-35.8167,-7796,-28807
444,39276,9.82393,-0.090918,-0.435449,-165.394,-87.4731,-68.4174,-0.0610352,-0.0610352,0.0610352,0.309601,0.642029,-0.330231,0.618713,-111.85,60.7333,-35.8083,-7796,-28807
450,39282,9.78086,-0.0957031,-0.401953,-165.366,-87.4731,-68.4448,0,0.12207,0.244141,0.309601,0.641998,-0.330231,0.618713,-111.842,60.7167,-35.8083,-7796,-28807
456,39288,9.78086,-0.0957031,-0.416309,-165.366,-87.4731,-68.4448,0.0610352,0,0,0.309601,0.641998,-0.330231,0.618713,-111.817,60.7167,-35.8583,-7796,-28807
462,39294,9.8,-0.124414,-0.421094,-165.366,-87.4731,-68.4448,-0.0610352,0,0,0.309601,0.641998,-0.330231,0.618713,-111.8,60.725,-35.9083,-7796,-28807
468,39300,9.81436,-0.100488,-0.406738,-165.35,-87.4731,-68.4668,-0.0610352,0,0.12207,0.309601,0.641998,-0.330261,0.618713,-111.758,60.75,-35.975,-7796,-28807
474,39306,9.81436,-0.105273,-0.401953,-165.35,-87.4731,-68.4668,-0.0610352,0,0,0.309631,0.641998,-0.330261,0.618713,-111.758,60.7583,-35.975,-7796,-28807
480,39312,9.8,-0.124414,-0.440234,-165.339,-87.4731,-68.4833,-0.0610352,0.0610352,0.12207,0.309631,0.641998,-0.330261,0.618713,-111.75,60.75,-35.9667,-7796,-28807
486,39318,9.80479,-0.110059,-0.430664,-165.311,-87.4731,-68.5107,0,0.0610352,0.244141,0.309631,0.641968,-0.330292,0.618713,-111.742,60.75,-35.9667,-7796,-28807
492,39324,9.83828,-0.0957031,-0.421094,-165.306,-87.4731,-68.5162,0,0,0.0610352,0.309631,0.641968,-0.330292,0.618713,-111.742,60.7583,-35.975,-7796,-28807
498,39330,9.78564,-0.110059,-0.406738,-165.273,-87.4731,-68.5492,-0.12207,0.12207,-0.12207,0.309631,0.641968,-0.330322,0.618713,-111.725,60.7667,-36.0333,-7796,-28807
504,39336,9.8,-0.100488,-0.425879,-165.262,-87.4731,-68.5657,-0.0610352,0.0610352,0.12207,0.309631,0.641937,-0.330322,0.618713,-111.717,60.775,-36.0417,-7796,-28807
510,39342,9.80957,-0.110059,-0.411523,-165.256,-87.4731,-68.5712,0,-0.0610352,0.0610352,0.309631,0.641937,-0.330322,0.618683,-111.717,60.7667,-36.05,-7796,-28807
516,39348,9.79521,-0.119629,-0.425879,-165.267,-87.4731,-68.5547,0,-0.183105,-0.0610352,0.309662,0.641968,-0.330322,0.618683,-111.708,60.7583,-36.0583,-7796,-28807
522,39354,9.83828,-0.114844,-0.430664,-165.273,-87.4731,-68.5547,-0.0610352,0,0,0.309662,0.641937,-0.330353,0.618683,-111.708,60.75,-36.0333,-7796,-28807
528,39360,9.81436,-0.0957031,-0.416309,-165.273,-87.4731,-68.5547,-0.12207,0,-0.0610352,0.309662,0.641937,-0.330353,0.618683,-111.742,60.7083,-35.9417,-7796,-28807
534,39366,9.80957,-0.105273,-0.397168,-165.267,-87.4731,-68.5657,0,0.12207,0.0610352,0.309662,0.641937,-0.330353,0.618683,-111.775,60.6833,-35.9417,-7796,-28807
540,39372,9.82871,-0.0861328,-0.425879,-165.262,-87.4731,-68.5657,0.0610352,0.0610352,0,0.309662,0.641937,-0.330353,0.618683,-111.808,60.65,-35.925,-7796,-28807
546,39378,9.82393,-0.114844,-0.440234,-165.278,-87.4731,-68.5547,0.0610352,0.0610352,-0.12207,0.309692,0.641937,-0.330353,0.618683,-111.817,60.6333,-35.9667,-7796,-28807
552,39384,9.8335,-0.114844,-0.401953,-165.267,-87.4731,-68.5657,0,0.0610352,-0.183105,0.309692,0.641937,-0.330383,0.618683,-111.817,60.6167,-36.0583,-7796,-28807
558,39390,9.80957,-0.119629,-0.435449,-165.289,-87.4731,-68.5492,0,0,0,0.309692,0.641937,-0.330383,0.618683,-111.775,60.6333,-36.1333,-7796,-28807
564,39396,9.80479,-0.090918,-0.425879,-165.3,-87.4786,-68.5327,0.0610352,0,-0.12207,0.309723,0.641937,-0.330383,0.618652,-111.775,60.6333,-36.1417,-7796,-28807
570,39402,9.81914,-0.0765625,-0.421094,-165.273,-87.4731,-68.5657,-0.183105,0,0.305176,0.309723,0.641907,-0.330383,0.618652,-111.742,60.6333,-36.1417,-7796,-28807
576,39408,9.77607,-0.062207,-0.397168,-165.284,-87.4731,-68.5547,0,0,-0.12207,0.309723,0.641907,-0.330414,0.618652,-111.717,60.65,-36.15,-7796,-28807
582,39414,9.79043,-0.100488,-0.425879,-165.267,-87.4731,-68.5712,0,0.12207,0.0610352,0.309753,0.641907,-0.330414,0.618652,-111.717,60.6667,-36.1917,-7796,-28807
588,39420,9.77607,-0.0861328,-0.411523,-165.262,-87.4786,-68.5822,0,0,0,0.309784,0.641876,-0.330444,0.618622,-111.75,60.7333,-36.2667,-7796,-28807
594,39426,9.80957,-0.124414,-0.397168,-165.245,-87.4786,-68.6096,0,0.12207,0.183105,0.309784,0.641876,-0.330475,0.618622,-111.792,60.75,-36.3,-7796,-28807
600,39432,9.82871,-0.124414,-0.397168,-165.245,-87.4786,-68.6096,-0.0610352,0.0610352,0,0.309784,0.641876,-0.330475,0.618622,-111.808,60.7583,-36.325,-7796,-28807
606,39438,9.81914,-0.119629,-0.406738,-165.218,-87.4786,-68.6371,-0.0610352,0.0610352,0.244141,0.309814,0.641846,-0.330505,0.618622,-111.817,60.7833,-36.3333,-7796,-28807
612,39444,9.82393,-0.119629,-0.406738,-165.245,-87.4786,-68.6096,0,0,0.0610352,0.309814,0.641846,-0.330505,0.618622,-111.817,60.8083,-36.3583,-7796,-28807
618,39450,9.81436,-0.114844,-0.425879,-165.234,-87.4786,-68.6261,0,0,0.0610352,0.309814,0.641846,-0.330505,0.618622,-111.825,60.9,-36.3583,-7796,-28807
624,39456,9.80957,-0.090918,-0.397168,-165.229,-87.4786,-68.6261,-0.12207,0.12207,0,0.309814,0.641846,-0.330505,0.618622,-111.808,60.9083,-36.3667,-7796,-28807
630,39462,9.81914,-0.105273,-0.416309,-165.234,-87.4786,-68.6261,0,0,0,0.309845,0.641846,-0.330505,0.618622,-111.792,60.9083,-36.3667,-7796,-28807
636,39468,9.81436,-0.090918,-0.406738,-165.262,-87.4786,-68.5986,0.12207,0,-0.244141,0.309845,0.641846,-0.330505,0.618622,-111.758,60.8917,-36.35,-7796,-28807
642,39474,9.78564,-0.110059,-0.421094,-165.273,-87.4786,-68.5931,0.0610352,-0.183105,-0.0610352,0.309845,0.641846,-0.330536,0.618591,-111.733,60.8667,-36.3417,-7796,-28807
648,39480,9.78564,-0.105273,-0.430664,-165.251,-87.4731,-68.6096,0,0,0.183105,0.309845,0.641846,-0.330536,0.618591,-111.7,60.8083,-36.35,-7796,-28807
654,39486,9.80479,-0.119629,-0.425879,-165.256,-87.4731,-68.6096,0,0,0,0.309845,0.641846,-0.330536,0.618591,-111.717,60.8,-36.375,-7796,-28807
660,39492,9.79043,-0.090918,-0.44502,-165.245,-87.4731,-68.6206,0,-0.12207,0.12207,0.309845,0.641846,-0.330566,0.618591,-111.742,60.7917,-36.375,-7796,-28807
666,39498,9.80479,-0.110059,-0.397168,-165.24,-87.4731,-68.6261,0.12207,-0.0610352,0.0610352,0.309845,0.641846,-0.330566,0.618591,-111.75,60.7917,-36.4,-7796,-28807
672,39504,9.8,-0.114844,-0.382813,-165.234,-87.4731,-68.6316,0,-0.0610352,0.0610352,0.309875,0.641815,-0.330566,0.618591,-111.758,60.7917,-36.3667,-7796,-28807
678,39510,9.81436,-0.100488,-0.397168,-165.229,-87.4731,-68.6426,0,0,0.0610352,0.309875,0.641815,-0.330566,0.618591,-111.708,60.775,-36.3667,-7796,-28807
684,39516,9.78564,-0.124414,-0.44502,-165.229,-87.4731,-68.6371,0.12207,-0.0610352,0,0.309875,0.641815,-0.330566,0.618591,-111.675,60.75,-36.35,-7796,-28807
690,39522,9.79521,-0.110059,-0.430664,-165.229,-87.4731,-68.6426,-0.12207,-0.183105,0.0610352,0.309875,0.641815,-0.330597,0.618561,-111.65,60.7417,-36.3333,-7796,-28807
696,39528,9.80957,-0.114844,-0.397168,-165.256,-87.4731,-68.6151,0.0610352,0,-0.244141,0.309875,0.641846,-0.330566,0.618561,-111.642,60.7167,-36.2917,-7796,-28807
702,39534,9.8,-0.100488,-0.45459,-165.234,-87.4731,-68.6316,0.12207,0,0.183105,0.309875,0.641846,-0.330566,0.618561,-111.642,60.6917,-36.2417,-7796,-28807
708,39540,9.82393,-0.0957031,-0.392383,-165.24,-87.4731,-68.6316,0.0610352,0,0,0.309875,0.641815,-0.330597,0.618561,-111.658,60.6917,-36.1583,-7796,-28807
714,39546,9.79521,-0.0765625,-0.411523,-165.207,-87.4731,-68.6646,0,0.183105,0.244141,0.309875,0.641815,-0.330597,0.618591,-111.683,60.7083,-36.1333,-7796,-28807
720,39552,9.80479,-0.124414,-0.435449,-165.157,-87.4731,-68.714,0,0.0610352,0.427246,0.309875,0.641815,-0.330627,0.618591,-111.692,60.7167,-36.0917,-7796,-28807
726,39558,9.80479,-0.114844,-0.416309,-165.146,-87.4731,-68.725,-0.0610352,0,0.12207,0.309875,0.641815,-0.330627,0.618591,-111.7,60.7167,-36.075,-7796,-28807
732,39564,9.80957,-0.105273,-0.425879,-165.168,-87.4731,-68.703,-0.12207,0,0,0.309875,0.641815,-0.330627,0.618561,-111.708,60.725,-36.0667,-7796,-28807
738,39570,9.81436,-0.105273,-0.430664,-165.185,-87.4731,-68.692,0.183105,0,-0.12207,0.309906,0.641785,-0.330627,0.618561,-111.667,60.7333,-36.1583,-7796,-28807
744,39576,9.81436,-0.0861328,-0.411523,-165.163,-87.4731,-68.714,0,0.12207,0.183105,0.309906,0.641785,-0.330658,0.618561,-111.65,60.7417,-36.2167,-7796,-28807
750,39582,9.81436,-0.114844,-0.421094,-165.19,-87.4731,-68.692,0,0,-0.244141,0.309906,0.641785,-0.330627,0.618561,-111.642,60.7583,-36.3083,-7796,-28807
756,39588,9.8,-0.13877,-0.430664,-165.19,-87.4731,-68.6865,-0.12207,-0.0610352,0,0.309906,0.641785,-0.330658,0.618561,-111.65,60.7667,-36.3417,-7796,-28807
762,39594,9.78564,-0.0861328,-0.411523,-165.196,-87.4731,-68.6865,0,0,0.244141,0.309937,0.641785,-0.330658,0.618561,-111.658,60.7833,-36.4,-7796,-28807
768,39600,9.78086,-0.114844,-0.378027,-165.196,-87.4731,-68.6865,0,0.0610352,0,0.309937,0.641785,-0.330658,0.618561,-111.65,60.8083,-36.425,-7796,-28807
774,39606,9.80957,-0.100488,-0.397168,-165.196,-87.4731,-68.6865,0.0610352,0,0,0.309937,0.641785,-0.330658,0.618561,-111.633,60.8083,-36.4083,-7796,-28807
780,39612,9.80479,-0.114844,-0.435449,-165.19,-87.4731,-68.6975,0,0,0.0610352,0.309937,0.641785,-0.330688,0.618561,-111.633,60.825,-36.4083,-7788,-28808
786,39618,9.81914,-0.105273,-0.421094,-165.179,-87.4731,-68.7085,0,-0.0610352,0.12207,0.309937,0.641785,-0.330688,0.61853,-111.65,60.85,-36.4,-7788,-28808
792,39624,9.81436,-0.124414,-0.44502,-165.174,-87.4731,-68.7085,0.12207,0.0610352,0.0610352,0.309937,0.641785,-0.330688,0.61853,-111.683,60.8917,-36.4333,-7788,-28808
798,39630,9.81914,-0.110059,-0.440234,-165.196,-87.4731,-68.6865,0,-0.0610352,-0.183105,0.309937,0.641785,-0.330688,0.61853,-111.692,60.9,-36.45,-7796,-28807
804,39636,9.79043,-0.0765625,-0.416309,-165.174,-87.4731,-68.714,0,-0.0610352,0.244141,0.309967,0.641754,-0.330719,0.61853,-111.7,60.875,-36.4583,-7796,-28807
810,39642,9.80479,-0.124414,-0.401953,-165.207,-87.4731,-68.681,-0.0610352,0.0610352,-0.305176,0.309967,0.641754,-0.330719,0.61853,-111.683,60.8333,-36.475,-7796,-28807
816,39648,9.79521,-0.0861328,-0.411523,-165.212,-87.4731,-68.681,0.0610352,-0.0610352,0,0.309967,0.641754,-0.330719,0.6185,-111.692,60.8167,-36.475,-7796,-28807
822,39654,9.78564,-0.0813477,-0.401953,-165.229,-87.4731,-68.6646,-0.12207,0.0610352,0,0.309998,0.641754,-0.330719,0.6185,-111.717,60.8,-36.5167,-7796,-28807
828,39660,9.81436,-0.100488,-0.449805,-165.223,-87.4731,-68.6755,0.0610352,0,0.0610352,0.309998,0.641754,-0.33075,0.6185,-111.717,60.8,-36.5417,-7796,-28807
834,39666,9.80479,-0.129199,-0.416309,-165.218,-87.4731,-68.681,0,0,0.0610352,0.310028,0.641754,-0.33075,0.6185,-111.7,60.8083,-36.5333,-7796,-28807
840,39672,9.80957,-0.119629,-0.425879,-165.218,-87.4731,-68.681,0,0,0,0.310028,0.641754,-0.33075,0.6185,-111.667,60.8083,-36.55,-7796,-28807
846,39678,9.81436,-0.124414,-0.421094,-165.229,-87.4731,-68.6755,0,0,-0.0610352,0.310028,0.641754,-0.33078,0.6185,-111.65,60.8083,-36.5333,-7796,-28807
852,39684,9.82871,-0.14834,-0.392383,-165.234,-87.4731,-68.67,-0.0610352,0.0610352,0.0610352,0.310059,0.641724,-0.33078,0.618469,-111.667,60.8333,-36.3917,-7796,-28807
858,39690,9.82393,-0.124414,-0.421094,-165.229,-87.4731,-68.6755,-0.0610352,0,0.0610352,0.310059,0.641724,-0.33078,0.618469,-111.708,60.8583,-36.3167,-7796,-28807
864,39696,9.8,-0.0957031,-0.401953,-165.223,-87.4731,-68.681,0,0.12207,0,0.310059,0.641724,-0.33078,0.618469,-111.742,60.875,-36.2417,-7796,-28807
870,39702,9.82393,-0.119629,-0.368457,-165.223,-87.4731,-68.681,0.0610352,0,0,0.310059,0.641724,-0.33078,0.618469,-111.775,60.8833,-36.1917,-7796,-28807
876,39708,9.80479,-0.0861328,-0.416309,-165.223,-87.4731,-68.6865,-0.0610352,0.12207,0,0.310059,0.641724,-0.33078,0.618469,-111.8,60.8833,-36.1667,-7796,-28807
882,39714,9.79521,-0.129199,-0.421094,-165.24,-87.4731,-68.67,-0.12207,-0.0610352,-0.12207,0.310059,0.641724,-0.330811,0.618469,-111.817,60.8667,-36.1917,-7796,-28807
888,39720,9.8,-0.119629,-0.411523,-165.234,-87.4731,-68.6755,0,0,0.0610352,0.310089,0.641724,-0.330811,0.618469,-111.808,60.8417,-36.1833,-7796,-28807
894,39726,9.77607,-0.124414,-0.425879,-165.218,-87.4731,-68.692,-0.0610352,-0.12207,0.183105,0.310059,0.641724,-0.330811,0.618469,-111.792,60.8083,-36.1583,-7796,-28807
900,39732,9.79521,-0.100488,-0.435449,-165.218,-87.4731,-68.6865,0.12207,-0.12207,0,0.310059,0.641724,-0.330811,0.618469,-111.775,60.7833,-36.15,-7796,-28807
906,39738,9.80479,-0.105273,-0.425879,-165.218,-87.4731,-68.692,0,0.12207,0,0.310059,0.641724,-0.330811,0.618469,-111.767,60.775,-36.125,-7796,-28807
912,39744,9.81436,-0.119629,-0.435449,-165.157,-87.4731,-68.7524,0,0.0610352,0.183105,0.310059,0.641724,-0.330811,0.618469,-111.75,60.8083,-36.1333,-7796,-28807
918,39750,9.81914,-0.119629,-0.421094,-165.135,-87.4731,-68.7744,0,0.0610352,0.183105,0.310059,0.641693,-0.330841,0.618469,-111.733,60.825,-36.1167,-7796,-28807
924,39756,9.79043,-0.105273,-0.430664,-165.13,-87.4731,-68.7854,-0.0610352,0.0610352,0.0610352,0.310059,0.641693,-0.330841,0.618469,-111.7,60.825,-36.125,-7796,-28807
930,39762,9.82393,-0.100488,-0.411523,-165.125,-87.4731,-68.7854,0.0610352,0.0610352,0,0.310059,0.641693,-0.330841,0.618469,-111.658,60.8083,-36.125,-7796,-28807
936,39768,9.80479,-0.0813477,-0.435449,-165.119,-87.4731,-68.7964,0,0.12207,0.0610352,0.310089,0.641693,-0.330872,0.618469,-111.633,60.8,-36.1333,-7796,-28807
942,39774,9.79043,-0.119629,-0.421094,-165.103,-87.4731,-68.8129,-0.0610352,-0.0610352,0,0.310089,0.641663,-0.330872,0.618469,-111.575,60.7667,-36.1417,-7796,-28807
948,39780,9.78564,-0.100488,-0.397168,-165.108,-87.4731,-68.8074,-0.12207,-0.12207,0,0.310089,0.641663,-0.330902,0.618469,-111.583,60.7583,-36.15,-7796,-28807
954,39786,9.79521,-0.0957031,-0.392383,-165.092,-87.4731,-68.8239,0.0610352,-0.12207,0.183105,0.310089,0.641663,-0.330902,0.618439,-111.583,60.75,-36.1667,-7796,-28807
960,39792,9.78564,-0.124414,-0.411523,-165.081,-87.4731,-68.8403,0,0,0.12207,0.310089,0.641663,-0.330902,0.618439,-111.592,60.7417,-36.2,-7796,-28807
966,39798,9.79521,-0.119629,-0.425879,-165.081,-87.4731,-68.8403,-0.12207,0,0,0.310089,0.641663,-0.330933,0.618439,-111.6,60.7417,-36.2333,-7796,-28807
972,39804,9.82871,-0.110059,-0.416309,-165.075,-87.4731,-68.8458,0,0,-0.0610352,0.31012,0.641663,-0.330933,0.618439,-111.608,60.725,-36.2083,-7796,-28807
978,39810,9.8,-0.110059,-0.421094,-165.053,-87.4731,-68.8733,0,0.12207,0.183105,0.31012,0.641632,-0.330933,0.618439,-111.625,60.7167,-36.1583,-7796,-28807
984,39816,9.82393,-0.105273,-0.406738,-165.081,-87.4731,-68.8458,0,0,-0.244141,0.31012,0.641663,-0.330933,0.618439,-111.633,60.7167,-36.1,-7796,-28807
990,39822,9.81914,-0.114844,-0.411523,-165.092,-87.4731,-68.8293,0,0,-0.12207,0.31012,0.641663,-0.330933,0.618439,-111.642,60.7333,-36.0583,-7796,-28807
996,39828,9.80957,-0.119629,-0.416309,-165.086,-87.4731,-68.8403,0.12207,0.12207,0.0610352,0.31012,0.641632,-0.330933,0.618439,-111.65,60.75,-36.0583,-7796,-28807
1002,39834,9.78086,-0.100488,-0.425879,-165.097,-87.4731,-68.8293,0,-0.0610352,-0.12207,0.31015,0.641632,-0.330933,0.618439,-111.633,60.75,-36.05,-7796,-28807
1008,39840,9.79521,-0.0861328,-0.425879,-165.092,-87.4731,-68.8348,0,0.183105,0,0.31015,0.641632,-0.330933,0.618439,-111.625,60.7583,-36.0167,-7796,-28807
1014,39846,9.78564,-0.110059,-0.416309,-165.108,-87.4731,-68.8239,-0.0610352,0,-0.12207,0.31015,0.641632,-0.330933,0.618439,-111.625,60.7667,-35.975,-7796,-28807
1020,39852,9.79521,-0.100488,-0.459375,-165.108,-87.4731,-68.8239,-0.12207,0,0,0.310181,0.641632,-0.330963,0.618439,-111.625,60.775,-35.9083,-7796,-28807
1026,39858,9.79521,-0.0957031,-0.406738,-165.108,-87.4731,-68.8239,-0.0610352,0,0,0.310181,0.641632,-0.330963,0.618439,-111.642,60.7917,-35.9083,-7796,-28807
1032,39864,9.82393,-0.114844,-0.416309,-165.119,-87.4731,-68.8129,-0.0610352,-0.0610352,-0.244141,0.310181,0.641632,-0.330963,0.618439,-111.7,60.7917,-35.9583,-7796,-28807
1038,39870,9.81436,-0.105273,-0.416309,-165.103,-87.4731,-68.8293,-0.12207,-0.0610352,0.183105,0.310181,0.641632,-0.330994,0.618408,-111.725,60.7917,-36.0083,-7796,-28807
1044,39876,9.82393,-0.090918,-0.406738,-165.135,-87.4731,-68.8019,0.0610352,-0.12207,-0.244141,0.310211,0.641632,-0.330994,0.618408,-111.758,60.7917,-36.0583,-7796,-28807
1050,39882,9.82393,-0.090918,-0.425879,-165.13,-87.4731,-68.8074,0,-0.0610352,0.0610352,0.310211,0.641632,-0.330994,0.618408,-111.792,60.8167,-36.0917,-7796,-28807
1056,39888,9.8335,-0.105273,-0.406738,-165.135,-87.4731,-68.8074,0,0,0,0.310211,0.641602,-0.331024,0.618378,-111.817,60.825,-36.125,-7796,-28807
1062,39894,9.8,-0.143555,-0.387598,-165.135,-87.4731,-68.8074,0,0,0,0.310242,0.641602,-0.331024,0.618378,-111.817,60.8333,-36.1167,-7796,-28807
1068,39900,9.80957,-0.105273,-0.397168,-165.135,-87.4731,-68.8074,0,0,0,0.310242,0.641602,-0.331024,0.618378,-111.817,60.825,-36.075,-7796,-28807
1074,39906,9.80479,-0.110059,-0.435449,-165.135,-87.4731,-68.8074,0,0,0,0.310242,0.641602,-0.331024,0.618378,-111.825,60.8083,-36.0417,-7796,-28807
1080,39912,9.8,-0.090918,-0.392383,-165.141,-87.4731,-68.8074,0,0,0,0.310242,0.641602,-0.331024,0.618378,-111.833,60.7833,-36.0083,-7796,-28807
1086,39918,9.79521,-0.100488,-0.45459,-165.141,-87.4731,-68.8074,0,0,0,0.310242,0.641602,-0.331024,0.618378,-111.85,60.7583,-36.0083,-7796,-28807
1092,39924,9.80957,-0.110059,-0.406738,-165.141,-87.4731,-68.8074,0,0,0,0.310242,0.641602,-0.331055,0.618378,-111.867,60.725,-36,-7796,-28807
1098,39930,9.80479,-0.100488,-0.440234,-165.141,-87.4731,-68.8074,0,0,0,0.310272,0.641602,-0.331055,0.618378,-111.858,60.7083,-35.975,-7796,-28807
1104,39936,9.79043,-0.124414,-0.397168,-165.141,-87.4731,-68.8074,0,0,0,0.310272,0.641602,-0.331055,0.618378,-111.858,60.7167,-35.9667,-7796,-28807
1110,39942,9.80479,-0.110059,-0.416309,-165.141,-87.4731,-68.8074,0,0,0,0.310272,0.641602,-0.331055,0.618347,-111.825,60.725,-35.9833,-7796,-28807
1116,39948,9.80957,-0.0957031,-0.411523,-165.146,-87.4731,-68.8074,0,0,0,0.310272,0.641571,-0.331055,0.618347,-111.817,60.7333,-36,-7796,-28807
1122,39954,9.81914,-0.090918,-0.411523,-165.146,-87.4731,-68.8074,0,0,0,0.310303,0.641571,-0.331085,0.618347,-111.833,60.7583,-36.0917,-7796,-28807
1128,39960,9.8,-0.0861328,-0.411523,-165.146,-87.4731,-68.8074,0,0,0,0.310303,0.641571,-0.331085,0.618347,-111.825,60.7583,-36.1417,-7796,-28807
1134,39966,9.80479,-0.119629,-0.382813,-165.146,-87.4731,-68.8074,0,0,0,0.310303,0.641571,-0.331085,0.618347,-111.817,60.7667,-36.2083,-7796,-28807
1140,39972,9.83828,-0.124414,-0.411523,-165.152,-87.4731,-68.8074,0,0,0,0.310303,0.641571,-0.331085,0.618347,-111.783,60.7667,-36.325,-7796,-28807
1146,39978,9.79521,-0.119629,-0.421094,-165.152,-87.4731,-68.8074,0,0,0,0.310303,0.641571,-0.331085,0.618347,-111.775,60.7667,-36.3917,-7796,-28807
1152,39984,9.80957,-0.100488,-0.425879,-165.152,-87.4731,-68.8074,0,0,0,0.310303,0.641571,-0.331116,0.618347,-111.767,60.725,-36.425,-7796,-28807
1158,39990,9.81914,-0.129199,-0.382813,-165.152,-87.4731,-68.8074,0,0,0,0.310303,0.641571,-0.331116,0.618347,-111.775,60.725,-36.4167,-7796,-28807
1164,39996,9.82393,-0.114844,-0.425879,-165.152,-87.4731,-68.8074,0,0,0,0.310303,0.641571,-0.331116,0.618347,-111.783,60.7333,-36.4,-7796,-28807
1170,40002,9.81914,-0.114844,-0.435449,-165.152,-87.4731,-68.8074,0,0,0,0.310303,0.641571,-0.331116,0.618347,-111.783,60.7583,-36.3667,-7796,-28807
1176,40008,9.79521,-0.105273,-0.382813,-165.152,-87.4731,-68.8074,0,0,0,0.310333,0.641571,-0.331116,0.618347,-111.8,60.8,-36.3667,-7796,-28807
1182,40014,9.8,-0.100488,-0.392383,-165.152,-87.4731,-68.8074,0,0,0,0.310333,0.641571,-0.331116,0.618347,-111.8,60.9,-36.35,-7796,-28807
1188,40020,9.80479,-0.124414,-0.421094,-165.152,-87.4731,-68.8074,0,0,0,0.310303,0.641571,-0.331116,0.618347,-111.8,60.9417,-36.3833,-7796,-28807
1194,40026,9.80479,-0.100488,-0.401953,-165.152,-87.4731,-68.8074,0,0,0,0.310303,0.641571,-0.331116,0.618347,-111.8,60.975,-36.3917,-7796,-28807
1200,40032,9.80479,-0.105273,-0.392383,-165.152,-87.4731,-68.8074,0,0,0,0.310303,0.641571,-0.331116,0.618347,-111.783,60.975,-36.425,-7796,-28807
1206,40038,9.83828,-0.090918,-0.382813,-165.152,-87.4731,-68.8074,0,0,0,0.310303,0.641571,-0.331085,0.618347,-111.775,61,-36.4583,-7796,-28807
1212,40044,9.8,-0.114844,-0.382813,-165.152,-87.4731,-68.8074,0,0,0,0.310303,0.641571,-0.331085,0.618347,-111.758,61,-36.425,-7796,-28807
1218,40050,9.82393,-0.110059,-0.397168,-165.152,-87.4731,-68.8074,0,0,0,0.310303,0.641571,-0.331085,0.618347,-111.775,61.0083,-36.375,-7796,-28807
1224,40056,9.82393,-0.114844,-0.406738,-165.146,-87.4731,-68.8074,0,0,0,0.310303,0.641571,-0.331085,0.618347,-111.792,60.9833,-36.35,-7796,-28807
1230,40062,9.8,-0.114844,-0.430664,-165.146,-87.4731,-68.8074,0,0,0,0.310303,0.641571,-0.331085,0.618347,-111.792,60.95,-36.3083,-7796,-28807
1236,40068,9.79521,-0.100488,-0.430664,-165.146,-87.4731,-68.8074,0,0,0,0.310303,0.641571,-0.331085,0.618347,-111.775,60.925,-36.275,-7796,-28807
1242,40074,9.81914,-0.0861328,-0.416309,-165.146,-87.4731,-68.8074,0,0,0,0.310303,0.641571,-0.331085,0.618347,-111.7,60.875,-36.2167,-7796,-28807
1248,40080,9.80479,-0.105273,-0.401953,-165.146,-87.4731,-68.8074,0,0,0,0.310303,0.641571,-0.331085,0.618347,-111.65,60.8417,-36.2167,-7796,-28807
1254,40086,9.7665,-0.100488,-0.430664,-165.146,-87.4731,-68.8074,0,0,0,0.310303,0.641571,-0.331085,0.618347,-111.633,60.8333,-36.2333,-7796,-28807
1260,40092,9.79043,-0.100488,-0.378027,-165.152,-87.4731,-68.8074,0,0,0,0.310303,0.641571,-0.331085,0.618347,-111.625,60.8333,-36.2417,-7796,-28807
1266,40098,9.78564,-0.100488,-0.401953,-165.152,-87.4731,-68.8074,0,0,0,0.310303,0.641571,-0.331085,0.618347,-111.633,60.85,-36.2583,-7796,-28807
1272,40104,9.83828,-0.129199,-0.411523,-165.152,-87.4731,-68.8074,0,0,0,0.310303,0.641571,-0.331085,0.618347,-111.683,60.9,-36.3083,-7796,-28807
1278,40110,9.8,-0.114844,-0.421094,-165.146,-87.4731,-68.8074,0,0,0,0.310303,0.641571,-0.331085,0.618347,-111.7,60.9,-36.325,-7796,-28807
1284,40116,9.80479,-0.110059,-0.416309,-165.146,-87.4731,-68.8074,0,0,0,0.310303,0.641571,-0.331085,0.618347,-111.7,60.8917,-36.3167,-7796,-28807
1290,40122,9.81914,-0.114844,-0.411523,-165.146,-87.4731,-68.8074,0,0,0,0.310303,0.641571,-0.331085,0.618347,-111.683,60.8667,-36.275,-7796,-28807
1296,40128,9.80479,-0.100488,-0.406738,-165.146,-87.4731,-68.8074,0,0,0,0.310303,0.641571,-0.331085,0.618347,-111.675,60.8417,-36.225,-7796,-28807
1302,40134,9.82393,-0.114844,-0.397168,-165.146,-87.4731,-68.8074,0,0,0,0.310303,0.641571,-0.331085,0.618347,-111.683,60.8,-36.1,-7796,-28807
1308,40140,9.78564,-0.110059,-0.416309,-165.146,-87.4731,-68.8074,0,0,0,0.310303,0.641571,-0.331085,0.618378,-111.692,60.7917,-36.0917,-7796,-28807
1314,40146,9.80957,-0.090918,-0.397168,-165.146,-87.4731,-68.8074,0,0,0,0.310303,0.641571,-0.331085,0.618378,-111.692,60.7833,-36.075,-7796,-28807
1320,40152,9.78564,-0.0813477,-0.416309,-165.146,-87.4731,-68.8074,0,0,0,0.310303,0.641571,-0.331085,0.618347,-111.683,60.7833,-36.0667,-7796,-28807
1326,40158,9.79043,-0.100488,-0.425879,-165.152,-87.4731,-68.8074,0,0,0,0.310303,0.641571,-0.331085,0.618347,-111.667,60.8167,-36.0833,-7796,-28807
1332,40164,9.80479,-0.090918,-0.411523,-165.152,-87.4731,-68.8074,0,0,0,0.310333,0.641571,-0.331085,0.618347,-111.667,60.8333,-36.0917,-7796,-28807
1338,40170,9.8,-0.119629,-0.411523,-165.152,-87.4731,-68.8074,0,0,0,0.310333,0.641541,-0.331085,0.618347,-111.675,60.85,-36.1417,-7796,-28807
1344,40176,9.80479,-0.110059,-0.397168,-165.152,-87.4731,-68.8074,0,0,0,0.310333,0.641541,-0.331116,0.618347,-111.683,60.8583,-36.1833,-7796,-28807
1350,40182,9.79521,-0.100488,-0.397168,-165.157,-87.4731,-68.8074,0,0,0,0.310333,0.641541,-0.331116,0.618347,-111.675,60.85,-36.175,-7796,-28807
1356,40188,9.81436,-0.110059,-0.449805,-165.157,-87.4731,-68.8074,0,0,0,0.310364,0.641541,-0.331116,0.618347,-111.667,60.8417,-36.1833,-7796,-28807
1362,40194,9.80957,-0.114844,-0.435449,-165.157,-87.4731,-68.8074,0,0,0,0.310364,0.641541,-0.331116,0.618347,-111.625,60.85,-36.125,-7796,-28807
1368,40200,9.79043,-0.124414,-0.416309,-165.157,-87.4731,-68.8074,0,0,0,0.310364,0.641541,-0.331146,0.618347,-111.625,60.825,-36.1417,-7796,-28807
1374,40206,9.80479,-0.100488,-0.406738,-165.157,-87.4731,-68.8074,0,0,0,0.310364,0.641541,-0.331146,0.618317,-111.633,60.8417,-36.1917,-7796,-28807
1380,40212,9.80957,-0.105273,-0.401953,-165.163,-87.4731,-68.8074,0,0,0,0.310394,0.641541,-0.331146,0.618317,-111.642,60.8417,-36.2083,-7796,-28807
1386,40218,9.81436,-0.124414,-0.411523,-165.163,-87.4731,-68.8074,0,0,0,0.310394,0.641541,-0.331146,0.618317,-111.65,60.825,-36.2417,-7796,-28807
1392,40224,9.79521,-0.105273,-0.406738,-165.163,-87.4731,-68.8074,0,0,0,0.310394,0.64151,-0.331146,0.618317,-111.642,60.825,-36.3167,-7796,-28807
1398,40230,9.79043,-0.114844,-0.425879,-165.163,-87.4731,-68.8074,0,0,0,0.310394,0.64151,-0.331146,0.618317,-111.617,60.8167,-36.3333,-7796,-28807
1404,40236,9.79521,-0.105273,-0.435449,-165.163,-87.4731,-68.8074,0,0,0,0.310394,0.64151,-0.331146,0.618317,-111.608,60.825,-36.3583,-7796,-28807
1410,40242,9.8,-0.13877,-0.406738,-165.163,-87.4731,-68.8074,0,0,0,0.310394,0.64151,-0.331146,0.618317,-111.592,60.825,-36.325,-7796,-28807
1416,40248,9.84785,-0.105273,-0.416309,-165.168,-87.4731,-68.8074,0,0,0,0.310394,0.64151,-0.331177,0.618317,-111.583,60.85,-36.3083,-7796,-28807
1422,40254,9.78086,-0.0957031,-0.416309,-165.168,-87.4731,-68.8074,0,0,0,0.310425,0.64151,-0.331177,0.618317,-111.608,60.8583,-36.3,-7796,-28807
1428,40260,9.79043,-0.0957031,-0.416309,-165.168,-87.4731,-68.8074,0,0,0,0.310425,0.64151,-0.331177,0.618317,-111.633,60.8667,-36.325,-7796,-28807
1434,40266,9.80479,-0.114844,-0.387598,-165.168,-87.4731,-68.8074,0,0,0,0.310425,0.64151,-0.331177,0.618317,-111.658,60.875,-36.325,-7796,-28807
1440,40272,9.80479,-0.119629,-0.406738,-165.168,-87.4731,-68.8074,0,0,0,0.310425,0.64151,-0.331177,0.618317,-111.683,60.8833,-36.2667,-7796,-28807
1446,40278,9.81914,-0.100488,-0.416309,-165.168,-87.4731,-68.8074,0,0,0,0.310425,0.64151,-0.331177,0.618317,-111.7,60.9167,-36.2167,-7796,-28807
1452,40284,9.81436,-0.105273,-0.421094,-165.174,-87.4731,-68.8074,0,0,0,0.310455,0.64151,-0.331207,0.618286,-111.675,60.9417,-36.1417,-7796,-28807
1458,40290,9.82871,-0.100488,-0.425879,-165.174,-87.4731,-68.8074,0,0,0,0.310455,0.641479,-0.331207,0.618286,-111.675,60.95,-36.1417,-7796,-28807
1464,40296,9.8335,-0.110059,-0.416309,-165.174,-87.4731,-68.8074,0,0,0,0.310455,0.641479,-0.331207,0.618286,-111.642,60.9667,-36.15,-7796,-28807
1470,40302,9.80479,-0.119629,-0.416309,-165.174,-87.4731,-68.8074,0,0,0,0.310455,0.641479,-0.331207,0.618286,-111.633,60.975,-36.1333,-7796,-28807
1476,40308,9.80479,-0.100488,-0.392383,-165.174,-87.4731,-68.8074,0,0,0,0.310455,0.641479,-0.331207,0.618286,-111.625,60.975,-36.125,-7796,-28807
1482,40314,9.8,-0.105273,-0.406738,-165.174,-87.4731,-68.8074,0,0,0,0.310486,0.641479,-0.331207,0.618286,-111.6,60.95,-36.0667,-7796,-28807
1488,40320,9.82871,-0.110059,-0.401953,-165.179,-87.4731,-68.8074,0,0,0,0.310486,0.641479,-0.331238,0.618286,-111.592,60.9583,-36.0667,-7796,-28807
1494,40326,9.80957,-0.100488,-0.387598,-165.179,-87.4731,-68.8074,0,0,0,0.310486,0.641479,-0.331238,0.618286,-111.567,60.9667,-36.0583,-7796,-28807
1500,40332,9.79521,-0.114844,-0.397168,-165.179,-87.4731,-68.8074,0,0,0,0.310486,0.641479,-0.331238,0.618286,-111.542,61,-36.0667,-7796,-28807
1506,40338,9.79043,-0.129199,-0.392383,-165.179,-87.4731,-68.8074,0,0,0,0.310486,0.641479,-0.331238,0.618286,-111.533,61,-36.1,-7796,-28807
1512,40344,9.80957,-0.114844,-0.416309,-165.174,-87.4731,-68.8074,0,0,0,0.310486,0.641479,-0.331238,0.618286,-111.517,61.0083,-36.1417,-7796,-28807
1518,40350,9.81914,-0.100488,-0.406738,-165.174,-87.4731,-68.8074,0,0,0,0.310486,0.641479,-0.331207,0.618286,-111.508,61.0083,-36.1917,-7796,-28807
1524,40356,9.81914,-0.13877,-0.435449,-165.174,-87.4731,-68.8074,0,0,0,0.310455,0.641479,-0.331207,0.618286,-111.5,61.0167,-36.2333,-7796,-28807
1530,40362,9.82393,-0.119629,-0.397168,-165.174,-87.4786,-68.8074,0,0,0,0.310455,0.641479,-0.331207,0.618286,-111.492,61.0083,-36.2833,-7796,-28807
1536,40368,9.79521,-0.110059,-0.425879,-165.174,-87.4731,-68.8074,0,0,0,0.310455,0.641479,-0.331207,0.618286,-111.517,61,-36.275,-7796,-28807
1542,40374,9.79521,-0.105273,-0.406738,-165.174,-87.4731,-68.8074,0,0,0,0.310455,0.641479,-0.331207,0.618317,-111.542,60.9917,-36.2833,-7796,-28807
1548,40380,9.81436,-0.110059,-0.435449,-165.168,-87.4731,-68.8074,0,0,0,0.310455,0.641479,-0.331177,0.618317,-111.567,60.9917,-36.3083,-7796,-28807
1554,40386,9.81436,-0.129199,-0.416309,-165.168,-87.4731,-68.8074,0,0,0,0.310425,0.64151,-0.331177,0.618317,-111.575,60.9917,-36.3083,-7796,-28807
1560,40392,9.82871,-0.114844,-0.392383,-165.168,-87.4786,-68.8074,0,0,0,0.310425,0.64151,-0.331177,0.618317,-111.592,60.9917,-36.325,-7796,-28807
1566,40398,9.78564,-0.090918,-0.435449,-165.168,-87.4731,-68.8074,0,0,0,0.310425,0.64151,-0.331177,0.618317,-111.633,60.9917,-36.3083,-7796,-28807
1572,40404,9.80957,-0.124414,-0.401953,-165.168,-87.4731,-68.8074,0,0,0,0.310425,0.64151,-0.331177,0.618317,-111.633,60.9917,-36.3083,-7796,-28807
1578,40410,9.82393,-0.0957031,-0.416309,-165.163,-87.4731,-68.8074,0,0,0,0.310425,0.64151,-0.331177,0.618317,-111.625,61,-36.35,-7796,-28807
1584,40416,9.80957,-0.100488,-0.44502,-165.163,-87.4731,-68.8074,0,0,0,0.310425,0.64151,-0.331177,0.618317,-111.608,60.9917,-36.3667,-7796,-28807
1590,40422,9.82871,-0.090918,-0.421094,-165.163,-87.4731,-68.8074,0,0,0,0.310425,0.64151,-0.331177,0.618317,-111.6,60.975,-36.3583,-7796,-28807
1596,40428,9.78564,-0.100488,-0.425879,-165.168,-87.4731,-68.8074,0,0,0,0.310425,0.64151,-0.331177,0.618317,-111.608,60.9667,-36.3167,-7796,-28807
1602,40434,9.80479,-0.100488,-0.406738,-165.168,-87.4731,-68.8074,0,0,0,0.310425,0.64151,-0.331177,0.618317,-111.633,60.9583,-36.2583,-7796,-28807
1608,40440,9.80957,-0.119629,-0.387598,-165.168,-87.4731,-68.8074,0,0,0,0.310425,0.64151,-0.331177,0.618317,-111.642,60.95,-36.2417,-7796,-28807
1614,40446,9.79521,-0.090918,-0.430664,-165.168,-87.4731,-68.8074,0,0,0,0.310425,0.64151,-0.331177,0.618317,-111.65,60.9333,-36.2333,-7796,-28807
1620,40452,9.80957,-0.090918,-0.411523,-165.168,-87.4731,-68.8074,0,0,0,0.310425,0.64151,-0.331177,0.618317,-111.658,60.9417,-36.2333,-7796,-28807
1626,40458,9.8,-0.105273,-0.397168,-165.174,-87.4731,-68.8074,0,0,0,0.310455,0.64151,-0.331207,0.618317,-111.658,60.9667,-36.2833,-7796,-28807
1632,40464,9.82871,-0.110059,-0.411523,-165.174,-87.4786,-68.8074,0,0,0,0.310455,0.641479,-0.331207,0.618286,-111.658,60.9583,-36.3,-7796,-28807
1638,40470,9.81914,-0.119629,-0.421094,-165.174,-87.4731,-68.8074,0,0,0,0.310455,0.641479,-0.331207,0.618286,-111.667,60.9417,-36.3,-7796,-28807
1644,40476,9.79043,-0.114844,-0.406738,-165.174,-87.4731,-68.8074,0,0,0,0.310455,0.641479,-0.331207,0.618286,-111.65,60.9167,-36.3,-7796,-28807
1650,40482,9.81914,-0.100488,-0.416309,-165.174,-87.4731,-68.8074,0,0,0,0.310455,0.641479,-0.331207,0.618286,-111.642,60.9083,-36.2917,-7796,-28807
1656,40488,9.80479,-0.100488,-0.449805,-165.174,-87.4731,-68.8074,0,0,0,0.310455,0.641479,-0.331207,0.618286,-111.642,60.875,-36.2333,-7796,-28807
1662,40494,9.79043,-0.0957031,-0.411523,-165.174,-87.4731,-68.8074,0,0,0,0.310486,0.641479,-0.331207,0.618286,-111.658,60.875,-36.2333,-7796,-28807
1668,40500,9.79521,-0.090918,-0.416309,-165.179,-87.4731,-68.8074,0,0,0,0.310486,0.641479,-0.331238,0.618286,-111.675,60.8833,-36.2083,-7796,-28807
1674,40506,9.80479,-0.0861328,-0.430664,-165.179,-87.4731,-68.8074,0,0,0,0.310486,0.641479,-0.331238,0.618286,-111.683,60.9167,-36.1917,-7796,-28807
1680,40512,9.80957,-0.114844,-0.421094,-165.179,-87.4731,-68.8074,0,0,0,0.310486,0.641479,-0.331238,0.618286,-111.708,60.95,-36.1583,-7796,-28807
1686,40518,9.80957,-0.119629,-0.440234,-165.185,-87.4731,-68.8074,0,0,0,0.310516,0.641449,-0.331268,0.618256,-111.725,61.0083,-36.2,-7796,-28807
1692,40524,9.81914,-0.0861328,-0.401953,-165.185,-87.4731,-68.8074,0,0,0,0.310516,0.641449,-0.331268,0.618256,-111.742,61.0167,-36.2417,-7796,-28807
1698,40530,9.80957,-0.0861328,-0.397168,-165.19,-87.4731,-68.8074,0,0,0,0.310547,0.641449,-0.331299,0.618256,-111.75,61.0167,-36.2833,-7796,-28807
1704,40536,9.81914,-0.105273,-0.416309,-165.19,-87.4731,-68.8074,0,0,0,0.310547,0.641449,-0.331299,0.618256,-111.742,61.0167,-36.325,-7796,-28807
1710,40542,9.81436,-0.100488,-0.430664,-165.196,-87.4731,-68.8074,0,0,0,0.310577,0.641449,-0.331329,0.618225,-111.758,61.0167,-36.3583,-7796,-28807
1716,40548,9.81436,-0.110059,-0.382813,-165.196,-87.4731,-68.8074,0,0,0,0.310577,0.641418,-0.331329,0.618225,-111.783,61,-36.3833,-7796,-28807
1722,40554,9.81436,-0.110059,-0.430664,-165.201,-87.4731,-68.8074,0,0,0,0.310608,0.641418,-0.33136,0.618225,-111.8,60.9917,-36.4,-7796,-28807
1728,40560,9.80957,-0.114844,-0.425879,-165.201,-87.4731,-68.8074,0,0,0,0.310608,0.641418,-0.33136,0.618225,-111.817,60.9833,-36.4,-7796,-28807
1734,40566,9.81436,-0.110059,-0.421094,-165.201,-87.4731,-68.8074,0,0,0,0.310608,0.641418,-0.33136,0.618225,-111.833,60.9667,-36.4167,-7796,-28807
1740,40572,9.80957,-0.110059,-0.435449,-165.201,-87.4731,-68.8074,0,0,0,0.310638,0.641418,-0.33136,0.618195,-111.833,60.9583,-36.4083,-7796,-28807
1746,40578,9.80479,-0.119629,-0.411523,-165.207,-87.4731,-68.8074,0,0,0,0.310638,0.641418,-0.33139,0.618195,-111.817,60.925,-36.325,-7796,-28807
1752,40584,9.79043,-0.090918,-0.406738,-165.207,-87.4731,-68.8074,0,0,0,0.310638,0.641388,-0.33139,0.618195,-111.783,60.9083,-36.2833,-7796,-28807
1758,40590,9.80957,-0.114844,-0.387598,-165.207,-87.4731,-68.8074,0,0,0,0.310638,0.641388,-0.33139,0.618195,-111.75,60.9,-36.2667,-7796,-28807
1764,40596,9.80479,-0.0765625,-0.421094,-165.212,-87.4731,-68.8074,0,0,0,0.310669,0.641388,-0.331421,0.618195,-111.717,60.8833,-36.2667,-7796,-28807
1770,40602,9.80479,-0.114844,-0.411523,-165.212,-87.4731,-68.8074,0,0,0,0.310669,0.641388,-0.331421,0.618195,-111.692,60.8667,-36.2583,-7796,-28807
1776,40608,9.80479,-0.105273,-0.421094,-165.212,-87.4731,-68.8074,0,0,0,0.310669,0.641388,-0.331421,0.618195,-111.65,60.8,-36.25,-7796,-28807
1782,40614,9.81914,-0.119629,-0.430664,-165.218,-87.4731,-68.8074,0,0,0,0.310699,0.641388,-0.331421,0.618164,-111.65,60.7583,-36.25,-7796,-28807
1788,40620,9.82393,-0.090918,-0.421094,-165.218,-87.4731,-68.8074,0,0,0,0.310699,0.641357,-0.331451,0.618164,-111.633,60.7333,-36.2583,-7796,-28807
1794,40626,9.80957,-0.0861328,-0.416309,-165.218,-87.4731,-68.8074,0,0,0,0.310699,0.641357,-0.331451,0.618164,-111.625,60.7083,-36.2583,-7796,-28807
1800,40632,9.80957,-0.100488,-0.406738,-165.223,-87.4731,-68.8074,0,0,0,0.31073,0.641357,-0.331451,0.618164,-111.608,60.7,-36.2833,-7796,-28807
1806,40638,9.80479,-0.090918,-0.421094,-165.223,-87.4731,-68.8074,0,0,0,0.31073,0.641357,-0.331482,0.618164,-111.6,60.7417,-36.2583,-7796,-28807
1812,40644,9.81914,-0.090918,-0.401953,-165.229,-87.4731,-68.8074,0,0,0,0.31076,0.641357,-0.331512,0.618134,-111.6,60.75,-36.2,-7796,-28807
1818,40650,9.80957,-0.0957031,-0.421094,-165.229,-87.4731,-68.8074,0,0,0,0.31076,0.641327,-0.331512,0.618134,-111.617,60.7667,-36.1667,-7796,-28807
1824,40656,9.78564,-0.110059,-0.416309,-165.234,-87.4731,-68.8074,0,0,0,0.310791,0.641327,-0.331512,0.618134,-111.625,60.775,-36.1583,-7796,-28807
1830,40662,9.80957,-0.105273,-0.421094,-165.234,-87.4731,-68.8074,0,0,0,0.310791,0.641327,-0.331543,0.618103,-111.642,60.8167,-36.2,-7796,-28807
1836,40668,9.8,-0.100488,-0.392383,-165.24,-87.4731,-68.8074,0,0,0,0.310822,0.641296,-0.331573,0.618103,-111.625,60.8833,-36.3083,-7796,-28807
1842,40674,9.8,-0.110059,-0.406738,-165.24,-87.4731,-68.8074,0,0,0,0.310852,0.641296,-0.331573,0.618103,-111.625,60.925,-36.3667,-7796,-28807
1848,40680,9.78086,-0.0861328,-0.449805,-165.245,-87.4731,-68.8074,0,0,0,0.310852,0.641296,-0.331604,0.618103,-111.608,60.9417,-36.3917,-7796,-28807
1854,40686,9.81436,-0.114844,-0.440234,-165.245,-87.4731,-68.8074,0,0,0,0.310883,0.641296,-0.331604,0.618073,-111.6,60.9667,-36.3833,-7796,-28807
1860,40692,9.80957,-0.0957031,-0.401953,-165.251,-87.4731,-68.8074,0,0,0,0.310883,0.641296,-0.331635,0.618073,-111.6,60.9833,-36.3667,-7796,-28807
1866,40698,9.79043,-0.129199,-0.411523,-165.256,-87.4731,-68.8074,0,0,0,0.310913,0.641266,-0.331665,0.618042,-111.583,61,-36.3,-7796,-28807
1872,40704,9.79521,-0.110059,-0.406738,-165.256,-87.4731,-68.8074,0,0,0,0.310944,0.641266,-0.331665,0.618042,-111.575,61.0167,-36.3083,-7796,-28807
1878,40710,9.80957,-0.100488,-0.406738,-165.262,-87.4731,-68.8074,0,0,0,0.310944,0.641266,-0.331665,0.618042,-111.567,61.05,-36.3417,-7796,-28807
1884,40716,9.81914,-0.0861328,-0.401953,-165.262,-87.4731,-68.8074,0,0,0,0.310974,0.641235,-0.331696,0.618042,-111.575,61.0833,-36.3917,-7796,-28807
1890,40722,9.80479,-0.0717773,-0.387598,-165.267,-87.4731,-68.8074,0,0,0,0.310974,0.641235,-0.331696,0.618042,-111.583,61.1083,-36.4167,-7796,-28807
1896,40728,9.79043,-0.124414,-0.430664,-165.273,-87.4731,-68.8074,0,0,0,0.311005,0.641235,-0.331726,0.618011,-111.625,61.1583,-36.4583,-7796,-28807
1902,40734,9.77607,-0.114844,-0.430664,-165.273,-87.4731,-68.8074,0,0,0,0.311005,0.641205,-0.331757,0.618011,-111.633,61.1667,-36.4417,-7796,-28807
1908,40740,9.80957,-0.124414,-0.435449,-165.278,-87.4731,-68.8074,0,0,0,0.311035,0.641205,-0.331757,0.618011,-111.625,61.1583,-36.45,-7796,-28807
1914,40746,9.80479,-0.114844,-0.416309,-165.278,-87.4731,-68.8074,0,0,0,0.311035,0.641205,-0.331757,0.617981,-111.608,61.1167,-36.425,-7796,-28807
1920,40752,9.81436,-0.0957031,-0.416309,-165.278,-87.4731,-68.8074,0,0,0,0.311035,0.641205,-0.331787,0.617981,-111.608,61.075,-36.425,-7796,-28807
1926,40758,9.78564,-0.119629,-0.430664,-165.284,-87.4731,-68.8074,0,0,0,0.311066,0.641205,-0.331787,0.617981,-111.65,61,-36.4833,-7796,-28807
1932,40764,9.80479,-0.0957031,-0.425879,-165.284,-87.4731,-68.8074,0,0,0,0.311066,0.641205,-0.331818,0.617981,-111.658,60.9917,-36.5083,-7796,-28807
1938,40770,9.80479,-0.105273,-0.421094,-165.284,-87.4731,-68.8074,0,0,0,0.311096,0.641174,-0.331818,0.617981,-111.658,61.0083,-36.525,-7796,-28807
1944,40776,9.79043,-0.110059,-0.416309,-165.289,-87.4731,-68.8074,0,0,0,0.311096,0.641174,-0.331818,0.61795,-111.625,61.0083,-36.5333,-7796,-28807
1950,40782,9.81914,-0.105273,-0.401953,-165.289,-87.4731,-68.8074,0,0,0,0.311096,0.641174,-0.331818,0.61795,-111.592,61,-36.5167,-7796,-28807
1956,40788,9.82393,-0.0813477,-0.397168,-165.295,-87.4731,-68.8074,0,0,0,0.311127,0.641174,-0.331848,0.61795,-111.558,60.95,-36.4917,-7796,-28807
1962,40794,9.80957,-0.114844,-0.430664,-165.295,-87.4731,-68.8074,0,0,0,0.311127,0.641174,-0.331848,0.61795,-111.558,60.9333,-36.4667,-7796,-28807
1968,40800,9.80957,-0.124414,-0.401953,-165.295,-87.4731,-68.8074,0,0,0,0.311127,0.641174,-0.331879,0.61795,-111.533,60.9167,-36.475,-7796,-28807
1974,40806,9.80957,-0.110059,-0.425879,-165.295,-87.4731,-68.8074,0,0,0,0.311127,0.641174,-0.331879,0.61795,-111.508,60.9,-36.475,-7796,-28807
1980,40812,9.81914,-0.100488,-0.392383,-165.295,-87.4731,-68.8074,0,0,0,0.311157,0.641144,-0.331879,0.61795,-111.483,60.8833,-36.4667,-7796,-28807
1986,40818,9.82393,-0.100488,-0.416309,-165.3,-87.4731,-68.8074,0,0,0,0.311157,0.641144,-0.331879,0.61792,-111.408,60.8667,-36.4833,-7796,-28807
1992,40824,9.78564,-0.0861328,-0.440234,-165.3,-87.4731,-68.8074,0,0,0,0.311157,0.641144,-0.331879,0.61792,-111.383,60.8667,-36.4833,-7796,-28807
1998,40830,9.79043,-0.100488,-0.421094,-165.3,-87.4731,-68.8074,0,0,0,0.311157,0.641144,-0.331879,0.61792,-111.342,60.8583,-36.4583,-7796,-28807
2004,40836,9.79521,-0.110059,-0.435449,-165.3,-87.4731,-68.8074,0,0,0,0.311157,0.641144,-0.331909,0.61792,-111.317,60.8333,-36.45,-7796,-28807
2010,40842,9.80479,-0.129199,-0.430664,-165.3,-87.4731,-68.8074,0,0,0,0.311188,0.641144,-0.331909,0.61792,-111.317,60.825,-36.4417,-7796,-28807
2016,40848,9.80479,-0.0813477,-0.421094,-165.306,-87.4731,-68.8074,0,0,0,0.311188,0.641144,-0.331909,0.61792,-111.283,60.8,-36.4,-7796,-28807
2022,40854,9.82393,-0.100488,-0.411523,-165.306,-87.4731,-68.8074,0,0,0,0.311188,0.641144,-0.33194,0.61792,-111.283,60.8083,-36.3667,-7796,-28807
2028,40860,9.79043,-0.090918,-0.430664,-165.311,-87.4731,-68.8074,0,0,0,0.311218,0.641113,-0.33194,0.617889,-111.275,60.825,-36.3583,-7796,-28807
2034,40866,9.81914,-0.0957031,-0.406738,-165.311,-87.4731,-68.8074,0,0,0,0.311218,0.641113,-0.33194,0.617889,-111.308,60.8667,-36.3667,-7796,-28807
2040,40872,9.79043,-0.114844,-0.406738,-165.317,-87.4731,-68.8074,0,0,0,0.311218,0.641113,-0.33197,0.617889,-111.333,60.8917,-36.3667,-7796,-28807
2046,40878,9.81914,-0.110059,-0.430664,-165.317,-87.4731,-68.8074,0,0,0,0.311249,0.641113,-0.33197,0.617889,-111.375,60.9167,-36.4,-7796,-28807
2052,40884,9.80957,-0.110059,-0.421094,-165.317,-87.4731,-68.8074,0,0,0,0.311249,0.641113,-0.33197,0.617889,-111.375,60.9083,-36.3917,-7796,-28807
2058,40890,9.8335,-0.119629,-0.406738,-165.317,-87.4731,-68.8074,0,0,0,0.311249,0.641113,-0.332001,0.617859,-111.383,60.9,-36.375,-7796,-28807
2064,40896,9.80957,-0.100488,-0.406738,-165.322,-87.4731,-68.8074,0,0,0,0.311279,0.641113,-0.332001,0.617859,-111.4,60.8833,-36.325,-7796,-28807
2070,40902,9.79043,-0.114844,-0.430664,-165.322,-87.4731,-68.8074,0,0,0,0.311279,0.641083,-0.332001,0.617859,-111.408,60.9083,-36.2917,-7796,-28807
2076,40908,9.8335,-0.114844,-0.406738,-165.322,-87.4731,-68.8074,0,0,0,0.311279,0.641083,-0.332001,0.617859,-111.417,60.95,-36.275,-7796,-28807
2082,40914,9.80479,-0.100488,-0.425879,-165.322,-87.4731,-68.8074,0,0,0,0.311279,0.641083,-0.332001,0.617859,-111.417,60.9667,-36.3083,-7796,-28807
2088,40920,9.80957,-0.090918,-0.440234,-165.322,-87.4731,-68.8074,0,0,0,0.311279,0.641083,-0.332031,0.617859,-111.408,60.95,-36.3167,-7796,-28807
2094,40926,9.81436,-0.129199,-0.401953,-165.322,-87.4731,-68.8074,0,0,0,0.31131,0.641083,-0.332031,0.617859,-111.408,60.9167,-36.2833,-7796,-28807
2100,40932,9.78086,-0.119629,-0.406738,-165.328,-87.4731,-68.8074,0,0,0,0.31131,0.641083,-0.332031,0.617859,-111.4,60.8917,-36.2667,-7796,-28807
2106,40938,9.81436,-0.090918,-0.421094,-165.328,-87.4731,-68.8074,0,0,0,0.31131,0.641083,-0.332031,0.617859,-111.417,60.8833,-36.3417,-7796,-28807
2112,40944,9.82871,-0.100488,-0.397168,-165.328,-87.4731,-68.8074,0,0,0,0.31131,0.641083,-0.332031,0.617859,-111.417,60.875,-36.3833,-7796,-28807
2118,40950,9.79521,-0.100488,-0.406738,-165.328,-87.4731,-68.8074,0,0,0,0.31131,0.641083,-0.332031,0.617859,-111.425,60.875,-36.4083,-7796,-28807
2124,40956,9.81436,-0.100488,-0.421094,-165.328,-87.4731,-68.8074,0,0,0,0.31131,0.641083,-0.332031,0.617859,-111.425,60.8583,-36.3917,-7796,-28807
2130,40962,9.80479,-0.119629,-0.421094,-165.328,-87.4731,-68.8074,0,0,0,0.31131,0.641083,-0.332031,0.617859,-111.417,60.8583,-36.375,-7796,-28807
2136,40968,9.79043,-0.119629,-0.411523,-165.328,-87.4731,-68.8074,0,0,0,0.31131,0.641083,-0.332031,0.617828,-111.425,60.8917,-36.3583,-7796,-28807
2142,40974,9.78086,-0.100488,-0.416309,-165.328,-87.4731,-68.8074,0,0,0,0.31131,0.641083,-0.332031,0.617828,-111.425,60.9083,-36.375,-7796,-28807
2148,40980,9.82393,-0.105273,-0.425879,-165.328,-87.4731,-68.8074,0,0,0,0.31131,0.641083,-0.332062,0.617828,-111.433,60.925,-36.4,-7796,-28807
2154,40986,9.80479,-0.110059,-0.392383,-165.328,-87.4731,-68.8074,0,0,0,0.31131,0.641083,-0.332062,0.617828,-111.425,60.9083,-36.3833,-7796,-28807
2160,40992,9.80479,-0.0717773,-0.435449,-165.328,-87.4731,-68.8074,0,0,0,0.31131,0.641083,-0.332062,0.617828,-111.417,60.8917,-36.3667,-7796,-28807
2166,40998,9.81436,-0.0957031,-0.411523,-165.333,-87.4731,-68.8074,0,0,0,0.31134,0.641083,-0.332062,0.617828,-111.392,60.8583,-36.375,-7796,-28807
2172,41004,9.81914,-0.090918,-0.416309,-165.333,-87.4731,-68.8074,0,0,0,0.31134,0.641052,-0.332062,0.617828,-111.375,60.8583,-36.3917,-7796,-28807
2178,41010,9.8,-0.110059,-0.387598,-165.333,-87.4731,-68.8019,0,0,0,0.31134,0.641052,-0.332062,0.617828,-111.383,60.875,-36.4333,-7796,-28807
2184,41016,9.81914,-0.114844,-0.416309,-165.333,-87.4731,-68.8074,0,0,0,0.31134,0.641052,-0.332062,0.617828,-111.375,60.8917,-36.4667,-7796,-28807
2190,41022,9.80479,-0.124414,-0.430664,-165.333,-87.4731,-68.8074,0,0,0,0.31134,0.641052,-0.332062,0.617828,-111.375,60.9333,-36.5083,-7796,-28807
2196,41028,9.79043,-0.090918,-0.44502,-165.339,-87.4731,-68.8074,0,0,0,0.311371,0.641052,-0.332092,0.617828,-111.375,60.9417,-36.525,-7796,-28807
2202,41034,9.80957,-0.0957031,-0.411523,-165.339,-87.4731,-68.8074,0,0,0,0.311371,0.641052,-0.332092,0.617828,-111.383,60.9583,-36.55,-7796,-28807
2208,41040,9.80957,-0.119629,-0.392383,-165.339,-87.4731,-68.8074,0,0,0,0.311371,0.641052,-0.332092,0.617828,-111.375,60.95,-36.575,-7796,-28807
2214,41046,9.80479,-0.105273,-0.416309,-165.339,-87.4731,-68.8074,0,0,0,0.311371,0.641052,-0.332092,0.617828,-111.4,60.95,-36.5833,-7796,-28807
2220,41052,9.80479,-0.114844,-0.425879,-165.344,-87.4731,-68.8019,0,0,0,0.311371,0.641052,-0.332123,0.617798,-111.4,60.925,-36.625,-7796,-28807
2226,41058,9.8,-0.0813477,-0.425879,-165.344,-87.4731,-68.8074,0,0,0,0.311401,0.641022,-0.332123,0.617798,-111.392,60.9083,-36.6083,-7796,-28807
2232,41064,9.8,-0.100488,-0.416309,-165.344,-87.4731,-68.8019,0,0,0,0.311401,0.641022,-0.332123,0.617798,-111.375,60.8833,-36.5833,-7796,-28807
2238,41070,9.80479,-0.100488,-0.397168,-165.35,-87.4731,-68.8074,0,0,0,0.311432,0.641022,-0.332153,0.617798,-111.35,60.8667,-36.5583,-7796,-28807
2244,41076,9.8335,-0.105273,-0.416309,-165.35,-87.4731,-68.8074,0,0,0,0.311432,0.641022,-0.332153,0.617798,-111.367,60.8667,-36.5667,-7796,-28807
2250,41082,9.80479,-0.0957031,-0.421094,-165.355,-87.4731,-68.8074,0,0,0,0.311432,0.641022,-0.332153,0.617767,-111.408,60.875,-36.625,-7796,-28807
2256,41088,9.77607,-0.0957031,-0.435449,-165.355,-87.4731,-68.8074,0,0,0,0.311462,0.640991,-0.332184,0.617767,-111.425,60.8667,-36.6417,-7796,-28807
2262,41094,9.82393,-0.114844,-0.421094,-165.355,-87.4731,-68.8074,0,0,0,0.311462,0.640991,-0.332184,0.617767,-111.417,60.8583,-36.6417,-7796,-28807
2268,41100,9.80957,-0.124414,-0.416309,-165.361,-87.4731,-68.8074,0,0,0,0.311493,0.640991,-0.332214,0.617767,-111.408,60.8333,-36.625,-7796,-28807
2274,41106,9.81914,-0.090918,-0.397168,-165.361,-87.4731,-68.8074,0,0,0,0.311493,0.640991,-0.332214,0.617767,-111.408,60.8333,-36.6,-7796,-28807
2280,41112,9.8,-0.090918,-0.406738,-165.361,-87.4731,-68.8074,0,0,0,0.311493,0.640991,-0.332214,0.617737,-111.425,60.85,-36.5667,-7796,-28807
2286,41118,9.80957,-0.114844,-0.421094,-165.366,-87.4731,-68.8074,0,0,0,0.311523,0.640991,-0.332245,0.617737,-111.433,60.8583,-36.5667,-7796,-28807
2292,41124,9.79521,-0.114844,-0.397168,-165.366,-87.4731,-68.8074,0,0,0,0.311523,0.640961,-0.332245,0.617737,-111.433,60.875,-36.575,-7796,-28807
2298,41130,9.79521,-0.114844,-0.425879,-165.366,-87.4731,-68.8074,0,0,0,0.311523,0.640961,-0.332245,0.617737,-111.433,60.8917,-36.5833,-7796,-28807
2304,41136,9.80957,-0.0861328,-0.416309,-165.366,-87.4731,-68.8074,0,0,0,0.311523,0.640961,-0.332245,0.617737,-111.425,60.9,-36.6,-7796,-28807
2310,41142,9.80479,-0.119629,-0.406738,-165.372,-87.4731,-68.8074,0,0,0,0.311554,0.640961,-0.332275,0.617737,-111.425,60.9083,-36.5833,-7796,-28807
2316,41148,9.78086,-0.100488,-0.406738,-165.372,-87.4731,-68.8074,0,0,0,0.311554,0.640961,-0.332275,0.617737,-111.433,60.8917,-36.5917,-7796,-28807
2322,41154,9.79043,-0.114844,-0.401953,-165.372,-87.4731,-68.8074,0,0,0,0.311554,0.640961,-0.332275,0.617706,-111.45,60.8917,-36.6167,-7796,-28807
2328,41160,9.79043,-0.119629,-0.449805,-165.372,-87.4731,-68.8074,0,0,0,0.311554,0.640961,-0.332275,0.617706,-111.45,60.8917,-36.6,-7796,-28807
2334,41166,9.78564,-0.110059,-0.430664,-165.372,-87.4731,-68.8074,0,0,0,0.311554,0.640961,-0.332275,0.617706,-111.433,60.8833,-36.6,-7796,-28807
2340,41172,9.80957,-0.0957031,-0.397168,-165.372,-87.4731,-68.8019,0,0,0,0.311554,0.640961,-0.332275,0.617706,-111.375,60.9,-36.55,-7796,-28807
2346,41178,9.80479,-0.105273,-0.416309,-165.377,-87.4731,-68.8074,0,0,0,0.311584,0.640961,-0.332275,0.617706,-111.375,60.8917,-36.525,-7796,-28807
2352,41184,9.8,-0.124414,-0.449805,-165.377,-87.4731,-68.8074,0,0,0,0.311584,0.640961,-0.332306,0.617706,-111.375,60.8917,-36.4833,-7796,-28807
2358,41190,9.79043,-0.105273,-0.411523,-165.377,-87.4731,-68.8074,0,0,0,0.311584,0.640961,-0.332306,0.617706,-111.35,60.875,-36.4583,-7796,-28807
2364,41196,9.80957,-0.100488,-0.421094,-165.377,-87.4731,-68.8074,0,0,0,0.311584,0.640961,-0.332306,0.617706,-111.35,60.8583,-36.4167,-7796,-28807
2370,41202,9.80479,-0.124414,-0.421094,-165.377,-87.4731,-68.8074,0,0,0,0.311584,0.64093,-0.332306,0.617706,-111.367,60.85,-36.425,-7796,-28807
