TimeSinceCollection,Timestamp,AccX,AccY,AccZ,AngleRoll,AnglePitch,AngleYaw,AngularVelX,AngularVelY,AngularVelZ,Q1,Q2,Q3,Q4,MagX,MagY,MagZ,Height,Airpressure
0,443141,0,0,0,161.702,85.9845,78.1842,-9.77129,0.234473,-0.626855,-0.514771,-0.492065,-0.539459,0.449158,-30.9583,3.23333,-26.8583,-6978,-28906
6,443147,0,0,0,161.702,85.9845,78.1842,-9.8,0.210547,-0.669922,-0.514771,-0.492065,-0.539459,0.449158,-30.9417,3.24167,-26.8833,-6978,-28906
12,443153,0,0,0,161.702,85.9845,78.1842,-9.79521,0.205762,-0.641211,-0.514771,-0.492065,-0.53949,0.449158,-30.8583,3.2,-26.95,-6978,-28906
18,443159,0,0,0,161.702,85.9845,78.1842,-9.77129,0.215332,-0.665137,-0.514771,-0.492065,-0.53949,0.449158,-30.8333,3.15833,-26.9917,-6978,-28906
24,443165,0,0,0,161.702,85.9845,78.1842,-9.77607,0.210547,-0.645996,-0.514771,-0.492065,-0.53949,0.449158,-30.7917,3.13333,-27,-6978,-28906
30,443171,0,0,0,161.697,85.9845,78.1842,-9.78564,0.220117,-0.636426,-0.514771,-0.492065,-0.53949,0.449158,-30.7917,3.11667,-26.975,-6978,-28906
36,443177,0,0,0,161.697,85.9845,78.1842,-9.79043,0.191406,-0.660352,-0.514771,-0.492035,-0.53949,0.449158,-30.7833,3.08333,-26.9333,-6978,-28906
42,443183,0,0,0,161.697,85.9845,78.1842,-9.78564,0.215332,-0.636426,-0.514771,-0.492035,-0.53949,0.449158,-30.8,3.04167,-26.8417,-6978,-28906
48,443189,0,0,0,161.697,85.9845,78.1842,-9.7665,0.205762,-0.636426,-0.514771,-0.492035,-0.53949,0.449158,-30.7917,3.00833,-26.8167,-6978,-28906
54,443195,0,0,0,161.697,85.9845,78.1842,-9.79043,0.215332,-0.655566,-0.514771,-0.492035,-0.53949,0.449158,-30.775,2.99167,-26.8,-6978,-28906
60,443201,0,0,0,161.697,85.9845,78.1842,-9.80479,0.210547,-0.650781,-0.514771,-0.492035,-0.53949,0.449158,-30.7417,2.975,-26.7833,-6978,-28906
66,443207,0,0,0,161.697,85.9845,78.1842,-9.79521,0.205762,-0.645996,-0.514771,-0.492035,-0.53949,0.449158,-30.7167,2.975,-26.7833,-6978,-28906
72,443213,0,0,0,161.697,85.9845,78.1842,-9.7665,0.210547,-0.641211,-0.514771,-0.492035,-0.53949,0.449158,-30.7167,2.975,-26.825,-6978,-28906
78,443219,0,0,0,161.697,85.9845,78.1842,-9.7665,0.215332,-0.626855,-0.514771,-0.492035,-0.53949,0.449158,-30.7167,2.975,-26.85,-6978,-28906
84,443225,0,0,0,161.697,85.9845,78.1842,-9.78564,0.229688,-0.641211,-0.514771,-0.492035,-0.53949,0.449158,-30.7417,2.96667,-26.875,-6978,-28906
90,443231,0,0,0,161.697,85.9845,78.1842,-9.77607,0.196191,-0.650781,-0.514771,-0.492035,-0.53949,0.449158,-30.7333,2.95833,-26.9,-6978,-28906
96,443237,0,0,0,161.697,85.9845,78.1842,-9.79043,0.229688,-0.631641,-0.514771,-0.492035,-0.53949,0.449158,-30.7333,2.96667,-26.9,-6978,-28906
102,443243,0,0,0,161.697,85.9845,78.1842,-9.79521,0.200977,-0.641211,-0.514771,-0.492035,-0.53949,0.449158,-30.7417,3.00833,-26.925,-6978,-28906
108,443249,0,0,0,161.697,85.9845,78.1842,-9.78086,0.205762,-0.645996,-0.514771,-0.492035,-0.53949,0.449158,-30.7417,3.03333,-26.9167,-6978,-28906
114,443255,0,0,0,161.697,85.9845,78.1842,-9.77129,0.196191,-0.660352,-0.514771,-0.492035,-0.53949,0.449158,-30.7417,3.05,-26.8833,-6978,-28906
120,443261,0,0,0,161.697,85.9845,78.1842,-9.8,0.210547,-0.655566,-0.514771,-0.492035,-0.53949,0.449158,-30.7333,3.05833,-26.825,-6978,-28906
126,443267,0,0,0,161.697,85.9845,78.1842,-9.78086,0.220117,-0.650781,-0.514771,-0.492035,-0.53949,0.449158,-30.725,3.06667,-26.7667,-6978,-28906
132,443273,0,0,0,161.697,85.9845,78.1842,-9.78086,0.220117,-0.660352,-0.514771,-0.492035,-0.53949,0.449158,-30.7083,3.05833,-26.6417,-6978,-28906
138,443279,0,0,0,161.697,85.9845,78.1842,-9.78086,0.210547,-0.665137,-0.514771,-0.492035,-0.53949,0.449158,-30.6917,3.03333,-26.625,-6978,-28906
144,443285,0,0,0,161.697,85.9845,78.1842,-9.79043,0.196191,-0.631641,-0.514771,-0.492035,-0.53949,0.449158,-30.6917,3.00833,-26.575,-6978,-28906
150,443291,0,0,0,161.697,85.9845,78.1842,-9.77129,0.210547,-0.655566,-0.514771,-0.492035,-0.53949,0.449158,-30.6833,2.98333,-26.5583,-6978,-28906
156,443297,0,0,0,161.697,85.9845,78.1842,-9.78086,0.220117,-0.669922,-0.514771,-0.492035,-0.53949,0.449158,-30.6583,2.95,-26.5417,-6978,-28906
162,443303,0,0,0,161.697,85.9845,78.1842,-9.79043,0.210547,-0.645996,-0.514771,-0.492035,-0.53949,0.449158,-30.6167,2.925,-26.6333,-6978,-28906
168,443309,0,0,0,161.697,85.9845,78.1842,-9.79043,0.196191,-0.636426,-0.514771,-0.492035,-0.53949,0.449158,-30.6,2.93333,-26.725,-6986,-28905
174,443315,0,0,0,161.697,85.9845,78.1842,-9.78086,0.205762,-0.655566,-0.514771,-0.492035,-0.53949,0.449158,-30.6,2.94167,-26.7917,-6986,-28905
180,443321,0,0,0,161.697,85.9845,78.1842,-9.7665,0.229688,-0.665137,-0.514771,-0.492035,-0.53949,0.449158,-30.6333,2.95,-26.8667,-6986,-28905
186,443327,0,0,0,161.697,85.9845,78.1842,-9.78564,0.196191,-0.645996,-0.514771,-0.492035,-0.53949,0.449158,-30.6583,2.96667,-26.95,-6986,-28905
192,443333,0,0,0,161.702,85.9845,78.1842,-9.77607,0.215332,-0.641211,-0.514771,-0.492065,-0.539459,0.449158,-30.6833,2.95,-26.9917,-6986,-28905
198,443339,0,0,0,161.702,85.9845,78.1842,-9.79043,0.224902,-0.631641,-0.514771,-0.492065,-0.539459,0.449158,-30.6917,2.925,-26.9667,-6986,-28905
204,443345,0,0,0,161.702,85.9845,78.1842,-9.78564,0.229688,-0.650781,-0.514771,-0.492065,-0.539459,0.449158,-30.6917,2.90833,-26.9417,-6986,-28905
210,443351,0,0,0,161.702,85.9845,78.1842,-9.79043,0.191406,-0.660352,-0.514771,-0.492065,-0.539459,0.449158,-30.7083,2.91667,-26.9167,-6986,-28905
216,443357,0,0,0,161.702,85.9845,78.1842,-9.77129,0.220117,-0.645996,-0.514771,-0.492065,-0.539459,0.449158,-30.7417,2.94167,-26.925,-6986,-28905
222,443363,0,0,0,161.702,85.9845,78.1842,-9.79043,0.229688,-0.655566,-0.514771,-0.492065,-0.539459,0.449158,-30.8,2.99167,-26.8917,-6986,-28905
228,443369,0,0,0,161.702,85.9845,78.1842,-9.78564,0.210547,-0.665137,-0.514771,-0.492065,-0.539459,0.449158,-30.8167,3.01667,-26.8583,-6986,-28905
234,443375,0,0,0,161.702,85.9845,78.1842,-9.79521,0.210547,-0.660352,-0.514771,-0.492065,-0.539459,0.449188,-30.8417,3.025,-26.8333,-6986,-28905
240,443381,0,0,0,161.702,85.9845,78.1842,-9.78564,0.215332,-0.641211,-0.51474,-0.492065,-0.539459,0.449188,-30.8583,3.03333,-26.8333,-6986,-28905
246,443387,0,0,0,161.702,85.9845,78.1842,-9.77607,0.210547,-0.650781,-0.51474,-0.492065,-0.539459,0.449188,-30.8667,3.05,-26.8417,-6986,-28905
252,443393,0,0,0,161.702,85.9845,78.1842,-9.79043,0.200977,-0.655566,-0.51474,-0.492065,-0.539459,0.449188,-30.8667,3.11667,-26.8667,-6986,-28905
258,443399,0,0,0,161.708,85.9845,78.1842,-9.77129,0.239258,-0.655566,-0.51474,-0.492065,-0.539459,0.449188,-30.8667,3.13333,-26.8417,-6986,-28905
264,443405,0,0,0,161.708,85.9845,78.1842,-9.79521,0.210547,-0.650781,-0.51474,-0.492065,-0.539459,0.449188,-30.8583,3.15833,-26.8583,-6986,-28905
270,443411,0,0,0,161.708,85.9845,78.1842,-9.78564,0.234473,-0.631641,-0.51474,-0.492096,-0.539459,0.449188,-30.85,3.15,-26.9083,-6986,-28905
276,443417,0,0,0,161.708,85.9845,78.1842,-9.77129,0.191406,-0.650781,-0.51474,-0.492096,-0.539459,0.449188,-30.875,3.13333,-26.9417,-6986,-28905
282,443423,0,0,0,161.708,85.9845,78.1842,-9.77129,0.229688,-0.650781,-0.51474,-0.492096,-0.539459,0.449188,-30.8917,3.10833,-26.95,-6986,-28905
288,443429,0,0,0,161.708,85.9845,78.1842,-9.78564,0.191406,-0.655566,-0.51474,-0.492096,-0.539429,0.449188,-30.8917,3.1,-26.9333,-6986,-28905
294,443435,0,0,0,161.708,85.9845,78.1842,-9.80479,0.220117,-0.641211,-0.51474,-0.492096,-0.539429,0.449188,-30.8917,3.08333,-26.8917,-6986,-28905
300,443441,0,0,0,161.708,85.9845,78.1842,-9.78086,0.205762,-0.641211,-0.51474,-0.492096,-0.539429,0.449188,-30.8833,3.075,-26.8667,-6986,-28905
306,443447,0,0,0,161.708,85.9845,78.1842,-9.7665,0.196191,-0.626855,-0.51474,-0.492096,-0.539429,0.449219,-30.875,3.05,-26.85,-6986,-28905
312,443453,0,0,0,161.708,85.9845,78.1842,-9.79043,0.205762,-0.631641,-0.514709,-0.492096,-0.539429,0.449219,-30.875,3.01667,-26.8667,-6986,-28905
318,443459,0,0,0,161.708,85.9845,78.1842,-9.8,0.200977,-0.674707,-0.514709,-0.492096,-0.539429,0.449219,-30.875,3.01667,-26.9167,-6986,-28905
324,443465,0,0,0,161.713,85.9845,78.1842,-9.79521,0.210547,-0.655566,-0.514709,-0.492096,-0.539429,0.449219,-30.85,3,-27,-6986,-28905
330,443471,0,0,0,161.713,85.9845,78.1842,-9.79043,0.220117,-0.645996,-0.514709,-0.492096,-0.539429,0.449219,-30.825,3,-27.125,-6986,-28905
336,443477,0,0,0,161.713,85.9845,78.1842,-9.78086,0.196191,-0.636426,-0.514709,-0.492096,-0.539429,0.449219,-30.8083,3.01667,-27.2333,-6986,-28905
342,443483,0,0,0,161.713,85.9845,78.1842,-9.79043,0.200977,-0.650781,-0.514709,-0.492126,-0.539429,0.449219,-30.8083,3.09167,-27.3917,-6986,-28905
348,443489,0,0,0,161.713,85.9845,78.1842,-9.76172,0.196191,-0.679492,-0.514709,-0.492126,-0.539429,0.449219,-30.825,3.125,-27.3917,-6986,-28905
354,443495,0,0,0,161.713,85.9845,78.1842,-9.79043,0.200977,-0.62207,-0.514709,-0.492126,-0.539429,0.449249,-30.825,3.15833,-27.3583,-6986,-28905
360,443501,0,0,0,161.713,85.9845,78.1842,-9.77129,0.220117,-0.636426,-0.514709,-0.492126,-0.539398,0.449249,-30.825,3.175,-27.3,-6986,-28905
366,443507,0,0,0,161.719,85.9845,78.1842,-9.79043,0.205762,-0.660352,-0.514709,-0.492126,-0.539398,0.449249,-30.8,3.175,-27.2167,-6986,-28905
372,443513,0,0,0,161.719,85.9845,78.1842,-9.78564,0.244043,-0.655566,-0.514679,-0.492126,-0.539398,0.449249,-30.8,3.175,-27.0417,-6986,-28905
378,443519,0,0,0,161.719,85.9845,78.1842,-9.76172,0.253613,-0.636426,-0.514679,-0.492126,-0.539398,0.449249,-30.8167,3.175,-26.975,-6986,-28905
384,443525,0,0,0,161.719,85.9845,78.1842,-9.73779,0.224902,-0.598145,-0.514679,-0.492126,-0.539398,0.449249,-30.8417,3.19167,-26.925,-6986,-28905
390,443531,0,0,0,161.719,85.9845,78.1842,-9.79521,0.196191,-0.665137,-0.514679,-0.492126,-0.539398,0.449249,-30.875,3.19167,-26.9,-6994,-28904
396,443537,0,0,0,161.713,85.9845,78.1842,-9.78086,0.258398,-0.679492,-0.514709,-0.492126,-0.539398,0.449249,-30.8833,3.2,-26.9,-6994,-28904
402,443543,0,0,0,161.713,85.9845,78.1842,-9.84785,0.177051,-0.626855,-0.514709,-0.492126,-0.539398,0.449249,-30.875,3.19167,-26.8833,-6994,-28904
408,443549,0,0,0,161.713,85.9845,78.1842,-9.80957,0.186621,-0.717773,-0.514709,-0.492126,-0.539398,0.449249,-30.8667,3.19167,-26.8667,-6994,-28904
414,443555,0,0,0,161.713,85.9845,78.1842,-9.76172,0.229688,-0.669922,-0.514709,-0.492126,-0.539398,0.449249,-30.8583,3.2,-26.825,-6994,-28904
420,443561,0,0,0,161.719,85.9845,78.1842,-9.74258,0.181836,-0.660352,-0.514709,-0.492126,-0.539398,0.449249,-30.8417,3.20833,-26.8417,-6994,-28904
426,443567,0,0,0,161.719,85.9845,78.1842,-9.73779,0.177051,-0.679492,-0.514679,-0.492126,-0.539398,0.449249,-30.8167,3.18333,-26.775,-6994,-28904
432,443573,0,0,0,161.719,85.9845,78.1842,-9.78086,0.177051,-0.655566,-0.514679,-0.492157,-0.539398,0.449249,-30.8167,3.16667,-26.7417,-6994,-28904
438,443579,0,0,0,161.724,85.9845,78.1842,-9.73779,0.224902,-0.641211,-0.514679,-0.492157,-0.539368,0.44928,-30.825,3.16667,-26.7167,-6994,-28904
444,443585,0,0,0,161.724,85.9845,78.1842,-9.75215,0.191406,-0.631641,-0.514648,-0.492157,-0.539368,0.44928,-30.8333,3.19167,-26.7,-6994,-28904
450,443591,0,0,0,161.724,85.9845,78.1842,-9.73779,0.253613,-0.636426,-0.514648,-0.492157,-0.539368,0.44928,-30.8583,3.225,-26.75,-6994,-28904
456,443597,0.0610352,-0.427246,0.305176,161.697,85.99,78.1512,-9.75693,0.287109,-0.607715,-0.514648,-0.492188,-0.539368,0.44931,-30.8667,3.275,-26.875,-6994,-28904
462,443603,0.12207,-0.0610352,0.0610352,161.691,85.99,78.1458,-9.85742,0.287109,-0.626855,-0.514679,-0.492188,-0.539337,0.44931,-30.8667,3.275,-26.9,-6994,-28904
468,443609,0.0610352,-0.0610352,-0.0610352,161.686,85.99,78.1403,-9.89092,0.248828,-0.60293,-0.514679,-0.492188,-0.539337,0.44931,-30.8667,3.275,-26.8833,-6994,-28904
474,443615,-0.0610352,-0.0610352,-0.0610352,161.686,85.99,78.1403,-9.81914,0.272754,-0.579004,-0.514679,-0.492157,-0.539337,0.44931,-30.8833,3.26667,-26.875,-6994,-28904
480,443621,0,0.549316,-0.244141,161.686,85.99,78.1458,-9.77607,0.263184,-0.62207,-0.514679,-0.492157,-0.539337,0.44928,-30.8833,3.275,-26.825,-6994,-28904
486,443627,-0.0610352,0.183105,-0.244141,161.73,85.9845,78.1952,-9.73301,0.282324,-0.665137,-0.514679,-0.492126,-0.539368,0.44928,-30.8583,3.28333,-26.7333,-6994,-28904
492,443633,0.0610352,0.427246,-0.12207,161.752,85.9845,78.2172,-9.77129,0.177051,-0.588574,-0.514709,-0.492096,-0.539429,0.449249,-30.825,3.26667,-26.6833,-6994,-28904
498,443639,0,0.488281,-0.366211,161.763,85.9845,78.2391,-9.7665,0.172266,-0.703418,-0.514709,-0.492096,-0.539459,0.449219,-30.8083,3.24167,-26.6583,-6994,-28904
504,443645,0,-0.183105,0.0610352,161.796,85.9845,78.2721,-9.74736,0.162695,-0.722559,-0.514679,-0.492096,-0.53949,0.449219,-30.775,3.225,-26.6417,-6994,-28904
510,443651,0,-0.183105,0.0610352,161.79,85.9845,78.2666,-9.73779,0.191406,-0.669922,-0.514709,-0.492065,-0.53949,0.449219,-30.7417,3.20833,-26.6583,-6994,-28904
516,443657,-0.0610352,0,0.12207,161.768,85.9845,78.2501,-9.74736,0.181836,-0.62207,-0.514709,-0.492065,-0.53949,0.449219,-30.7,3.13333,-26.7167,-6994,-28904
522,443663,-0.0610352,-0.305176,0.0610352,161.763,85.9845,78.2391,-9.82871,0.205762,-0.693848,-0.514709,-0.492065,-0.539459,0.449219,-30.6833,3.11667,-26.725,-6994,-28904
528,443669,-0.12207,-0.244141,0.183105,161.752,85.9845,78.2281,-9.84785,0.200977,-0.631641,-0.51474,-0.492065,-0.539459,0.449219,-30.675,3.09167,-26.7417,-6994,-28904
534,443675,-0.12207,0,0.12207,161.735,85.99,78.2117,-9.81436,0.205762,-0.669922,-0.51474,-0.492065,-0.539459,0.449219,-30.65,3.075,-26.7667,-6994,-28904
540,443681,0,-0.12207,-0.0610352,161.724,85.99,78.2007,-9.79043,0.224902,-0.693848,-0.51474,-0.492065,-0.539459,0.449219,-30.6333,3.06667,-26.7917,-6994,-28904
546,443687,0,-0.244141,-0.0610352,161.724,85.99,78.2007,-9.77607,0.239258,-0.6125,-0.51474,-0.492065,-0.539459,0.449219,-30.6083,3.08333,-26.7583,-6994,-28904
552,443693,0,0.366211,-0.183105,161.741,85.99,78.2172,-9.79521,0.220117,-0.650781,-0.51474,-0.492065,-0.539459,0.449219,-30.6167,3.1,-26.7,-6994,-28904
558,443699,0,0,-0.244141,161.757,85.9845,78.2391,-9.80479,0.200977,-0.650781,-0.51474,-0.492065,-0.539459,0.449219,-30.6417,3.10833,-26.6417,-6994,-28904
564,443705,0,0.305176,-0.0610352,161.774,85.99,78.2556,-9.8,0.191406,-0.583789,-0.514709,-0.492065,-0.539459,0.449219,-30.6417,3.1,-26.6583,-6994,-28904
570,443711,-0.12207,0.12207,0.244141,161.785,85.9845,78.2666,-9.72822,0.210547,-0.674707,-0.514709,-0.492065,-0.53949,0.449219,-30.6583,3.075,-26.65,-6994,-28904
576,443717,-0.12207,0,0,161.774,85.9845,78.2501,-9.75693,0.244043,-0.703418,-0.514709,-0.492065,-0.53949,0.449188,-30.675,3.03333,-26.65,-6994,-28904
582,443723,0,-0.0610352,0.244141,161.741,85.9845,78.2227,-9.77129,0.234473,-0.607715,-0.51474,-0.492065,-0.539459,0.449188,-30.7,3.01667,-26.6833,-6994,-28904
588,443729,0,-0.12207,0,161.724,85.9845,78.2062,-9.80957,0.248828,-0.679492,-0.51474,-0.492065,-0.539459,0.449188,-30.725,3.01667,-26.6833,-6994,-28904
594,443735,0,-0.183105,0.244141,161.719,85.9845,78.2007,-9.8335,0.239258,-0.693848,-0.51474,-0.492065,-0.539459,0.449188,-30.7333,3.03333,-26.675,-6994,-28904
600,443741,-0.12207,-0.305176,-0.0610352,161.697,85.99,78.1787,-9.80479,0.258398,-0.626855,-0.514771,-0.492065,-0.539459,0.449188,-30.725,3.04167,-26.65,-6994,-28904
606,443747,0,0,0.0610352,161.691,85.99,78.1732,-9.82393,0.229688,-0.607715,-0.514771,-0.492035,-0.539459,0.449188,-30.7167,3.05833,-26.6,-6994,-28904
612,443753,0,0.0610352,0,161.702,85.99,78.1897,-9.78086,0.205762,-0.617285,-0.514801,-0.492004,-0.53949,0.449158,-30.7167,3.06667,-26.6,-6994,-28904
618,443759,-0.12207,0.244141,-0.305176,161.702,85.99,78.1897,-9.78086,0.205762,-0.60293,-0.514801,-0.492004,-0.53949,0.449158,-30.7167,3.09167,-26.6333,-6994,-28904
624,443765,-0.12207,0.244141,-0.0610352,161.724,85.99,78.2172,-9.76172,0.196191,-0.626855,-0.514801,-0.492004,-0.53952,0.449127,-30.7167,3.10833,-26.6583,-6994,-28904
630,443771,0,0.305176,0,161.73,85.9845,78.2281,-9.79043,0.177051,-0.665137,-0.514801,-0.491974,-0.53952,0.449127,-30.7167,3.11667,-26.725,-6994,-28904
636,443777,0.0610352,-0.0610352,0.0610352,161.73,85.9845,78.2281,-9.75215,0.177051,-0.708203,-0.514801,-0.491974,-0.539551,0.449097,-30.7417,3.125,-26.825,-6994,-28904
642,443783,-0.0610352,0,0.183105,161.724,85.9845,78.2227,-9.75693,0.181836,-0.703418,-0.514801,-0.491974,-0.539551,0.449097,-30.725,3.125,-26.8833,-6994,-28904
648,443789,-0.0610352,-0.0610352,0,161.713,85.9845,78.2117,-9.75693,0.181836,-0.727344,-0.514801,-0.492004,-0.539551,0.449097,-30.7417,3.125,-26.9083,-6994,-28904
654,443795,0,-0.12207,0.0610352,161.713,85.9845,78.2117,-9.76172,0.177051,-0.674707,-0.514801,-0.492004,-0.53952,0.449097,-30.7583,3.11667,-26.8917,-6994,-28904
660,443801,0.0610352,-0.183105,0.12207,161.708,85.9845,78.2007,-9.77607,0.215332,-0.626855,-0.514801,-0.492004,-0.53952,0.449127,-30.775,3.11667,-26.8667,-6994,-28904
666,443807,0,-0.183105,-0.0610352,161.697,85.9845,78.1897,-9.79521,0.224902,-0.650781,-0.514801,-0.492004,-0.53952,0.449127,-30.825,3.08333,-26.7417,-6994,-28904
672,443813,-0.0610352,-0.183105,0,161.691,85.99,78.1787,-9.79521,0.258398,-0.588574,-0.514801,-0.492004,-0.53949,0.449158,-30.85,3.075,-26.7083,-6994,-28904
678,443819,-0.0610352,-0.0610352,0.0610352,161.686,85.99,78.1787,-9.80479,0.220117,-0.583789,-0.514801,-0.492004,-0.53949,0.449158,-30.8667,3.05,-26.675,-6994,-28904
684,443825,-0.12207,0,-0.0610352,161.68,85.99,78.1732,-9.8,0.263184,-0.62207,-0.514801,-0.492004,-0.53949,0.449158,-30.9,3.03333,-26.6333,-6994,-28904
690,443831,-0.0610352,0.0610352,0,161.686,85.99,78.1732,-9.79043,0.234473,-0.60293,-0.514832,-0.492004,-0.53949,0.449158,-30.925,3.04167,-26.6083,-6994,-28904
696,443837,-0.0610352,0.244141,0,161.686,85.99,78.1842,-9.80479,0.215332,-0.62207,-0.514832,-0.491974,-0.53949,0.449127,-30.9333,3.05833,-26.575,-6994,-28904
702,443843,0.0610352,0.0610352,-0.12207,161.719,85.99,78.2172,-9.75693,0.220117,-0.645996,-0.514832,-0.491974,-0.53952,0.449127,-30.9333,3.06667,-26.575,-6994,-28904
708,443849,0,0.183105,-0.0610352,161.73,85.99,78.2281,-9.76172,0.196191,-0.607715,-0.514832,-0.491974,-0.539551,0.449097,-30.925,3.06667,-26.6,-6994,-28904
714,443855,0,0.0610352,-0.244141,161.735,85.9845,78.2336,-9.76172,0.196191,-0.655566,-0.514832,-0.491974,-0.539551,0.449097,-30.9,3.06667,-26.6333,-6994,-28904
720,443861,0,0,0,161.752,85.9845,78.2501,-9.75693,0.205762,-0.679492,-0.514832,-0.491943,-0.539551,0.449097,-30.8833,3.05,-26.6583,-6994,-28904
726,443867,0,0.0610352,-0.12207,161.757,85.9845,78.2611,-9.77129,0.181836,-0.674707,-0.514832,-0.491943,-0.539581,0.449097,-30.8583,3.025,-26.6667,-6986,-28905
732,443873,0,0,0.244141,161.768,85.99,78.2721,-9.78564,0.200977,-0.636426,-0.514832,-0.491913,-0.539581,0.449097,-30.8833,3.03333,-26.65,-6986,-28905
738,443879,0,-0.183105,0,161.752,85.99,78.2556,-9.79043,0.196191,-0.660352,-0.514832,-0.491943,-0.539581,0.449097,-30.875,3.03333,-26.6667,-6986,-28905
744,443885,0,0,0,161.746,85.99,78.2501,-9.79521,0.239258,-0.645996,-0.514832,-0.491943,-0.539581,0.449097,-30.8667,3.05,-26.6833,-6986,-28905
750,443891,-0.0610352,-0.12207,0.12207,161.746,85.99,78.2501,-9.80479,0.196191,-0.636426,-0.514832,-0.491913,-0.539581,0.449097,-30.85,3.05833,-26.7083,-6986,-28905
756,443897,0,-0.0610352,0.0610352,161.73,85.99,78.2336,-9.79521,0.248828,-0.645996,-0.514862,-0.491913,-0.539551,0.449097,-30.7917,3.08333,-26.7583,-6986,-28905
762,443903,0,-0.0610352,0.0610352,161.741,85.99,78.2446,-9.80479,0.215332,-0.626855,-0.514862,-0.491913,-0.539581,0.449097,-30.7667,3.08333,-26.75,-6986,-28905
768,443909,-0.12207,0.183105,0,161.735,85.99,78.2391,-9.78564,0.234473,-0.645996,-0.514862,-0.491913,-0.539581,0.449097,-30.7583,3.08333,-26.7167,-6986,-28905
774,443915,0,0,-0.366211,161.735,85.99,78.2446,-9.79521,0.239258,-0.669922,-0.514862,-0.491913,-0.539581,0.449097,-30.7417,3.1,-26.6833,-6986,-28905
780,443921,-0.0610352,0,-0.0610352,161.763,85.99,78.2666,-9.75693,0.220117,-0.641211,-0.514862,-0.491913,-0.539581,0.449097,-30.7167,3.1,-26.6583,-6986,-28905
786,443927,0,-0.12207,-0.244141,161.774,85.99,78.2886,-9.78086,0.220117,-0.660352,-0.514862,-0.491882,-0.539612,0.449097,-30.7,3.15,-26.6,-6986,-28905
792,443933,-0.0610352,-0.0610352,0,161.774,85.99,78.2886,-9.78086,0.220117,-0.641211,-0.514862,-0.491882,-0.539612,0.449066,-30.7083,3.15833,-26.6083,-6986,-28905
798,443939,0.0610352,-0.183105,0.0610352,161.774,85.99,78.2831,-9.78086,0.196191,-0.631641,-0.514862,-0.491852,-0.539612,0.449066,-30.7083,3.15833,-26.6167,-6986,-28905
804,443945,0,-0.12207,0,161.763,85.99,78.2776,-9.78564,0.200977,-0.631641,-0.514893,-0.491852,-0.539612,0.449066,-30.7167,3.16667,-26.6417,-6986,-28905
810,443951,-0.0610352,-0.12207,0.0610352,161.757,85.99,78.2721,-9.79043,0.205762,-0.641211,-0.514893,-0.491852,-0.539612,0.449066,-30.7333,3.16667,-26.6833,-6986,-28905
816,443957,0,-0.183105,0,161.746,85.9955,78.2611,-9.79521,0.224902,-0.636426,-0.514923,-0.491852,-0.539612,0.449066,-30.7833,3.13333,-26.6583,-6986,-28905
822,443963,0,0.12207,-0.12207,161.741,85.9955,78.2611,-9.79521,0.229688,-0.631641,-0.514923,-0.491821,-0.539612,0.449066,-30.7917,3.14167,-26.6833,-6986,-28905
828,443969,-0.0610352,-0.0610352,0,161.752,85.9955,78.2721,-9.79521,0.224902,-0.665137,-0.514923,-0.491821,-0.539642,0.449036,-30.8,3.14167,-26.6583,-6986,-28905
834,443975,0,0,-0.12207,161.746,85.9955,78.2666,-9.78086,0.210547,-0.669922,-0.514923,-0.491821,-0.539642,0.449036,-30.7833,3.125,-26.6917,-6986,-28905
840,443981,-0.0610352,0,0.0610352,161.752,85.9955,78.2776,-9.78086,0.205762,-0.660352,-0.514923,-0.491791,-0.539642,0.449036,-30.7667,3.11667,-26.7083,-6986,-28905
846,443987,0.183105,0.0610352,0.12207,161.741,85.9955,78.2666,-9.78564,0.215332,-0.641211,-0.514954,-0.491791,-0.539642,0.449036,-30.75,3.075,-26.775,-6978,-28906
852,443993,-0.0610352,-0.0610352,0,161.741,85.9955,78.2666,-9.76172,0.191406,-0.626855,-0.514954,-0.491791,-0.539642,0.449005,-30.75,3.06667,-26.8083,-6978,-28906
858,443999,0,-0.12207,0,161.735,85.9955,78.2666,-9.8,0.191406,-0.655566,-0.514954,-0.491791,-0.539642,0.449005,-30.7583,3.06667,-26.8417,-6978,-28906
864,444005,-0.0610352,0,0.12207,161.735,85.9955,78.2611,-9.77607,0.191406,-0.636426,-0.514954,-0.491791,-0.539642,0.449005,-30.75,3.05,-26.8667,-6986,-28905
870,444011,-0.12207,-0.183105,0,161.724,85.9955,78.2556,-9.78086,0.191406,-0.62207,-0.514954,-0.491791,-0.539642,0.449005,-30.7417,3.05,-26.8833,-6986,-28905
876,444017,-0.12207,0,-0.0610352,161.724,85.9955,78.2556,-9.78564,0.234473,-0.631641,-0.514984,-0.49176,-0.539642,0.449005,-30.725,3.03333,-26.9833,-6986,-28905
882,444023,0,0,0.183105,161.719,85.9955,78.2501,-9.78086,0.205762,-0.669922,-0.514984,-0.49176,-0.539642,0.449005,-30.7167,3.05,-27.0083,-6986,-28905
888,444029,-0.12207,-0.0610352,0.0610352,161.708,85.9955,78.2391,-9.79043,0.239258,-0.669922,-0.514984,-0.49176,-0.539642,0.449005,-30.725,3.08333,-27.0083,-6986,-28905
894,444035,0,0,0,161.702,85.9955,78.2336,-9.79043,0.210547,-0.631641,-0.514984,-0.49176,-0.539642,0.449005,-30.7333,3.1,-27,-6986,-28905
900,444041,-0.12207,0.12207,-0.244141,161.702,85.9955,78.2336,-9.78086,0.248828,-0.6125,-0.514984,-0.49176,-0.539642,0.449005,-30.75,3.13333,-26.9667,-6986,-28905
906,444047,0,0,0.0610352,161.713,85.9955,78.2501,-9.78086,0.229688,-0.655566,-0.515015,-0.49176,-0.539673,0.448975,-30.7583,3.15,-26.9167,-6986,-28905
912,444053,0.0610352,-0.0610352,-0.12207,161.702,85.9955,78.2391,-9.79043,0.205762,-0.665137,-0.515015,-0.49176,-0.539673,0.448975,-30.7583,3.15,-26.8667,-6986,-28905
918,444059,-0.0610352,0,0.0610352,161.713,85.9955,78.2501,-9.77607,0.229688,-0.6125,-0.515015,-0.49173,-0.539673,0.448975,-30.75,3.15833,-26.8583,-6986,-28905
924,444065,-0.183105,0,-0.183105,161.708,85.9955,78.2446,-9.79043,0.220117,-0.641211,-0.515015,-0.49173,-0.539673,0.448975,-30.7167,3.15,-26.8667,-6986,-28905
930,444071,0,0.0610352,-0.183105,161.713,85.9955,78.2556,-9.79521,0.200977,-0.636426,-0.515015,-0.49173,-0.539703,0.448975,-30.7167,3.15,-26.925,-6986,-28905
936,444077,0,0.183105,0.12207,161.724,85.9955,78.2666,-9.77129,0.196191,-0.679492,-0.515015,-0.49173,-0.539703,0.448944,-30.7167,3.13333,-27.025,-6986,-28905
942,444083,0,0,0.244141,161.724,85.9955,78.2666,-9.78086,0.220117,-0.645996,-0.515015,-0.491699,-0.539703,0.448944,-30.7417,3.14167,-27.0333,-6986,-28905
948,444089,0.12207,0,0.12207,161.708,85.9955,78.2501,-9.80479,0.191406,-0.626855,-0.515045,-0.491699,-0.539703,0.448944,-30.7583,3.15833,-27.05,-6986,-28905
954,444095,0.0610352,0.0610352,-0.183105,161.697,85.9955,78.2391,-9.7665,0.200977,-0.641211,-0.515045,-0.49173,-0.539703,0.448944,-30.7833,3.175,-27.025,-6986,-28905
960,444101,-0.12207,0,-0.12207,161.713,85.9955,78.2556,-9.80957,0.215332,-0.636426,-0.515045,-0.491699,-0.539703,0.448944,-30.8167,3.18333,-27,-6986,-28905
966,444107,0.0610352,0,-0.244141,161.735,85.9955,78.2776,-9.77129,0.181836,-0.665137,-0.515045,-0.491699,-0.539734,0.448944,-30.875,3.14167,-26.9417,-6978,-28906
972,444113,0,0,0,161.73,85.9955,78.2776,-9.77129,0.200977,-0.660352,-0.515045,-0.491699,-0.539734,0.448944,-30.9,3.11667,-26.9167,-6978,-28906
978,444119,0.12207,-0.12207,0.0610352,161.73,85.9955,78.2776,-9.79043,0.205762,-0.641211,-0.515045,-0.491699,-0.539734,0.448944,-30.9083,3.10833,-26.8583,-6978,-28906
984,444125,0,0.183105,-0.0610352,161.724,85.9955,78.2721,-9.78564,0.215332,-0.650781,-0.515045,-0.491699,-0.539703,0.448944,-30.9083,3.1,-26.8167,-6978,-28906
990,444131,-0.0610352,0,0.0610352,161.735,85.9955,78.2776,-9.78086,0.234473,-0.645996,-0.515015,-0.491699,-0.539734,0.448944,-30.9167,3.1,-26.8,-6978,-28906
996,444137,0,-0.0610352,0.0610352,161.724,85.9955,78.2666,-9.77129,0.196191,-0.641211,-0.515045,-0.491699,-0.539703,0.448944,-30.8833,3.125,-26.8833,-6978,-28906
1002,444143,0,0,0,161.724,85.9955,78.2666,-9.79521,0.234473,-0.645996,-0.515045,-0.491699,-0.539703,0.448944,-30.8583,3.125,-26.95,-6978,-28906
1008,444149,-0.0610352,0,-0.12207,161.724,85.9955,78.2666,-9.78086,0.220117,-0.641211,-0.515045,-0.491699,-0.539703,0.448944,-30.8333,3.125,-26.9917,-6978,-28906
1014,444155,-0.0610352,-0.12207,0.0610352,161.73,85.9955,78.2776,-9.79521,0.210547,-0.645996,-0.515045,-0.491699,-0.539734,0.448944,-30.8083,3.125,-27.025,-6978,-28906
1020,444161,0,-0.0610352,-0.0610352,161.724,85.9955,78.2721,-9.78564,0.244043,-0.655566,-0.515045,-0.491699,-0.539734,0.448944,-30.8083,3.13333,-27.05,-6978,-28906
1026,444167,0.0610352,0,-0.0610352,161.741,85.9955,78.2886,-9.78564,0.210547,-0.645996,-0.515045,-0.491669,-0.539734,0.448944,-30.8167,3.175,-27.05,-6978,-28906
1032,444173,-0.0610352,0,0,161.741,85.9955,78.2886,-9.77607,0.210547,-0.679492,-0.515045,-0.491669,-0.539734,0.448944,-30.8417,3.19167,-27.0667,-6978,-28906
1038,444179,0,-0.0610352,-0.183105,161.741,85.9955,78.2886,-9.77129,0.200977,-0.669922,-0.515045,-0.491669,-0.539734,0.448944,-30.825,3.20833,-27.0833,-6978,-28906
1044,444185,0.0610352,0.12207,-0.244141,161.752,85.9955,78.2996,-9.78086,0.191406,-0.660352,-0.515045,-0.491669,-0.539734,0.448944,-30.8167,3.225,-27.0833,-6978,-28906
1050,444191,-0.0610352,-0.0610352,0.183105,161.757,85.9955,78.3051,-9.78564,0.220117,-0.641211,-0.515045,-0.491669,-0.539734,0.448944,-30.7917,3.24167,-27.1,-6978,-28906
1056,444197,0,0,-0.183105,161.746,85.9955,78.2996,-9.77607,0.224902,-0.669922,-0.515045,-0.491669,-0.539734,0.448944,-30.7417,3.25833,-27.1083,-6978,-28906
1062,444203,0,0,0,161.763,86.001,78.3105,-9.79521,0.200977,-0.62207,-0.515045,-0.491669,-0.539734,0.448944,-30.75,3.25,-27.0583,-6978,-28906
1068,444209,0,0,0,161.763,85.9955,78.3105,-9.77607,0.224902,-0.669922,-0.515045,-0.491669,-0.539734,0.448944,-30.7583,3.23333,-27.025,-6978,-28906
1074,444215,0,-0.0610352,-0.305176,161.763,85.9955,78.3105,-9.77607,0.239258,-0.641211,-0.515045,-0.491669,-0.539734,0.448944,-30.7583,3.225,-26.975,-6978,-28906
1080,444221,-0.0610352,0.0610352,0.0610352,161.774,86.001,78.327,-9.79521,0.215332,-0.655566,-0.515045,-0.491638,-0.539764,0.448944,-30.775,3.20833,-26.8833,-6978,-28906
1086,444227,0.12207,-0.183105,-0.0610352,161.746,86.001,78.2996,-9.78086,0.210547,-0.62207,-0.515045,-0.491669,-0.539764,0.448944,-30.8083,3.16667,-26.775,-6978,-28906
1092,444233,-0.0610352,0.0610352,0.0610352,161.746,86.001,78.2996,-9.79521,0.200977,-0.626855,-0.515045,-0.491638,-0.539734,0.448944,-30.8167,3.15833,-26.75,-6978,-28906
1098,444239,0.0610352,0,-0.0610352,161.746,86.001,78.2996,-9.79521,0.210547,-0.636426,-0.515076,-0.491638,-0.539734,0.448944,-30.825,3.14167,-26.7583,-6970,-28907
1104,444245,-0.12207,0,0.12207,161.752,86.001,78.3051,-9.78564,0.215332,-0.650781,-0.515076,-0.491638,-0.539764,0.448944,-30.8167,3.15833,-26.7417,-6970,-28907
1110,444251,0.0610352,0,-0.183105,161.752,86.001,78.3051,-9.80479,0.210547,-0.641211,-0.515076,-0.491638,-0.539764,0.448914,-30.8167,3.175,-26.7333,-6970,-28907
1116,444257,-0.12207,-0.0610352,0.183105,161.746,86.001,78.2996,-9.80957,0.215332,-0.674707,-0.515076,-0.491638,-0.539764,0.448914,-30.825,3.225,-26.8083,-6970,-28907
1122,444263,0,0.0610352,0,161.735,86.001,78.2886,-9.81436,0.229688,-0.641211,-0.515076,-0.491638,-0.539764,0.448914,-30.8333,3.21667,-26.8333,-6970,-28907
1128,444269,0.0610352,-0.0610352,0.12207,161.735,86.001,78.2886,-9.77607,0.229688,-0.636426,-0.515076,-0.491638,-0.539764,0.448914,-30.8417,3.2,-26.85,-6970,-28907
1134,444275,0,0.0610352,0,161.724,86.001,78.2776,-9.77129,0.205762,-0.655566,-0.515076,-0.491638,-0.539764,0.448914,-30.8583,3.19167,-26.8167,-6970,-28907
1140,444281,-0.12207,-0.183105,0.366211,161.697,86.001,78.2501,-9.80479,0.210547,-0.669922,-0.515076,-0.491638,-0.539764,0.448914,-30.8333,3.20833,-26.7917,-6970,-28907
1146,444287,0,0.0610352,-0.12207,161.697,86.001,78.2556,-9.79043,0.205762,-0.631641,-0.515106,-0.491638,-0.539734,0.448914,-30.825,3.24167,-26.8,-6970,-28907
1152,444293,-0.0610352,-0.0610352,0,161.708,86.001,78.2666,-9.77607,0.215332,-0.655566,-0.515106,-0.491638,-0.539764,0.448914,-30.8083,3.25833,-26.8167,-6970,-28907
1158,444299,0,-0.183105,0.12207,161.708,86.001,78.2611,-9.78086,0.239258,-0.650781,-0.515106,-0.491638,-0.539764,0.448914,-30.8,3.29167,-26.8167,-6970,-28907
1164,444305,0,0.183105,0,161.691,86.001,78.2501,-9.78086,0.215332,-0.650781,-0.515106,-0.491638,-0.539764,0.448914,-30.8,3.30833,-26.8333,-6970,-28907
1170,444311,0,-0.183105,0.12207,161.686,86.001,78.2446,-9.78564,0.205762,-0.641211,-0.515106,-0.491638,-0.539764,0.448883,-30.8,3.3,-26.8,-6970,-28907
1176,444317,-0.0610352,0,0,161.68,86.001,78.2391,-9.80957,0.229688,-0.679492,-0.515106,-0.491638,-0.539764,0.448883,-30.7917,3.30833,-26.7833,-6970,-28907
1182,444323,-0.0610352,-0.0610352,0.0610352,161.68,86.001,78.2391,-9.78086,0.191406,-0.669922,-0.515106,-0.491638,-0.539764,0.448883,-30.7917,3.29167,-26.7833,-6970,-28907
1188,444329,-0.12207,-0.0610352,-0.305176,161.675,86.001,78.2336,-9.7665,0.215332,-0.669922,-0.515137,-0.491638,-0.539764,0.448883,-30.7917,3.275,-26.75,-6970,-28907
1194,444335,0,-0.183105,0,161.691,86.001,78.2556,-9.77607,0.196191,-0.631641,-0.515106,-0.491608,-0.539764,0.448883,-30.7833,3.25833,-26.7417,-6970,-28907
1200,444341,0.12207,0,0,161.691,86.001,78.2501,-9.77607,0.196191,-0.665137,-0.515137,-0.491608,-0.539764,0.448883,-30.7417,3.20833,-26.775,-6970,-28907
1206,444347,-0.12207,0.0610352,-0.244141,161.691,86.001,78.2501,-9.78086,0.210547,-0.650781,-0.515137,-0.491608,-0.539764,0.448883,-30.7167,3.2,-26.7833,-6970,-28907
1212,444353,-0.0610352,-0.183105,0.244141,161.708,86.001,78.2721,-9.79521,0.181836,-0.650781,-0.515106,-0.491608,-0.539764,0.448914,-30.7167,3.19167,-26.8083,-6970,-28907
1218,444359,-0.0610352,-0.0610352,0,161.691,86.001,78.2501,-9.78086,0.234473,-0.641211,-0.515137,-0.491608,-0.539764,0.448914,-30.7083,3.18333,-26.875,-6970,-28907
1224,444365,0,0,0.0610352,161.686,86.001,78.2501,-9.78564,0.205762,-0.665137,-0.515137,-0.491608,-0.539764,0.448914,-30.7167,3.175,-26.8917,-6970,-28907
1230,444371,-0.0610352,0,0,161.686,86.001,78.2446,-9.78086,0.244043,-0.669922,-0.515137,-0.491608,-0.539734,0.448914,-30.725,3.13333,-26.9167,-6970,-28907
1236,444377,-0.0610352,0,0.0610352,161.68,86.001,78.2391,-9.8,0.220117,-0.655566,-0.515106,-0.491608,-0.539734,0.448914,-30.7333,3.125,-26.9083,-6970,-28907
1242,444383,0,0.12207,-0.427246,161.675,86.001,78.2336,-9.78564,0.224902,-0.645996,-0.515137,-0.491608,-0.539734,0.448914,-30.7417,3.10833,-26.9167,-6970,-28907
1248,444389,-0.0610352,0.0610352,-0.305176,161.708,86.001,78.2666,-9.77129,0.210547,-0.655566,-0.515106,-0.491608,-0.539764,0.448914,-30.7583,3.10833,-26.9417,-6970,-28907
1254,444395,-0.0610352,0,0,161.73,86.001,78.2886,-9.78086,0.220117,-0.650781,-0.515106,-0.491608,-0.539764,0.448914,-30.8,3.13333,-27.0167,-6970,-28907
1260,444401,-0.12207,-0.0610352,0.0610352,161.724,86.001,78.2831,-9.78564,0.205762,-0.679492,-0.515106,-0.491608,-0.539764,0.448914,-30.8667,3.15,-27.125,-6970,-28907
1266,444407,0.0610352,0,0,161.719,86.001,78.2776,-9.78564,0.215332,-0.636426,-0.515106,-0.491608,-0.539764,0.448914,-30.9083,3.15833,-27.175,-6970,-28907
1272,444413,0,0,-0.305176,161.719,86.001,78.2776,-9.78086,0.220117,-0.631641,-0.515106,-0.491608,-0.539764,0.448914,-30.9333,3.175,-27.2083,-6970,-28907
1278,444419,0,0,0,161.741,86.001,78.2996,-9.78564,0.215332,-0.665137,-0.515106,-0.491608,-0.539764,0.448914,-30.9583,3.175,-27.225,-6970,-28907
1284,444425,-0.0610352,-0.0610352,-0.183105,161.741,86.001,78.2996,-9.78086,0.220117,-0.645996,-0.515106,-0.491608,-0.539764,0.448914,-30.975,3.2,-27.2167,-6970,-28907
1290,444431,-0.12207,0,0.0610352,161.746,86.001,78.3051,-9.78564,0.210547,-0.669922,-0.515106,-0.491577,-0.539764,0.448914,-30.9917,3.19167,-27.2333,-6970,-28907
1296,444437,-0.12207,-0.0610352,0,161.746,86.001,78.3051,-9.79043,0.200977,-0.665137,-0.515106,-0.491577,-0.539764,0.448914,-30.9667,3.18333,-27.2083,-6970,-28907
1302,444443,0.0610352,-0.0610352,-0.0610352,161.746,86.001,78.3051,-9.75693,0.215332,-0.631641,-0.515106,-0.491577,-0.539764,0.448914,-30.9333,3.175,-27.2083,-6970,-28907
1308,444449,-0.12207,-0.0610352,-0.0610352,161.746,86.001,78.3105,-9.79521,0.200977,-0.641211,-0.515106,-0.491577,-0.539764,0.448914,-30.9083,3.16667,-27.1667,-6970,-28907
1314,444455,0.0610352,0,-0.0610352,161.752,86.001,78.3105,-9.78086,0.229688,-0.660352,-0.515106,-0.491577,-0.539764,0.448914,-30.8833,3.15833,-27.0917,-6970,-28907
1320,444461,0,-0.0610352,0.12207,161.746,86.001,78.3051,-9.77129,0.191406,-0.631641,-0.515106,-0.491577,-0.539764,0.448914,-30.9,3.2,-26.9083,-6978,-28906
1326,444467,0,0.0610352,0.0610352,161.752,86.001,78.3105,-9.77607,0.220117,-0.665137,-0.515106,-0.491577,-0.539764,0.448914,-30.9083,3.23333,-26.85,-6978,-28906
1332,444473,0,0.0610352,0,161.746,86.001,78.3105,-9.80479,0.220117,-0.655566,-0.515106,-0.491577,-0.539764,0.448914,-30.9167,3.275,-26.775,-6978,-28906
1338,444479,0.12207,0.0610352,0.0610352,161.746,86.001,78.3105,-9.79521,0.210547,-0.660352,-0.515106,-0.491608,-0.539764,0.448914,-30.9167,3.28333,-26.7583,-6978,-28906
1344,444485,0.0610352,-0.0610352,0.0610352,161.746,86.001,78.3051,-9.77607,0.205762,-0.645996,-0.515106,-0.491608,-0.539764,0.448914,-30.9333,3.3,-26.7667,-6978,-28906
1350,444491,0,-0.0610352,0.0610352,161.735,86.001,78.2941,-9.78086,0.220117,-0.655566,-0.515106,-0.491608,-0.539764,0.448914,-30.9167,3.29167,-26.8417,-6978,-28906
1356,444497,0.0610352,0,0.0610352,161.735,86.001,78.2941,-9.78564,0.205762,-0.650781,-0.515106,-0.491608,-0.539764,0.448914,-30.9167,3.3,-26.875,-6978,-28906
1362,444503,0,-0.0610352,0,161.73,86.001,78.2941,-9.78086,0.215332,-0.655566,-0.515106,-0.491608,-0.539764,0.448914,-30.9167,3.3,-26.875,-6978,-28906
1368,444509,-0.183105,0,-0.183105,161.73,86.001,78.2886,-9.77129,0.191406,-0.62207,-0.515106,-0.491608,-0.539764,0.448914,-30.95,3.3,-26.8917,-6978,-28906
1374,444515,0,0.12207,0.0610352,161.741,86.001,78.3051,-9.80479,0.215332,-0.631641,-0.515106,-0.491608,-0.539764,0.448914,-30.95,3.29167,-26.9083,-6978,-28906
1380,444521,0,0.12207,0,161.746,86.001,78.3051,-9.78564,0.220117,-0.607715,-0.515106,-0.491608,-0.539764,0.448914,-30.9167,3.23333,-26.9,-6978,-28906
1386,444527,0.0610352,0,0.0610352,161.741,86.001,78.2996,-9.80957,0.220117,-0.650781,-0.515106,-0.491608,-0.539764,0.448914,-30.8833,3.2,-26.9333,-6978,-28906
1392,444533,0,-0.0610352,0.12207,161.735,86.001,78.2996,-9.80479,0.229688,-0.660352,-0.515106,-0.491608,-0.539764,0.448914,-30.8667,3.175,-26.95,-6978,-28906
1398,444539,-0.12207,-0.12207,-0.183105,161.724,86.001,78.2886,-9.78086,0.205762,-0.665137,-0.515106,-0.491608,-0.539764,0.448883,-30.8583,3.175,-27.0083,-6978,-28906
1404,444545,0,0.0610352,0,161.735,86.001,78.2996,-9.79521,0.186621,-0.655566,-0.515106,-0.491608,-0.539795,0.448914,-30.85,3.175,-27.0667,-6978,-28906
1410,444551,0,-0.0610352,0.0610352,161.73,86.001,78.2941,-9.77129,0.200977,-0.650781,-0.515106,-0.491608,-0.539764,0.448914,-30.8167,3.21667,-27.1083,-6978,-28906
1416,444557,0,0.183105,0,161.746,86.001,78.3051,-9.77607,0.200977,-0.636426,-0.515106,-0.491608,-0.539795,0.448914,-30.7917,3.225,-27.0917,-6978,-28906
1422,444563,-0.0610352,0.0610352,0,161.752,86.001,78.3105,-9.79043,0.220117,-0.645996,-0.515106,-0.491608,-0.539795,0.448914,-30.7667,3.225,-27.0917,-6978,-28906
1428,444569,0,-0.183105,0,161.752,86.001,78.3105,-9.77129,0.181836,-0.631641,-0.515106,-0.491608,-0.539795,0.448883,-30.7417,3.225,-27.1,-6978,-28906
1434,444575,-0.0610352,-0.0610352,-0.12207,161.746,86.001,78.3105,-9.79521,0.205762,-0.669922,-0.515106,-0.491608,-0.539795,0.448914,-30.725,3.225,-27.0917,-6978,-28906
1440,444581,0,-0.0610352,0.0610352,161.746,86.001,78.3105,-9.79043,0.210547,-0.655566,-0.515106,-0.491608,-0.539795,0.448914,-30.75,3.275,-27.0917,-6978,-28906
1446,444587,-0.0610352,0,0,161.757,86.001,78.316,-9.77129,0.191406,-0.655566,-0.515106,-0.491608,-0.539795,0.448914,-30.775,3.29167,-27.075,-6978,-28906
1452,444593,0,0,0.0610352,161.757,86.001,78.316,-9.78086,0.220117,-0.636426,-0.515106,-0.491608,-0.539795,0.448914,-30.7917,3.30833,-27.0583,-6978,-28906
1458,444599,0,0,0,161.752,86.001,78.3105,-9.79043,0.220117,-0.626855,-0.515106,-0.491608,-0.539764,0.448914,-30.7917,3.31667,-27.0333,-6978,-28906
1464,444605,0.0610352,-0.12207,0,161.752,86.001,78.3105,-9.77607,0.220117,-0.650781,-0.515106,-0.491608,-0.539764,0.448914,-30.7917,3.325,-27.0333,-6978,-28906
1470,444611,-0.0610352,0,0.12207,161.741,86.001,78.2996,-9.79521,0.220117,-0.626855,-0.515106,-0.491608,-0.539764,0.448914,-30.8083,3.33333,-27.05,-6978,-28906
1476,444617,-0.0610352,0.0610352,0.12207,161.73,86.001,78.2941,-9.78086,0.191406,-0.655566,-0.515106,-0.491608,-0.539764,0.448914,-30.8167,3.33333,-27.0333,-6978,-28906
1482,444623,0,0,-0.366211,161.724,86.001,78.2831,-9.77129,0.210547,-0.665137,-0.515106,-0.491608,-0.539764,0.448914,-30.8333,3.34167,-27.075,-6978,-28906
1488,444629,0,0,-0.0610352,161.752,86.001,78.3105,-9.7665,0.220117,-0.645996,-0.515106,-0.491608,-0.539764,0.448914,-30.8167,3.35,-27.1,-6978,-28906
1494,444635,-0.0610352,0,-0.244141,161.752,86.001,78.316,-9.81436,0.215332,-0.641211,-0.515106,-0.491608,-0.539764,0.448914,-30.825,3.35833,-27.125,-6978,-28906
1500,444641,0,-0.12207,0.0610352,161.763,86.001,78.3215,-9.7665,0.229688,-0.650781,-0.515106,-0.491577,-0.539764,0.448914,-30.8333,3.34167,-27.125,-6978,-28906
1506,444647,0.0610352,0.0610352,0,161.79,86.001,78.349,-9.79043,0.205762,-0.669922,-0.515076,-0.491577,-0.539795,0.448914,-30.8417,3.325,-27.1,-6978,-28906
1512,444653,0,-0.0610352,-0.0610352,161.79,86.001,78.3545,-9.79521,0.220117,-0.626855,-0.515076,-0.491577,-0.539795,0.448914,-30.8417,3.3,-27.075,-6978,-28906
1518,444659,-0.12207,-0.183105,0.0610352,161.796,86.001,78.3545,-9.77129,0.244043,-0.626855,-0.515076,-0.491577,-0.539795,0.448944,-30.85,3.275,-27.0667,-6978,-28906
1524,444665,0.0610352,0.0610352,0.0610352,161.785,86.001,78.349,-9.79521,0.210547,-0.641211,-0.515106,-0.491577,-0.539795,0.448914,-30.8417,3.25833,-27.1,-6978,-28906
1530,444671,0,0.0610352,0,161.785,86.001,78.3435,-9.78564,0.200977,-0.636426,-0.515106,-0.491577,-0.539795,0.448914,-30.85,3.24167,-27.1583,-6978,-28906
1536,444677,0,0,0.0610352,161.785,86.001,78.3435,-9.80479,0.200977,-0.645996,-0.515106,-0.491577,-0.539795,0.448914,-30.8583,3.225,-27.1333,-6978,-28906
1542,444683,-0.12207,0,-0.183105,161.779,86.001,78.3435,-9.77607,0.215332,-0.660352,-0.515106,-0.491577,-0.539795,0.448914,-30.8667,3.225,-27.125,-6978,-28906
1548,444689,0,0,0.12207,161.79,86.001,78.3545,-9.78564,0.224902,-0.626855,-0.515106,-0.491547,-0.539795,0.448914,-30.875,3.225,-27.0917,-6978,-28906
1554,444695,0,0,0.0610352,161.779,86.001,78.349,-9.79043,0.229688,-0.636426,-0.515106,-0.491547,-0.539795,0.448914,-30.8833,3.20833,-27.0583,-6978,-28906
1560,444701,-0.0610352,0,-0.0610352,161.779,86.001,78.3435,-9.78564,0.229688,-0.650781,-0.515137,-0.491547,-0.539825,0.448883,-30.875,3.2,-26.975,-6978,-28906
1566,444707,-0.0610352,-0.0610352,-0.244141,161.779,86.001,78.349,-9.79521,0.224902,-0.641211,-0.515137,-0.491547,-0.539825,0.448883,-30.8833,3.19167,-26.9333,-6978,-28906
1572,444713,0,0,0,161.796,86.001,78.3655,-9.78564,0.215332,-0.626855,-0.515137,-0.491547,-0.539825,0.448883,-30.875,3.19167,-26.9167,-6978,-28906
1578,444719,0.0610352,0,-0.12207,161.79,86.001,78.3655,-9.75215,0.205762,-0.655566,-0.515137,-0.491516,-0.539825,0.448883,-30.8917,3.2,-26.925,-6978,-28906
1584,444725,-0.0610352,0.12207,-0.12207,161.801,86.001,78.371,-9.7665,0.205762,-0.631641,-0.515137,-0.491516,-0.539825,0.448883,-30.9,3.18333,-26.9417,-6978,-28906
1590,444731,0,0.0610352,0.12207,161.801,86.001,78.3765,-9.77129,0.224902,-0.655566,-0.515137,-0.491516,-0.539856,0.448883,-30.9167,3.15,-26.9917,-6978,-28906
1596,444737,0,0,-0.183105,161.796,86.001,78.371,-9.77607,0.234473,-0.679492,-0.515137,-0.491516,-0.539856,0.448853,-30.9167,3.125,-26.9833,-6978,-28906
1602,444743,0,0.12207,0,161.807,86.001,78.382,-9.79043,0.215332,-0.650781,-0.515137,-0.491516,-0.539856,0.448853,-30.9083,3.11667,-26.9667,-6978,-28906
1608,444749,-0.12207,0,-0.0610352,161.807,86.001,78.3875,-9.79043,0.229688,-0.636426,-0.515137,-0.491516,-0.539856,0.448853,-30.9083,3.11667,-26.9417,-6978,-28906
1614,444755,-0.0610352,0,-0.244141,161.812,86.001,78.3875,-9.78086,0.215332,-0.660352,-0.515167,-0.491486,-0.539886,0.448853,-30.9417,3.11667,-26.9,-6978,-28906
1620,444761,-0.183105,-0.0610352,-0.12207,161.829,86.001,78.4149,-9.77607,0.215332,-0.636426,-0.515167,-0.491455,-0.539917,0.448822,-30.9667,3.13333,-26.7583,-6978,-28906
1626,444767,0,0,-0.12207,161.812,86.001,78.3984,-9.76172,0.205762,-0.679492,-0.515167,-0.491455,-0.539917,0.448822,-30.9833,3.13333,-26.7,-6978,-28906
1632,444773,0,-0.12207,0.366211,161.818,86.001,78.4039,-9.79521,0.200977,-0.617285,-0.515167,-0.491455,-0.539917,0.448822,-30.9667,3.13333,-26.6667,-6978,-28906
1638,444779,0,0.12207,-0.0610352,161.79,86.001,78.3765,-9.78086,0.215332,-0.641211,-0.515198,-0.491455,-0.539917,0.448792,-30.975,3.16667,-26.6917,-6978,-28906
1644,444785,0,-0.0610352,0.244141,161.796,86.001,78.382,-9.78086,0.196191,-0.650781,-0.515198,-0.491455,-0.539917,0.448792,-30.9833,3.19167,-26.7583,-6978,-28906
1650,444791,-0.12207,-0.0610352,-0.183105,161.785,86.001,78.3765,-9.8,0.215332,-0.62207,-0.515198,-0.491455,-0.539917,0.448792,-30.9833,3.29167,-26.825,-6978,-28906
1656,444797,0,-0.12207,0.0610352,161.779,86.001,78.3765,-9.77607,0.196191,-0.62207,-0.515228,-0.491425,-0.539917,0.448792,-30.9667,3.31667,-26.85,-6978,-28906
1662,444803,0.0610352,-0.183105,-0.183105,161.774,86.001,78.3655,-9.78564,0.220117,-0.645996,-0.515228,-0.491425,-0.539917,0.448792,-30.925,3.31667,-26.825,-6978,-28906
1668,444809,-0.12207,-0.12207,0.12207,161.779,86.0065,78.3765,-9.77607,0.205762,-0.645996,-0.515228,-0.491425,-0.539917,0.448792,-30.8833,3.3,-26.825,-6978,-28906
1674,444815,-0.183105,-0.12207,0,161.768,86.0065,78.3655,-9.77129,0.224902,-0.641211,-0.515228,-0.491425,-0.539917,0.448792,-30.85,3.3,-26.825,-6978,-28906
1680,444821,-0.0610352,-0.183105,-0.183105,161.774,86.0065,78.371,-9.77607,0.220117,-0.665137,-0.515259,-0.491394,-0.539948,0.448761,-30.825,3.28333,-26.7917,-6978,-28906
1686,444827,0,0,0.0610352,161.785,86.0065,78.382,-9.8,0.215332,-0.655566,-0.515259,-0.491364,-0.539948,0.448761,-30.8417,3.29167,-26.7833,-6978,-28906
1692,444833,-0.0610352,0,0.0610352,161.779,86.0065,78.3765,-9.77607,0.205762,-0.645996,-0.515259,-0.491364,-0.539948,0.448761,-30.8667,3.30833,-26.7917,-6978,-28906
1698,444839,0,0.305176,-0.244141,161.774,86.0065,78.3765,-9.79043,0.215332,-0.641211,-0.515289,-0.491364,-0.539948,0.448761,-30.9167,3.33333,-26.8417,-6978,-28906
1704,444845,0,0,0,161.79,86.0065,78.3984,-9.8,0.205762,-0.660352,-0.515259,-0.491364,-0.539978,0.448761,-30.9417,3.35833,-26.9167,-6978,-28906
1710,444851,0,0,0,161.79,86.0065,78.3984,-9.78086,0.224902,-0.650781,-0.515289,-0.491364,-0.539978,0.44873,-30.9917,3.375,-26.9583,-6978,-28906
1716,444857,0,0,0,161.79,86.0065,78.3984,-9.76172,0.215332,-0.650781,-0.515289,-0.491333,-0.539978,0.44873,-30.9917,3.375,-26.9583,-6978,-28906
1722,444863,0,0,0,161.79,86.0065,78.3984,-9.79043,0.205762,-0.669922,-0.515289,-0.491333,-0.539978,0.44873,-31.0083,3.375,-26.95,-6978,-28906
1728,444869,0,0,0,161.79,86.0065,78.3984,-9.80957,0.210547,-0.655566,-0.515289,-0.491333,-0.539978,0.44873,-31.0167,3.36667,-26.9583,-6978,-28906
1734,444875,0,0,0,161.785,86.0065,78.3984,-9.8,0.224902,-0.650781,-0.515289,-0.491333,-0.539978,0.44873,-31.025,3.35,-26.9667,-6978,-28906
1740,444881,0,0,0,161.785,86.0065,78.3984,-9.79521,0.220117,-0.645996,-0.515289,-0.491333,-0.540009,0.4487,-31.0417,3.30833,-26.9667,-6978,-28906
1746,444887,0,0,0,161.785,86.0065,78.3984,-9.77607,0.200977,-0.636426,-0.515289,-0.491333,-0.540009,0.4487,-31.0333,3.3,-26.975,-6978,-28906
1752,444893,0,0,0,161.785,86.0065,78.3984,-9.79043,0.196191,-0.636426,-0.515289,-0.491333,-0.540009,0.4487,-31.0167,3.30833,-26.9833,-6978,-28906
1758,444899,0,0,0,161.785,86.0065,78.3984,-9.79521,0.205762,-0.660352,-0.51532,-0.491333,-0.540009,0.4487,-31.0167,3.33333,-26.9667,-6978,-28906
1764,444905,0,0,0,161.785,86.0065,78.3984,-9.77129,0.205762,-0.650781,-0.51532,-0.491333,-0.540009,0.4487,-31.0167,3.36667,-26.9667,-6978,-28906
1770,444911,0,0,0,161.785,86.0065,78.3984,-9.77129,0.210547,-0.631641,-0.51532,-0.491333,-0.540009,0.4487,-31.05,3.39167,-26.9833,-6978,-28906
1776,444917,0,0,0,161.785,86.0065,78.3984,-9.78086,0.205762,-0.645996,-0.51532,-0.491333,-0.540009,0.4487,-31.05,3.4,-26.9917,-6978,-28906
1782,444923,0,0,0,161.785,86.0065,78.3984,-9.79043,0.210547,-0.660352,-0.51532,-0.491333,-0.540009,0.4487,-31.0667,3.4,-27.0167,-6978,-28906
1788,444929,0,0,0,161.785,86.0065,78.3984,-9.79521,0.200977,-0.645996,-0.51532,-0.491333,-0.540009,0.4487,-31.1,3.4,-27.0167,-6978,-28906
1794,444935,0,0,0,161.785,86.0065,78.3984,-9.77607,0.215332,-0.655566,-0.51532,-0.491333,-0.540009,0.4487,-31.1083,3.38333,-26.975,-6978,-28906
1800,444941,0,0,0,161.785,86.0065,78.3984,-9.8,0.200977,-0.6125,-0.51532,-0.491333,-0.540009,0.4487,-31.175,3.35833,-26.9333,-6978,-28906
1806,444947,0,0,0,161.785,86.0065,78.3984,-9.78086,0.196191,-0.655566,-0.51532,-0.491333,-0.540009,0.4487,-31.2,3.36667,-26.9167,-6978,-28906
1812,444953,0,0,0,161.785,86.0065,78.3984,-9.79043,0.191406,-0.660352,-0.51532,-0.491333,-0.540009,0.4487,-31.2,3.375,-26.925,-6978,-28906
1818,444959,0,0,0,161.785,86.0065,78.3984,-9.78086,0.196191,-0.660352,-0.51532,-0.491333,-0.540009,0.4487,-31.2167,3.39167,-26.95,-6978,-28906
1824,444965,0,0,0,161.785,86.0065,78.3984,-9.8,0.215332,-0.650781,-0.51532,-0.491333,-0.540009,0.4487,-31.225,3.40833,-26.9583,-6978,-28906
1830,444971,0,0,0,161.785,86.0065,78.3984,-9.78564,0.200977,-0.655566,-0.515289,-0.491333,-0.540009,0.4487,-31.275,3.45,-26.9917,-6978,-28906
1836,444977,0,0,0,161.785,86.0065,78.3984,-9.78086,0.229688,-0.641211,-0.515289,-0.491333,-0.540009,0.4487,-31.2833,3.45833,-26.9583,-6978,-28906
1842,444983,0,0,0,161.785,86.0065,78.3984,-9.78564,0.215332,-0.674707,-0.515289,-0.491333,-0.540009,0.4487,-31.2833,3.46667,-26.95,-6978,-28906
1848,444989,0,0,0,161.79,86.0065,78.3984,-9.77607,0.224902,-0.650781,-0.515289,-0.491333,-0.540009,0.4487,-31.2667,3.45833,-26.95,-6978,-28906
1854,444995,0,0,0,161.79,86.0065,78.3984,-9.79521,0.224902,-0.669922,-0.515289,-0.491333,-0.540009,0.4487,-31.1667,3.40833,-26.8667,-6978,-28906
1860,445001,0,0,0,161.79,86.0065,78.3984,-9.80957,0.205762,-0.650781,-0.515289,-0.491333,-0.540009,0.44873,-31.15,3.4,-26.8167,-6978,-28906
1866,445007,0,0,0,161.79,86.0065,78.3984,-9.79043,0.229688,-0.641211,-0.515289,-0.491333,-0.539978,0.44873,-31.15,3.38333,-26.75,-6978,-28906
1872,445013,0,0,0,161.79,86.0065,78.3984,-9.79043,0.215332,-0.636426,-0.515289,-0.491333,-0.539978,0.44873,-31.1667,3.35833,-26.6833,-6978,-28906
1878,445019,0,0,0,161.79,86.0065,78.3984,-9.77129,0.205762,-0.650781,-0.515289,-0.491333,-0.540009,0.44873,-31.1917,3.33333,-26.6417,-6978,-28906
1884,445025,0,0,0,161.79,86.0065,78.3984,-9.76172,0.220117,-0.631641,-0.515289,-0.491333,-0.540009,0.4487,-31.25,3.28333,-26.65,-6978,-28906
1890,445031,0,0,0,161.79,86.0065,78.3984,-9.79521,0.229688,-0.650781,-0.515289,-0.491333,-0.540009,0.4487,-31.2833,3.24167,-26.6583,-6978,-28906
1896,445037,0,0,0,161.785,86.0065,78.3984,-9.79043,0.210547,-0.650781,-0.515289,-0.491333,-0.540009,0.4487,-31.2917,3.23333,-26.6667,-6978,-28906
1902,445043,0,0,0,161.785,86.0065,78.3984,-9.79521,0.215332,-0.655566,-0.515289,-0.491333,-0.540009,0.4487,-31.2917,3.20833,-26.675,-6978,-28906
1908,445049,0,0,0,161.785,86.0065,78.3984,-9.8,0.210547,-0.655566,-0.515289,-0.491333,-0.540009,0.4487,-31.2667,3.2,-26.675,-6978,-28906
1914,445055,0,0,0,161.785,86.0065,78.3984,-9.78564,0.210547,-0.665137,-0.515289,-0.491333,-0.540009,0.4487,-31.2333,3.23333,-26.7333,-6978,-28906
1920,445061,0,0,0,161.785,86.001,78.3984,-9.78564,0.200977,-0.660352,-0.515289,-0.491333,-0.540009,0.4487,-31.2167,3.25833,-26.7667,-6978,-28906
1926,445067,0,0,0,161.785,86.0065,78.3984,-9.81436,0.200977,-0.641211,-0.515289,-0.491333,-0.540009,0.4487,-31.1917,3.26667,-26.8083,-6978,-28906
1932,445073,0,0,0,161.785,86.001,78.3984,-9.78564,0.191406,-0.674707,-0.515289,-0.491333,-0.540009,0.4487,-31.1583,3.26667,-26.8583,-6978,-28906
1938,445079,0,0,0,161.785,86.001,78.3984,-9.8,0.229688,-0.636426,-0.515289,-0.491333,-0.540009,0.4487,-31.1333,3.26667,-26.85,-6978,-28906
1944,445085,0,0,0,161.785,86.001,78.3984,-9.78564,0.220117,-0.6125,-0.515289,-0.491333,-0.540009,0.4487,-31.1083,3.29167,-26.8917,-6978,-28906
1950,445091,0,0,0,161.785,86.001,78.3984,-9.79043,0.200977,-0.617285,-0.515289,-0.491333,-0.540009,0.4487,-31.125,3.31667,-26.9167,-6978,-28906
1956,445097,0,0,0,161.785,86.001,78.3984,-9.78086,0.205762,-0.636426,-0.515289,-0.491333,-0.540009,0.4487,-31.125,3.33333,-26.95,-6978,-28906
1962,445103,0,0,0,161.785,86.001,78.3984,-9.77607,0.210547,-0.655566,-0.515289,-0.491333,-0.540009,0.4487,-31.1083,3.35833,-26.9667,-6978,-28906
1968,445109,0,0,0,161.785,86.001,78.3984,-9.79043,0.196191,-0.631641,-0.515289,-0.491333,-0.540009,0.4487,-31.1,3.35833,-26.9917,-6978,-28906
1974,445115,0,0,0,161.785,86.001,78.3984,-9.78086,0.196191,-0.645996,-0.515289,-0.491333,-0.540009,0.4487,-31.0583,3.36667,-27.0167,-6978,-28906
1980,445121,0,0,0,161.785,86.001,78.3984,-9.80479,0.191406,-0.62207,-0.515289,-0.491333,-0.540009,0.4487,-31.0333,3.35,-27.0833,-6978,-28906
1986,445127,0,0,0,161.785,86.001,78.3984,-9.77129,0.205762,-0.62207,-0.515289,-0.491333,-0.540009,0.4487,-31.0167,3.34167,-27.1333,-6978,-28906
1992,445133,0,0,0,161.79,86.001,78.3984,-9.7665,0.205762,-0.660352,-0.515289,-0.491333,-0.540009,0.4487,-31.0167,3.33333,-27.2167,-6978,-28906
1998,445139,0,0,0,161.79,86.001,78.3984,-9.79521,0.229688,-0.645996,-0.515289,-0.491333,-0.540009,0.4487,-31.025,3.33333,-27.275,-6978,-28906
2004,445145,0,0,0,161.79,86.0065,78.3984,-9.79043,0.210547,-0.636426,-0.515289,-0.491333,-0.539978,0.44873,-31.0583,3.325,-27.3667,-6978,-28906
2010,445151,0,0,0,161.79,86.0065,78.3984,-9.80479,0.191406,-0.660352,-0.515289,-0.491364,-0.539978,0.44873,-31.075,3.325,-27.375,-6978,-28906
2016,445157,0,0,0,161.79,86.0065,78.3984,-9.78086,0.215332,-0.631641,-0.515289,-0.491364,-0.539978,0.44873,-31.1083,3.325,-27.3667,-6978,-28906
2022,445163,0,0,0,161.79,86.0065,78.3984,-9.76172,0.210547,-0.660352,-0.515289,-0.491364,-0.539978,0.44873,-31.125,3.33333,-27.375,-6978,-28906
2028,445169,0,0,0,161.79,86.0065,78.3984,-9.78564,0.210547,-0.650781,-0.515259,-0.491364,-0.539978,0.44873,-31.125,3.33333,-27.3167,-6978,-28906
2034,445175,0,0,0,161.79,86.0065,78.3984,-9.77607,0.229688,-0.631641,-0.515259,-0.491364,-0.539978,0.44873,-31.125,3.3,-27.2417,-6978,-28906
2040,445181,0,0,0,161.796,86.0065,78.3984,-9.77607,0.220117,-0.645996,-0.515259,-0.491364,-0.539978,0.44873,-31.125,3.28333,-27.2,-6978,-28906
2046,445187,0,0,0,161.796,86.0065,78.3984,-9.78086,0.210547,-0.636426,-0.515259,-0.491364,-0.539978,0.44873,-31.1417,3.25,-27.1583,-6978,-28906
2052,445193,0,0,0,161.796,86.0065,78.3984,-9.77607,0.200977,-0.641211,-0.515259,-0.491364,-0.539978,0.44873,-31.1417,3.23333,-27.1417,-6978,-28906
2058,445199,0,0,0,161.796,86.0065,78.3984,-9.78086,0.205762,-0.645996,-0.515259,-0.491364,-0.539978,0.44873,-31.15,3.23333,-27.1167,-6978,-28906
2064,445205,0,0,0,161.796,86.0065,78.3984,-9.7665,0.205762,-0.650781,-0.515259,-0.491364,-0.539978,0.44873,-31.1417,3.29167,-27.1167,-6978,-28906
2070,445211,0,0,0,161.796,86.0065,78.3984,-9.8,0.210547,-0.660352,-0.515259,-0.491364,-0.539978,0.44873,-31.1333,3.30833,-27.1083,-6978,-28906
2076,445217,0,0,0,161.796,86.0065,78.3984,-9.79043,0.196191,-0.631641,-0.515259,-0.491364,-0.539978,0.448761,-31.1167,3.31667,-27.1,-6978,-28906
2082,445223,0,0,0,161.796,86.0065,78.3984,-9.78086,0.234473,-0.631641,-0.515259,-0.491394,-0.539978,0.448761,-31.1083,3.31667,-27.1,-6978,-28906
2088,445229,0,0,0,161.796,86.0065,78.3984,-9.78086,0.210547,-0.669922,-0.515259,-0.491394,-0.539948,0.448761,-31.0917,3.325,-27.15,-6978,-28906
2094,445235,0,0,0,161.796,86.0065,78.3984,-9.77607,0.210547,-0.655566,-0.515259,-0.491394,-0.539948,0.448761,-31.15,3.33333,-27.15,-6978,-28906
2100,445241,0,0,0,161.796,86.0065,78.3984,-9.8,0.224902,-0.626855,-0.515259,-0.491394,-0.539948,0.448761,-31.175,3.31667,-27.1417,-6978,-28906
2106,445247,0,0,0,161.796,86.0065,78.3984,-9.77607,0.234473,-0.62207,-0.515259,-0.491394,-0.539948,0.448761,-31.225,3.3,-27.0917,-6978,-28906
2112,445253,0,0,0,161.796,86.0065,78.3984,-9.77607,0.229688,-0.645996,-0.515259,-0.491394,-0.539948,0.448761,-31.2583,3.28333,-27.0667,-6978,-28906
2118,445259,0,0,0,161.796,86.0065,78.3984,-9.79043,0.234473,-0.650781,-0.515259,-0.491394,-0.539948,0.448761,-31.2833,3.275,-27.0833,-6978,-28906
2124,445265,0,0,0,161.796,86.0065,78.3984,-9.77129,0.200977,-0.674707,-0.515259,-0.491394,-0.539978,0.448761,-31.25,3.26667,-27.0667,-6978,-28906
2130,445271,0,0,0,161.796,86.0065,78.3984,-9.80957,0.220117,-0.669922,-0.515259,-0.491364,-0.539978,0.448761,-31.2333,3.25,-27.0583,-6978,-28906
2136,445277,0,0,0,161.796,86.0065,78.3984,-9.75693,0.210547,-0.650781,-0.515259,-0.491364,-0.539978,0.448761,-31.225,3.20833,-27.0333,-6978,-28906
2142,445283,0,0,0,161.796,86.0065,78.3984,-9.77607,0.196191,-0.62207,-0.515259,-0.491364,-0.539978,0.44873,-31.225,3.18333,-27,-6978,-28906
2148,445289,0,0,0,161.796,86.0065,78.3984,-9.78564,0.200977,-0.660352,-0.515259,-0.491364,-0.539978,0.44873,-31.2167,3.15833,-27.0083,-6978,-28906
2154,445295,0,0,0,161.796,86.001,78.3984,-9.78086,0.244043,-0.655566,-0.515259,-0.491364,-0.539978,0.44873,-31.2167,3.11667,-27.0667,-6970,-28907
2160,445301,0,0,0,161.796,86.0065,78.3984,-9.8,0.215332,-0.636426,-0.515259,-0.491364,-0.539978,0.44873,-31.2,3.1,-27.0917,-6970,-28907
2166,445307,0,0,0,161.796,86.001,78.3984,-9.79521,0.220117,-0.655566,-0.515259,-0.491364,-0.539978,0.44873,-31.2083,3.075,-27.0833,-6970,-28907
2172,445313,0,0,0,161.79,86.0065,78.3984,-9.8,0.196191,-0.641211,-0.515259,-0.491364,-0.539978,0.44873,-31.2,3.05833,-27.1,-6970,-28907
2178,445319,0,0,0,161.79,86.0065,78.3984,-9.79043,0.191406,-0.655566,-0.515259,-0.491364,-0.539978,0.44873,-31.2083,3.06667,-27.1083,-6970,-28907
2184,445325,0,0,0,161.79,86.001,78.3984,-9.78564,0.191406,-0.645996,-0.515259,-0.491364,-0.539978,0.44873,-31.2417,3.1,-27.2333,-6970,-28907
2190,445331,0,0,0,161.79,86.0065,78.3984,-9.79043,0.229688,-0.669922,-0.515259,-0.491364,-0.539978,0.44873,-31.2583,3.10833,-27.2583,-6970,-28907
2196,445337,0,0,0,161.79,86.0065,78.3984,-9.77607,0.220117,-0.650781,-0.515259,-0.491364,-0.539978,0.44873,-31.2833,3.125,-27.3,-6970,-28907
2202,445343,0,0,0,161.79,86.0065,78.3984,-9.8,0.220117,-0.645996,-0.515259,-0.491364,-0.539978,0.44873,-31.2833,3.11667,-27.2917,-6970,-28907
2208,445349,0,0,0,161.79,86.0065,78.3984,-9.78086,0.196191,-0.650781,-0.515259,-0.491364,-0.539978,0.44873,-31.2917,3.13333,-27.2667,-6970,-28907
2214,445355,0,0,0,161.796,86.0065,78.3984,-9.76172,0.196191,-0.655566,-0.515259,-0.491364,-0.539978,0.44873,-31.2417,3.13333,-27.2333,-6970,-28907
2220,445361,0,0,0,161.796,86.001,78.3984,-9.81436,0.215332,-0.655566,-0.515259,-0.491364,-0.539978,0.44873,-31.25,3.125,-27.2167,-6970,-28907
2226,445367,0,0,0,161.796,86.001,78.3984,-9.77129,0.220117,-0.645996,-0.515259,-0.491364,-0.539978,0.44873,-31.2667,3.11667,-27.1917,-6970,-28907
2232,445373,0,0,0,161.796,86.001,78.3984,-9.78564,0.215332,-0.660352,-0.515259,-0.491364,-0.539978,0.44873,-31.275,3.10833,-27.1667,-6970,-28907
2238,445379,0,0,0,161.796,86.001,78.3984,-9.78086,0.205762,-0.650781,-0.515259,-0.491364,-0.539978,0.44873,-31.2833,3.09167,-27.1583,-6970,-28907
2244,445385,0,0,0,161.796,86.001,78.3984,-9.8,0.210547,-0.645996,-0.515259,-0.491394,-0.539978,0.448761,-31.2667,3.10833,-27.1667,-6970,-28907
2250,445391,0,0,0,161.796,86.001,78.3984,-9.78564,0.200977,-0.655566,-0.515259,-0.491394,-0.539978,0.448761,-31.2583,3.13333,-27.1833,-6970,-28907
2256,445397,0,0,0,161.796,86.001,78.3984,-9.77129,0.220117,-0.684277,-0.515259,-0.491394,-0.539948,0.448761,-31.2583,3.15,-27.1667,-6970,-28907
2262,445403,0,0,0,161.796,86.001,78.3984,-9.79043,0.181836,-0.655566,-0.515259,-0.491394,-0.539948,0.448761,-31.2667,3.19167,-27.1667,-6970,-28907
2268,445409,0,0,0,161.801,86.001,78.3984,-9.7665,0.215332,-0.660352,-0.515228,-0.491394,-0.539948,0.448761,-31.2667,3.20833,-27.15,-6970,-28907
2274,445415,0,0,0,161.801,86.001,78.3984,-9.78564,0.205762,-0.660352,-0.515228,-0.491394,-0.539948,0.448761,-31.2167,3.225,-27.1417,-6978,-28906
2280,445421,0,0,0,161.801,86.001,78.3984,-9.77129,0.220117,-0.669922,-0.515228,-0.491394,-0.539948,0.448761,-31.2,3.24167,-27.1583,-6978,-28906
2286,445427,0,0,0,161.801,86.001,78.3984,-9.78086,0.224902,-0.636426,-0.515228,-0.491425,-0.539948,0.448792,-31.1917,3.25833,-27.1917,-6978,-28906
2292,445433,0,0,0,161.801,86.001,78.3984,-9.78564,0.215332,-0.660352,-0.515228,-0.491425,-0.539948,0.448792,-31.1917,3.28333,-27.225,-6978,-28906
2298,445439,0,0,0,161.807,86.001,78.3984,-9.79043,0.215332,-0.636426,-0.515228,-0.491425,-0.539948,0.448792,-31.225,3.30833,-27.2583,-6978,-28906
2304,445445,0,0,0,161.807,86.001,78.3984,-9.77129,0.210547,-0.626855,-0.515198,-0.491425,-0.539917,0.448792,-31.2917,3.34167,-27.3,-6978,-28906
2310,445451,0,0,0,161.807,86.001,78.3984,-9.78086,0.220117,-0.641211,-0.515198,-0.491425,-0.539917,0.448792,-31.3167,3.33333,-27.3,-6978,-28906
2316,445457,0,0,0,161.807,86.001,78.3984,-9.79043,0.196191,-0.631641,-0.515198,-0.491425,-0.539917,0.448792,-31.35,3.325,-27.3,-6978,-28906
2322,445463,0,0,0,161.807,86.001,78.3984,-9.8,0.215332,-0.650781,-0.515198,-0.491425,-0.539917,0.448792,-31.3667,3.31667,-27.2917,-6978,-28906
2328,445469,0,0,0,161.807,86.001,78.3984,-9.80957,0.229688,-0.674707,-0.515198,-0.491425,-0.539917,0.448792,-31.3833,3.31667,-27.2417,-6978,-28906
2334,445475,0,0,0,161.807,86.001,78.3984,-9.78564,0.210547,-0.669922,-0.515198,-0.491455,-0.539917,0.448792,-31.4167,3.33333,-27.15,-6978,-28906
2340,445481,0,0,0,161.807,86.001,78.3984,-9.76172,0.205762,-0.650781,-0.515198,-0.491455,-0.539917,0.448792,-31.4,3.325,-27.0833,-6978,-28906
2346,445487,0,0,0,161.812,86.001,78.3984,-9.77129,0.205762,-0.665137,-0.515198,-0.491455,-0.539917,0.448792,-31.3833,3.31667,-27.0333,-6978,-28906
2352,445493,0,0,0,161.812,86.001,78.3984,-9.7665,0.196191,-0.665137,-0.515198,-0.491455,-0.539917,0.448792,-31.3417,3.33333,-26.9833,-6978,-28906
