TimeSinceCollection,Timestamp,AccX,AccY,AccZ,AngleRoll,AnglePitch,AngleYaw,AngularVelX,AngularVelY,AngularVelZ,Q1,Q2,Q3,Q4,MagX,MagY,MagZ,Height,Airpressure
0,202666,-9.79521,0.119629,-0.248828,155.385,88.2642,99.8108,0,0,0,0.618927,0.338043,0.631989,-0.321106,-27,19.8,-29.4667,-7069,-28895
6,202672,-9.80957,0.129199,-0.272754,155.385,88.2642,99.8108,0,0,0,0.618927,0.338043,0.631989,-0.321106,-27.025,19.7667,-29.4917,-7069,-28895
12,202678,-9.79043,0.143555,-0.272754,155.38,88.2642,99.8108,0,0,0,0.618958,0.338043,0.631989,-0.321106,-27.0417,19.7667,-29.5,-7069,-28895
18,202684,-9.79043,0.129199,-0.282324,155.38,88.2642,99.8108,0,0,0,0.618958,0.338043,0.631989,-0.321106,-27.0583,19.7667,-29.5333,-7069,-28895
24,202690,-9.80957,0.129199,-0.272754,155.38,88.2642,99.8108,0,0,0,0.618958,0.338043,0.631989,-0.321075,-27.0667,19.7667,-29.5417,-7069,-28895
30,202696,-9.80957,0.119629,-0.258398,155.38,88.2642,99.8108,0,0,0,0.618958,0.338013,0.631989,-0.321075,-27.0583,19.7833,-29.5167,-7069,-28895
36,202702,-9.80957,0.133984,-0.277539,155.38,88.2642,99.8108,0,0,0,0.618958,0.338013,0.631989,-0.321075,-27.05,19.7667,-29.5167,-7069,-28895
42,202708,-9.79521,0.129199,-0.263184,155.38,88.2642,99.8108,0,0,0,0.618958,0.338013,0.632019,-0.321075,-27.0333,19.7583,-29.5167,-7069,-28895
48,202714,-9.78086,0.105273,-0.248828,155.38,88.2642,99.8108,0,0,0,0.618958,0.338013,0.632019,-0.321075,-27.025,19.7583,-29.5333,-7069,-28895
54,202720,-9.81436,0.114844,-0.287109,155.38,88.2642,99.8108,0,0,0,0.618958,0.338013,0.632019,-0.321075,-27.0417,19.75,-29.5667,-7069,-28895
60,202726,-9.79521,0.124414,-0.277539,155.38,88.2642,99.8108,0,0,0,0.618958,0.338013,0.632019,-0.321045,-27.025,19.7583,-29.575,-7069,-28895
66,202732,-9.81436,0.129199,-0.29668,155.38,88.2642,99.8108,0,0,0,0.618958,0.338013,0.632019,-0.321045,-27.0083,19.775,-29.6,-7069,-28895
72,202738,-9.80479,0.133984,-0.291895,155.38,88.2642,99.8108,0,0,0,0.618958,0.338013,0.632019,-0.321045,-26.975,19.8083,-29.6083,-7069,-28895
78,202744,-9.80957,0.133984,-0.29668,155.38,88.2642,99.8163,0,0,0,0.618958,0.338013,0.632019,-0.321045,-26.95,19.8333,-29.6417,-7069,-28895
84,202750,-9.80957,0.13877,-0.272754,155.38,88.2642,99.8163,0,0,0,0.618958,0.338013,0.632019,-0.321045,-26.9417,19.85,-29.6917,-7069,-28895
90,202756,-9.81914,0.133984,-0.287109,155.38,88.2642,99.8163,0,0,0,0.618958,0.337982,0.632019,-0.321045,-26.95,19.8333,-29.7167,-7069,-28895
96,202762,-9.80479,0.129199,-0.277539,155.374,88.2642,99.8163,0,0,0,0.618958,0.337982,0.632019,-0.321045,-26.9583,19.825,-29.725,-7069,-28895
102,202768,-9.79521,0.114844,-0.267969,155.374,88.2642,99.8163,0,0,0,0.618958,0.337982,0.632019,-0.321014,-26.9667,19.825,-29.6917,-7069,-28895
108,202774,-9.8,0.0861328,-0.258398,155.374,88.2642,99.8163,0,0,0,0.618958,0.337982,0.632019,-0.321014,-26.9667,19.8333,-29.675,-7069,-28895
114,202780,-9.80479,0.124414,-0.253613,155.38,88.2642,99.8163,0,0,0,0.618958,0.337982,0.632019,-0.321014,-26.95,19.8667,-29.7,-7069,-28895
120,202786,-9.81436,0.114844,-0.272754,155.38,88.2642,99.8163,0,0,0,0.618958,0.337982,0.632019,-0.321014,-26.95,19.9167,-29.775,-7069,-28895
126,202792,-9.80957,0.129199,-0.272754,155.38,88.2642,99.8163,0,0,0,0.618958,0.337982,0.632019,-0.321014,-26.95,19.9083,-29.7917,-7069,-28895
132,202798,-9.81914,0.114844,-0.287109,155.38,88.2642,99.8163,0,0,0,0.618958,0.337982,0.632019,-0.321014,-26.9583,19.8917,-29.7667,-7069,-28895
138,202804,-9.79043,0.13877,-0.263184,155.38,88.2642,99.8163,0,0,0,0.618958,0.337982,0.632019,-0.321014,-26.9583,19.875,-29.7333,-7069,-28895
144,202810,-9.8,0.129199,-0.244043,155.38,88.2642,99.8163,0,0,0,0.618958,0.337982,0.632019,-0.321014,-26.95,19.8583,-29.6917,-7069,-28895
150,202816,-9.80479,0.105273,-0.267969,155.38,88.2642,99.8163,0,0,0,0.618958,0.338013,0.632019,-0.321014,-26.925,19.825,-29.525,-7069,-28895
156,202822,-9.79521,0.100488,-0.272754,155.38,88.2642,99.8163,0,0,0,0.618958,0.338013,0.632019,-0.321045,-26.95,19.8417,-29.5167,-7069,-28895
162,202828,-9.8,0.114844,-0.277539,155.385,88.2642,99.8218,0,0,0,0.618958,0.338013,0.632019,-0.321045,-26.975,19.875,-29.5083,-7069,-28895
168,202834,-9.80957,0.110059,-0.253613,155.385,88.2642,99.8218,0,0,0,0.618958,0.338013,0.632019,-0.321045,-27.0083,19.9167,-29.55,-7069,-28895
174,202840,-9.80957,0.114844,-0.263184,155.385,88.2587,99.8218,0,0,0,0.618958,0.338013,0.632019,-0.321045,-27.0417,19.9583,-29.6167,-7069,-28895
180,202846,-9.8,0.114844,-0.253613,155.385,88.2642,99.8218,0,0,0,0.618958,0.338043,0.632019,-0.321045,-27.0417,19.975,-29.6167,-7069,-28895
186,202852,-9.81914,0.119629,-0.248828,155.391,88.2587,99.8218,0,0,0,0.618958,0.338043,0.632019,-0.321075,-27.025,19.975,-29.625,-7069,-28895
192,202858,-9.80957,0.110059,-0.277539,155.391,88.2587,99.8218,0,0,0,0.618927,0.338043,0.632019,-0.321075,-27.0083,19.9667,-29.625,-7069,-28895
198,202864,-9.80957,0.114844,-0.277539,155.391,88.2587,99.8218,0,0,0,0.618927,0.338043,0.632019,-0.321075,-26.9833,19.95,-29.625,-7069,-28895
204,202870,-9.77607,0.100488,-0.258398,155.396,88.2587,99.8218,0,0,0,0.618927,0.338043,0.632019,-0.321075,-26.9333,19.9083,-29.575,-7069,-28895
210,202876,-9.79043,0.105273,-0.291895,155.402,88.2587,99.8218,0,0,0,0.618927,0.338074,0.631989,-0.321106,-26.925,19.9167,-29.5667,-7069,-28895
216,202882,-9.80957,0.114844,-0.244043,155.402,88.2587,99.8218,0,0,0,0.618896,0.338104,0.631989,-0.321136,-26.9167,19.9333,-29.575,-7069,-28895
222,202888,-9.80957,0.114844,-0.258398,155.407,88.2587,99.8218,0,0,0,0.618896,0.338104,0.631989,-0.321136,-26.9333,19.95,-29.5417,-7069,-28895
228,202894,-9.80479,0.124414,-0.248828,155.407,88.2587,99.8218,0,0,0,0.618896,0.338135,0.631958,-0.321167,-26.9333,19.9583,-29.5083,-7069,-28895
234,202900,-9.80957,0.105273,-0.267969,155.413,88.2642,99.8218,0,0,0,0.618896,0.338135,0.631958,-0.321167,-26.9333,19.9083,-29.3917,-7069,-28895
240,202906,-9.80957,0.119629,-0.258398,155.413,88.2587,99.8218,0,0,0,0.618866,0.338165,0.631958,-0.321198,-26.9333,19.8833,-29.3583,-7069,-28895
246,202912,-9.8,0.124414,-0.244043,155.418,88.2587,99.8218,0,0,0,0.618866,0.338165,0.631958,-0.321198,-26.9167,19.85,-29.35,-7069,-28895
252,202918,-9.80957,0.124414,-0.277539,155.418,88.2642,99.8273,0,0,0,0.618866,0.338165,0.631958,-0.321198,-26.9083,19.825,-29.3667,-7069,-28895
258,202924,-9.80957,0.124414,-0.29668,155.418,88.2587,99.8273,0,0,0,0.618866,0.338165,0.631927,-0.321198,-26.8917,19.8,-29.3917,-7069,-28895
264,202930,-9.80479,0.129199,-0.239258,155.424,88.2587,99.8273,0,0,0,0.618866,0.338196,0.631927,-0.321228,-26.875,19.775,-29.45,-7069,-28895
270,202936,-9.81914,0.114844,-0.244043,155.424,88.2642,99.8273,0,0,0,0.618866,0.338196,0.631927,-0.321228,-26.8667,19.7667,-29.475,-7069,-28895
276,202942,-9.80957,0.114844,-0.267969,155.424,88.2642,99.8273,0,0,0,0.618835,0.338196,0.631927,-0.321228,-26.8583,19.7583,-29.4917,-7069,-28895
282,202948,-9.8,0.119629,-0.267969,155.429,88.2587,99.8273,0,0,0,0.618835,0.338196,0.631927,-0.321228,-26.8583,19.7583,-29.4583,-7069,-28895
288,202954,-9.8,0.110059,-0.263184,155.429,88.2642,99.8273,0,0,0,0.618835,0.338226,0.631927,-0.321259,-26.8583,19.7583,-29.4333,-7069,-28895
294,202960,-9.78086,0.114844,-0.277539,155.429,88.2642,99.8273,0,0,0,0.618835,0.338226,0.631927,-0.321259,-26.9,19.7667,-29.3833,-7069,-28895
300,202966,-9.8,0.133984,-0.267969,155.435,88.2642,99.8273,0,0,0,0.618835,0.338226,0.631897,-0.321259,-26.9083,19.7583,-29.3583,-7069,-28895
306,202972,-9.80479,0.124414,-0.263184,155.435,88.2642,99.8273,0,0,0,0.618835,0.338226,0.631897,-0.321289,-26.925,19.7583,-29.3583,-7069,-28895
312,202978,-9.8335,0.100488,-0.29668,155.435,88.2642,99.8273,0,0,0,0.618835,0.338257,0.631897,-0.321289,-26.9417,19.7583,-29.35,-7069,-28895
318,202984,-9.79043,0.114844,-0.272754,155.44,88.2642,99.8273,0,0,0,0.618805,0.338257,0.631897,-0.321289,-26.95,19.75,-29.3333,-7069,-28895
324,202990,-9.82871,0.105273,-0.267969,155.446,88.2642,99.8273,0,0,0,0.618805,0.338257,0.631897,-0.32132,-26.9417,19.7667,-29.3,-7069,-28895
330,202996,-9.79521,0.14834,-0.244043,155.446,88.2642,99.8273,0,0,0,0.618805,0.338287,0.631897,-0.32132,-26.9333,19.7583,-29.2667,-7069,-28895
336,203002,-9.82393,0.14834,-0.248828,155.446,88.2642,99.8273,0,0,0,0.618805,0.338287,0.631897,-0.32132,-26.925,19.7417,-29.2667,-7069,-28895
342,203008,-9.79043,0.100488,-0.277539,155.446,88.2642,99.8273,0,0,0,0.618805,0.338287,0.631897,-0.32132,-26.95,19.725,-29.2583,-7069,-28895
348,203014,-9.81436,0.124414,-0.263184,155.446,88.2642,99.8328,0,0,0,0.618805,0.338287,0.631897,-0.32132,-26.9583,19.7333,-29.25,-7069,-28895
354,203020,-9.79043,0.114844,-0.263184,155.446,88.2642,99.8328,0,0,0,0.618805,0.338287,0.631866,-0.32132,-26.9833,19.7917,-29.2167,-7069,-28895
360,203026,-9.80479,0.114844,-0.253613,155.451,88.2642,99.8328,0,0,0,0.618805,0.338318,0.631866,-0.32135,-26.9917,19.825,-29.175,-7069,-28895
366,203032,-9.8,0.119629,-0.272754,155.451,88.2642,99.8328,0,0,0,0.618805,0.338318,0.631866,-0.32135,-27.0083,19.8333,-29.1417,-7069,-28895
372,203038,-9.82393,0.133984,-0.258398,155.451,88.2642,99.8328,0,0,0,0.618805,0.338318,0.631866,-0.32135,-27.025,19.825,-29.125,-7069,-28895
378,203044,-9.78086,0.124414,-0.244043,155.451,88.2642,99.8328,0,0,0,0.618805,0.338318,0.631866,-0.32135,-27.0417,19.8083,-29.1,-7069,-28895
384,203050,-9.79043,0.124414,-0.277539,155.451,88.2642,99.8328,0,0,0,0.618805,0.338318,0.631866,-0.32135,-27.0167,19.7667,-29.1917,-7069,-28895
390,203056,-9.79521,0.090918,-0.272754,155.451,88.2642,99.8328,0,0,0,0.618774,0.338318,0.631866,-0.32135,-27.0167,19.7417,-29.25,-7069,-28895
396,203062,-9.80957,0.110059,-0.253613,155.457,88.2642,99.8328,0,0,0,0.618774,0.338318,0.631866,-0.321381,-26.9917,19.7333,-29.3417,-7069,-28895
402,203068,-9.81914,0.129199,-0.244043,155.457,88.2642,99.8328,0,0,0,0.618774,0.338318,0.631866,-0.321381,-26.975,19.7333,-29.3833,-7069,-28895
408,203074,-9.8,0.114844,-0.258398,155.457,88.2642,99.8328,0,0,0,0.618774,0.338318,0.631866,-0.321381,-26.9583,19.7417,-29.4083,-7069,-28895
414,203080,-9.80957,0.129199,-0.29668,155.457,88.2642,99.8328,0,0,0,0.618774,0.338318,0.631866,-0.321381,-26.9417,19.7833,-29.425,-7069,-28895
420,203086,-9.79521,0.133984,-0.263184,155.457,88.2642,99.8328,0,0,0,0.618774,0.338318,0.631866,-0.321381,-26.9417,19.7917,-29.4,-7069,-28895
426,203092,-9.79043,0.105273,-0.272754,155.457,88.2642,99.8328,0,0,0,0.618774,0.338318,0.631866,-0.321381,-26.9417,19.7917,-29.4,-7069,-28895
432,203098,-9.80957,0.100488,-0.263184,155.462,88.2642,99.8328,0,0,0,0.618774,0.338348,0.631836,-0.321381,-26.9333,19.8,-29.4167,-7069,-28895
438,203104,-9.8,0.0957031,-0.258398,155.462,88.2642,99.8328,0,0,0,0.618774,0.338348,0.631836,-0.321411,-26.9417,19.8083,-29.4167,-7069,-28895
444,203110,-9.80957,0.0957031,-0.277539,155.462,88.2642,99.8328,0,0,0,0.618774,0.338348,0.631836,-0.321411,-26.9417,19.85,-29.4583,-7069,-28895
450,203116,-9.81436,0.110059,-0.263184,155.468,88.2642,99.8328,0,0,0,0.618774,0.338348,0.631836,-0.321411,-26.95,19.875,-29.4667,-7069,-28895
456,203122,-9.82393,0.105273,-0.282324,155.468,88.2642,99.8383,0,0,0,0.618744,0.338379,0.631836,-0.321442,-26.95,19.8833,-29.475,-7069,-28895
462,203128,-9.79521,0.114844,-0.287109,155.473,88.2642,99.8383,0,0,0,0.618744,0.338379,0.631836,-0.321442,-26.95,19.9,-29.4667,-7069,-28895
468,203134,-9.79043,0.129199,-0.29668,155.473,88.2642,99.8383,0,0,0,0.618744,0.338409,0.631805,-0.321442,-26.95,19.8833,-29.4583,-7069,-28895
474,203140,-9.77607,0.0957031,-0.263184,155.479,88.2642,99.8383,0,0,0,0.618744,0.338409,0.631805,-0.321472,-26.9667,19.8417,-29.4417,-7069,-28895
480,203146,-9.83828,0.114844,-0.267969,155.479,88.2642,99.8383,0,0,0,0.618713,0.33844,0.631805,-0.321503,-26.9833,19.825,-29.4167,-7069,-28895
486,203152,-9.81914,0.143555,-0.272754,155.484,88.2642,99.8383,0,0,0,0.618713,0.33844,0.631805,-0.321503,-27.0167,19.8167,-29.4083,-7069,-28895
492,203158,-9.80957,0.143555,-0.272754,155.484,88.2642,99.8383,0,0,0,0.618713,0.33844,0.631775,-0.321503,-27.025,19.8167,-29.3917,-7069,-28895
498,203164,-9.8,0.119629,-0.258398,155.484,88.2642,99.8383,0,0,0,0.618713,0.33847,0.631775,-0.321503,-27.025,19.825,-29.3833,-7069,-28895
504,203170,-9.80479,0.0957031,-0.267969,155.49,88.2642,99.8383,0,0,0,0.618713,0.33847,0.631775,-0.321503,-27.0167,19.8083,-29.3083,-7069,-28895
510,203176,-9.82871,0.14834,-0.272754,155.49,88.2642,99.8383,0,0,0,0.618713,0.33847,0.631775,-0.321533,-27.0083,19.8083,-29.2667,-7069,-28895
516,203182,-9.84307,0.0957031,-0.239258,155.49,88.2642,99.8383,0,0,0,0.618713,0.33847,0.631775,-0.321533,-27.025,19.8083,-29.275,-7069,-28895
522,203188,-9.83828,0.129199,-0.229688,155.49,88.2642,99.8383,0,0,0,0.618713,0.33847,0.631775,-0.321533,-27.0333,19.8,-29.2667,-7069,-28895
528,203194,-9.77607,0.124414,-0.272754,155.49,88.2642,99.8383,0,0,0,0.618713,0.33847,0.631775,-0.321533,-27.0417,19.775,-29.2583,-7069,-28895
534,203200,-9.78086,0.143555,-0.258398,155.49,88.2642,99.8383,0,0,0,0.618713,0.33847,0.631775,-0.321533,-27.0083,19.7083,-29.2667,-7069,-28895
540,203206,-9.8,0.0717773,-0.239258,155.49,88.2642,99.8383,0,0,0,0.618713,0.33847,0.631775,-0.321533,-27,19.6917,-29.275,-7069,-28895
546,203212,-9.81914,0.114844,-0.277539,155.49,88.2642,99.8383,0,0,0,0.618713,0.33847,0.631775,-0.321533,-27,19.6833,-29.2833,-7069,-28895
552,203218,-9.81914,0.119629,-0.258398,155.49,88.2642,99.8383,0,0,0,0.618713,0.33847,0.631775,-0.321533,-26.9917,19.675,-29.3,-7069,-28895
558,203224,-9.80479,0.129199,-0.258398,155.49,88.2642,99.8383,0,0,0,0.618713,0.33847,0.631775,-0.321533,-27,19.6667,-29.35,-7069,-28895
564,203230,-9.81914,0.129199,-0.267969,155.49,88.2642,99.8383,0,0,0,0.618713,0.33847,0.631775,-0.321533,-27.0083,19.6417,-29.4167,-7069,-28895
570,203236,-9.80479,0.110059,-0.267969,155.49,88.2642,99.8383,0,0,0,0.618713,0.33847,0.631775,-0.321533,-27.0167,19.6167,-29.4333,-7069,-28895
576,203242,-9.83828,0.114844,-0.272754,155.49,88.2642,99.8438,0,0,0,0.618713,0.33847,0.631775,-0.321533,-27.025,19.6083,-29.4333,-7069,-28895
582,203248,-9.82393,0.124414,-0.258398,155.49,88.2642,99.8438,0,0,0,0.618713,0.33847,0.631775,-0.321533,-27.0333,19.6167,-29.4333,-7069,-28895
588,203254,-9.81914,0.13877,-0.258398,155.49,88.2642,99.8438,0,0,0,0.618713,0.33844,0.631775,-0.321533,-27.05,19.65,-29.475,-7069,-28895
594,203260,-9.79043,0.124414,-0.258398,155.49,88.2642,99.8438,0,0,0,0.618713,0.33844,0.631775,-0.321503,-27.0333,19.7167,-29.55,-7069,-28895
600,203266,-9.79043,0.13877,-0.263184,155.49,88.2642,99.8438,0,0,0,0.618713,0.33844,0.631805,-0.321503,-27.0167,19.7333,-29.55,-7069,-28895
606,203272,-9.80479,0.114844,-0.263184,155.484,88.2642,99.8438,0,0,0,0.618744,0.338409,0.631805,-0.321503,-27,19.7333,-29.4917,-7069,-28895
612,203278,-9.81436,0.129199,-0.277539,155.484,88.2642,99.8438,0,0,0,0.618744,0.338409,0.631805,-0.321472,-26.9833,19.725,-29.4083,-7069,-28895
618,203284,-9.8,0.105273,-0.277539,155.484,88.2642,99.8438,0,0,0,0.618744,0.338409,0.631805,-0.321472,-26.9583,19.7167,-29.325,-7069,-28895
624,203290,-9.78086,0.119629,-0.244043,155.479,88.2642,99.8438,0,0,0,0.618744,0.338379,0.631805,-0.321472,-26.9333,19.7417,-29.2583,-7069,-28895
630,203296,-9.79043,0.133984,-0.277539,155.479,88.2642,99.8438,0,0,0,0.618744,0.338379,0.631805,-0.321472,-26.9333,19.7667,-29.2583,-7069,-28895
636,203302,-9.8,0.133984,-0.277539,155.479,88.2642,99.8438,0,0,0,0.618744,0.338379,0.631805,-0.321442,-26.95,19.7917,-29.2667,-7069,-28895
642,203308,-9.81914,0.119629,-0.258398,155.479,88.2642,99.8438,0,0,0,0.618774,0.338379,0.631836,-0.321442,-26.9583,19.8083,-29.2667,-7069,-28895
648,203314,-9.79521,0.114844,-0.267969,155.479,88.2642,99.8438,0,0,0,0.618774,0.338348,0.631836,-0.321442,-26.95,19.8167,-29.2667,-7069,-28895
654,203320,-9.81436,0.110059,-0.267969,155.473,88.2642,99.8438,0,0,0,0.618774,0.338348,0.631836,-0.321442,-26.925,19.8333,-29.275,-7069,-28895
660,203326,-9.80479,0.143555,-0.239258,155.473,88.2642,99.8438,0,0,0,0.618774,0.338348,0.631836,-0.321411,-26.9,19.85,-29.2917,-7069,-28895
666,203332,-9.82393,0.114844,-0.277539,155.473,88.2642,99.8438,0,0,0,0.618774,0.338348,0.631836,-0.321411,-26.8917,19.875,-29.325,-7069,-28895
672,203338,-9.8,0.124414,-0.272754,155.473,88.2642,99.8438,0,0,0,0.618774,0.338318,0.631836,-0.321411,-26.8917,19.8917,-29.3417,-7069,-28895
678,203344,-9.82393,0.114844,-0.282324,155.473,88.2642,99.8438,0,0,0,0.618774,0.338318,0.631836,-0.321411,-26.9167,19.9167,-29.3917,-7069,-28895
684,203350,-9.79521,0.114844,-0.220117,155.473,88.2642,99.8438,0,0,0,0.618774,0.338318,0.631836,-0.321411,-26.9333,19.925,-29.425,-7069,-28895
690,203356,-9.77607,0.105273,-0.272754,155.468,88.2642,99.8438,0,0,0,0.618774,0.338318,0.631836,-0.321381,-26.9167,19.925,-29.4417,-7069,-28895
696,203362,-9.78086,0.114844,-0.267969,155.468,88.2642,99.8438,0,0,0,0.618805,0.338318,0.631836,-0.321381,-26.875,19.9,-29.4333,-7069,-28895
702,203368,-9.78564,0.143555,-0.253613,155.468,88.2642,99.8492,0,0,0,0.618805,0.338318,0.631836,-0.321381,-26.85,19.8833,-29.3917,-7069,-28895
708,203374,-9.81436,0.119629,-0.287109,155.468,88.2642,99.8492,0,0,0,0.618805,0.338287,0.631866,-0.321381,-26.8333,19.8833,-29.3917,-7069,-28895
714,203380,-9.81436,0.114844,-0.267969,155.468,88.2642,99.8492,0,0,0,0.618805,0.338287,0.631866,-0.321381,-26.825,19.8917,-29.3583,-7069,-28895
720,203386,-9.80479,0.114844,-0.267969,155.468,88.2642,99.8492,0,0,0,0.618805,0.338287,0.631866,-0.32135,-26.8667,19.9,-29.3667,-7069,-28895
726,203392,-9.81914,0.14834,-0.287109,155.462,88.2642,99.8492,0,0,0,0.618805,0.338287,0.631866,-0.32135,-26.875,19.9083,-29.4,-7069,-28895
732,203398,-9.82393,0.119629,-0.267969,155.462,88.2642,99.8492,0,0,0,0.618805,0.338257,0.631866,-0.32135,-26.9,19.9167,-29.4417,-7069,-28895
738,203404,-9.8,0.119629,-0.263184,155.462,88.2642,99.8492,0,0,0,0.618805,0.338257,0.631866,-0.32135,-26.9167,19.925,-29.4917,-7069,-28895
744,203410,-9.80479,0.114844,-0.287109,155.462,88.2642,99.8492,0,0,0,0.618835,0.338257,0.631866,-0.32132,-26.925,19.9417,-29.5667,-7069,-28895
750,203416,-9.82393,0.110059,-0.253613,155.462,88.2642,99.8492,0,0,0,0.618835,0.338257,0.631866,-0.32132,-26.9333,19.9333,-29.6,-7069,-28895
756,203422,-9.80479,0.110059,-0.272754,155.462,88.2642,99.8492,0,0,0,0.618835,0.338257,0.631866,-0.32132,-26.9583,19.9083,-29.6167,-7069,-28895
762,203428,-9.81436,0.110059,-0.277539,155.462,88.2642,99.8492,0,0,0,0.618835,0.338257,0.631866,-0.32132,-26.975,19.9,-29.6333,-7069,-28895
768,203434,-9.80957,0.14834,-0.253613,155.462,88.2642,99.8492,0,0,0,0.618835,0.338257,0.631866,-0.32132,-26.9833,19.9,-29.6,-7069,-28895
774,203440,-9.80479,0.114844,-0.287109,155.462,88.2642,99.8492,0,0,0,0.618835,0.338257,0.631866,-0.32135,-26.9667,19.9167,-29.5083,-7069,-28895
780,203446,-9.80957,0.110059,-0.277539,155.462,88.2642,99.8492,0,0,0,0.618835,0.338257,0.631866,-0.32135,-26.95,19.925,-29.475,-7069,-28895
786,203452,-9.82393,0.124414,-0.272754,155.462,88.2642,99.8492,0,0,0,0.618805,0.338257,0.631866,-0.32135,-26.9417,19.925,-29.45,-7069,-28895
792,203458,-9.79521,0.129199,-0.253613,155.468,88.2642,99.8492,0,0,0,0.618805,0.338257,0.631866,-0.32135,-26.9417,19.9333,-29.4333,-7069,-28895
798,203464,-9.81914,0.110059,-0.272754,155.468,88.2642,99.8492,0,0,0,0.618805,0.338257,0.631866,-0.32135,-26.95,19.9333,-29.45,-7069,-28895
804,203470,-9.79043,0.110059,-0.301465,155.468,88.2642,99.8492,0,0,0,0.618805,0.338257,0.631866,-0.32135,-26.9583,19.9333,-29.475,-7069,-28895
810,203476,-9.81914,0.124414,-0.277539,155.468,88.2642,99.8492,0,0,0,0.618805,0.338257,0.631866,-0.32135,-26.975,19.9417,-29.45,-7069,-28895
816,203482,-9.82393,0.0957031,-0.267969,155.468,88.2642,99.8492,0,0,0,0.618805,0.338287,0.631866,-0.32135,-26.9833,19.95,-29.4167,-7069,-28895
822,203488,-9.78086,0.133984,-0.277539,155.468,88.2642,99.8492,0,0,0,0.618805,0.338287,0.631866,-0.32135,-27.0083,19.9583,-29.3833,-7069,-28895
828,203494,-9.79521,0.105273,-0.277539,155.473,88.2642,99.8492,0,0,0,0.618805,0.338287,0.631866,-0.321381,-27.025,19.975,-29.3417,-7069,-28895
834,203500,-9.80479,0.14834,-0.258398,155.473,88.2642,99.8547,0,0,0,0.618805,0.338287,0.631866,-0.321381,-27.0417,19.975,-29.275,-7069,-28895
840,203506,-9.81436,0.119629,-0.253613,155.473,88.2642,99.8547,0,0,0,0.618805,0.338287,0.631866,-0.321381,-27.0417,19.9667,-29.2417,-7069,-28895
846,203512,-9.82871,0.129199,-0.277539,155.473,88.2642,99.8547,0,0,0,0.618805,0.338287,0.631866,-0.321381,-27.025,19.9417,-29.2417,-7069,-28895
852,203518,-9.80957,0.129199,-0.287109,155.473,88.2642,99.8547,0,0,0,0.618805,0.338287,0.631866,-0.321381,-27,19.9167,-29.25,-7069,-28895
858,203524,-9.8,0.124414,-0.248828,155.473,88.2642,99.8547,0,0,0,0.618805,0.338287,0.631866,-0.321381,-26.9833,19.9,-29.2833,-7069,-28895
864,203530,-9.82393,0.133984,-0.272754,155.473,88.2642,99.8547,0,0,0,0.618805,0.338287,0.631866,-0.321381,-26.9667,19.8833,-29.3333,-7069,-28895
870,203536,-9.80479,0.105273,-0.272754,155.473,88.2642,99.8547,0,0,0,0.618805,0.338287,0.631866,-0.321381,-26.9917,19.8833,-29.35,-7069,-28895
876,203542,-9.81914,0.124414,-0.282324,155.473,88.2642,99.8547,0,0,0,0.618805,0.338287,0.631866,-0.321381,-27,19.8917,-29.3667,-7069,-28895
882,203548,-9.79521,0.114844,-0.272754,155.473,88.2642,99.8547,0,0,0,0.618805,0.338287,0.631866,-0.321381,-27.0083,19.8917,-29.375,-7069,-28895
888,203554,-9.8,0.110059,-0.291895,155.473,88.2642,99.8547,0,0,0,0.618805,0.338287,0.631866,-0.321381,-27.0167,19.8833,-29.375,-7069,-28895
894,203560,-9.8,0.110059,-0.272754,155.479,88.2642,99.8547,0,0,0,0.618805,0.338287,0.631866,-0.321381,-26.9833,19.9,-29.4167,-7069,-28895
900,203566,-9.79521,0.114844,-0.282324,155.479,88.2642,99.8547,0,0,0,0.618805,0.338318,0.631866,-0.321381,-26.9583,19.9167,-29.45,-7069,-28895
906,203572,-9.79521,0.114844,-0.253613,155.479,88.2642,99.8547,0,0,0,0.618774,0.338318,0.631836,-0.321381,-26.95,19.925,-29.4583,-7069,-28895
912,203578,-9.79521,0.114844,-0.272754,155.479,88.2642,99.8547,0,0,0,0.618774,0.338318,0.631836,-0.321411,-26.9417,19.9167,-29.4833,-7069,-28895
918,203584,-9.8,0.133984,-0.282324,155.484,88.2642,99.8547,0,0,0,0.618774,0.338318,0.631836,-0.321411,-26.9667,19.9083,-29.4917,-7069,-28895
924,203590,-9.8,0.129199,-0.263184,155.484,88.2642,99.8547,0,0,0,0.618774,0.338318,0.631836,-0.321411,-27.0583,19.9,-29.5333,-7069,-28895
930,203596,-9.8,0.133984,-0.258398,155.484,88.2642,99.8547,0,0,0,0.618774,0.338318,0.631836,-0.321411,-27.0917,19.9083,-29.55,-7069,-28895
936,203602,-9.83828,0.119629,-0.272754,155.484,88.2642,99.8547,0,0,0,0.618774,0.338318,0.631836,-0.321411,-27.125,19.925,-29.5583,-7069,-28895
942,203608,-9.81436,0.119629,-0.263184,155.484,88.2642,99.8547,0,0,0,0.618774,0.338318,0.631836,-0.321411,-27.15,19.9333,-29.5917,-7069,-28895
948,203614,-9.79043,0.133984,-0.272754,155.484,88.2642,99.8547,0,0,0,0.618774,0.338318,0.631836,-0.321411,-27.2083,19.9333,-29.6583,-7069,-28895
954,203620,-9.79521,0.119629,-0.287109,155.484,88.2642,99.8547,0,0,0,0.618774,0.338318,0.631836,-0.321411,-27.2333,19.9333,-29.6917,-7069,-28895
960,203626,-9.79521,0.129199,-0.263184,155.484,88.2642,99.8547,0,0,0,0.618774,0.338318,0.631836,-0.321411,-27.2667,19.9583,-29.6833,-7069,-28895
966,203632,-9.8,0.114844,-0.267969,155.484,88.2642,99.8547,0,0,0,0.618774,0.338318,0.631836,-0.321411,-27.2833,19.9833,-29.6667,-7069,-28895
972,203638,-9.79043,0.143555,-0.267969,155.479,88.2642,99.8547,0,0,0,0.618774,0.338318,0.631866,-0.321381,-27.3,20.025,-29.6667,-7069,-28895
978,203644,-9.81914,0.124414,-0.282324,155.479,88.2642,99.8547,0,0,0,0.618774,0.338318,0.631866,-0.321381,-27.3167,20.0833,-29.7083,-7069,-28895
984,203650,-9.81436,0.114844,-0.287109,155.479,88.2642,99.8602,0,0,0,0.618805,0.338287,0.631866,-0.321381,-27.325,20.1,-29.7,-7069,-28895
990,203656,-9.8,0.114844,-0.287109,155.479,88.2642,99.8602,0,0,0,0.618805,0.338287,0.631866,-0.321381,-27.3083,20.1167,-29.7,-7069,-28895
996,203662,-9.81436,0.119629,-0.291895,155.479,88.2642,99.8602,0,0,0,0.618805,0.338287,0.631866,-0.321381,-27.275,20.1083,-29.675,-7069,-28895
1002,203668,-9.8,0.124414,-0.277539,155.479,88.2642,99.8602,0,0,0,0.618805,0.338287,0.631866,-0.321381,-27.2583,20.0917,-29.6583,-7069,-28895
1008,203674,-9.82393,0.133984,-0.267969,155.479,88.2642,99.8602,0,0,0,0.618805,0.338318,0.631866,-0.321381,-27.2333,20.075,-29.6417,-7069,-28895
1014,203680,-9.79521,0.143555,-0.272754,155.479,88.2642,99.8602,0,0,0,0.618805,0.338287,0.631866,-0.321381,-27.2333,20.0667,-29.7,-7069,-28895
1020,203686,-9.80957,0.110059,-0.267969,155.479,88.2642,99.8602,0,0,0,0.618805,0.338287,0.631866,-0.321381,-27.25,20.0667,-29.7667,-7069,-28895
1026,203692,-9.81914,0.124414,-0.277539,155.479,88.2642,99.8602,0,0,0,0.618805,0.338287,0.631866,-0.32135,-27.2417,20.0667,-29.825,-7069,-28895
1032,203698,-9.82871,0.105273,-0.291895,155.479,88.2642,99.8602,0,0,0,0.618805,0.338287,0.631866,-0.321381,-27.2333,20.0667,-29.85,-7069,-28895
1038,203704,-9.8,0.0957031,-0.277539,155.484,88.2642,99.8602,0,0,0,0.618774,0.338318,0.631866,-0.321381,-27.1667,20.0667,-29.8417,-7069,-28895
1044,203710,-9.81914,0.129199,-0.253613,155.484,88.2642,99.8602,0,0,0,0.618774,0.338318,0.631866,-0.321381,-27.15,20.075,-29.8,-7069,-28895
1050,203716,-9.80479,0.110059,-0.287109,155.484,88.2642,99.8602,0,0,0,0.618774,0.338318,0.631866,-0.321381,-27.125,20.0833,-29.7583,-7069,-28895
1056,203722,-9.8,0.119629,-0.248828,155.484,88.2642,99.8602,0,0,0,0.618774,0.338318,0.631866,-0.321381,-27.1083,20.0917,-29.725,-7069,-28895
1062,203728,-9.8,0.100488,-0.277539,155.484,88.2642,99.8602,0,0,0,0.618774,0.338348,0.631866,-0.321411,-27.0917,20.0917,-29.6917,-7069,-28895
1068,203734,-9.81436,0.105273,-0.253613,155.49,88.2642,99.8602,0,0,0,0.618774,0.338348,0.631836,-0.321411,-27.0583,20.0583,-29.7,-7069,-28895
1074,203740,-9.80957,0.114844,-0.301465,155.49,88.2642,99.8602,0,0,0,0.618744,0.338348,0.631836,-0.321411,-27.0417,20.05,-29.7167,-7069,-28895
1080,203746,-9.80479,0.114844,-0.239258,155.495,88.2642,99.8602,0,0,0,0.618744,0.338379,0.631836,-0.321442,-27.0417,20.025,-29.725,-7069,-28895
1086,203752,-9.80957,0.124414,-0.287109,155.495,88.2642,99.8602,0,0,0,0.618744,0.338379,0.631836,-0.321442,-27.05,19.9917,-29.7417,-7069,-28895
1092,203758,-9.81436,0.110059,-0.229688,155.495,88.2642,99.8602,0,0,0,0.618744,0.338379,0.631836,-0.321442,-27.0583,19.9417,-29.775,-7069,-28895
1098,203764,-9.80479,0.114844,-0.258398,155.5,88.2642,99.8602,0,0,0,0.618744,0.338379,0.631836,-0.321442,-27.125,19.875,-29.775,-7069,-28895
1104,203770,-9.78564,0.114844,-0.291895,155.5,88.2642,99.8602,0,0,0,0.618744,0.338409,0.631805,-0.321472,-27.1667,19.8667,-29.725,-7069,-28895
1110,203776,-9.78086,0.105273,-0.272754,155.5,88.2642,99.8602,0,0,0,0.618744,0.338409,0.631805,-0.321472,-27.2,19.8583,-29.6917,-7069,-28895
1116,203782,-9.80479,0.124414,-0.263184,155.506,88.2642,99.8602,0,0,0,0.618713,0.338409,0.631805,-0.321472,-27.2333,19.8667,-29.6583,-7069,-28895
1122,203788,-9.82393,0.143555,-0.258398,155.506,88.2642,99.8602,0,0,0,0.618713,0.338409,0.631805,-0.321472,-27.25,19.85,-29.65,-7069,-28895
1128,203794,-9.80479,0.143555,-0.263184,155.506,88.2642,99.8602,0,0,0,0.618713,0.338409,0.631805,-0.321472,-27.275,19.8333,-29.7083,-7069,-28895
1134,203800,-9.79521,0.14834,-0.263184,155.506,88.2642,99.8602,0,0,0,0.618713,0.338409,0.631805,-0.321472,-27.2833,19.8,-29.7417,-7069,-28895
1140,203806,-9.81436,0.114844,-0.258398,155.5,88.2642,99.8602,0,0,0,0.618713,0.338409,0.631805,-0.321472,-27.3083,19.775,-29.7667,-7069,-28895
1146,203812,-9.78086,0.133984,-0.258398,155.5,88.2642,99.8602,0,0,0,0.618744,0.338409,0.631805,-0.321472,-27.3167,19.7667,-29.8083,-7069,-28895
1152,203818,-9.79043,0.129199,-0.282324,155.5,88.2642,99.8602,0,0,0,0.618744,0.338409,0.631805,-0.321472,-27.3167,19.75,-29.8417,-7069,-28895
1158,203824,-9.79521,0.124414,-0.272754,155.5,88.2642,99.8657,0,0,0,0.618744,0.338409,0.631836,-0.321442,-27.2917,19.725,-29.8667,-7069,-28895
1164,203830,-9.80479,0.0957031,-0.277539,155.5,88.2642,99.8657,0,0,0,0.618744,0.338379,0.631836,-0.321442,-27.2917,19.7083,-29.825,-7069,-28895
1170,203836,-9.8,0.110059,-0.277539,155.5,88.2642,99.8657,0,0,0,0.618744,0.338379,0.631836,-0.321442,-27.3,19.7083,-29.8333,-7069,-28895
1176,203842,-9.80479,0.110059,-0.267969,155.5,88.2642,99.8657,0,0,0,0.618744,0.338379,0.631836,-0.321442,-27.3083,19.7083,-29.825,-7069,-28895
1182,203848,-9.82871,0.119629,-0.267969,155.5,88.2642,99.8657,0,0,0,0.618744,0.338409,0.631836,-0.321442,-27.325,19.7167,-29.8083,-7069,-28895
1188,203854,-9.8,0.162695,-0.272754,155.5,88.2642,99.8657,0,0,0,0.618744,0.338409,0.631836,-0.321442,-27.3417,19.725,-29.775,-7069,-28895
1194,203860,-9.78086,0.133984,-0.272754,155.5,88.2642,99.8657,0,0,0,0.618744,0.338379,0.631836,-0.321442,-27.3417,19.7417,-29.7583,-7069,-28895
1200,203866,-9.79521,0.114844,-0.248828,155.495,88.2642,99.8657,0,0,0,0.618744,0.338379,0.631836,-0.321442,-27.3583,19.75,-29.75,-7069,-28895
1206,203872,-9.8,0.129199,-0.272754,155.495,88.2642,99.8657,0,0,0,0.618744,0.338379,0.631836,-0.321411,-27.3583,19.75,-29.7667,-7069,-28895
1212,203878,-9.79043,0.133984,-0.258398,155.495,88.2642,99.8657,0,0,0,0.618744,0.338348,0.631836,-0.321411,-27.3583,19.7333,-29.775,-7069,-28895
1218,203884,-9.79521,0.119629,-0.263184,155.49,88.2642,99.8657,0,0,0,0.618774,0.338318,0.631866,-0.321381,-27.3667,19.6917,-29.7583,-7069,-28895
1224,203890,-9.80957,0.105273,-0.263184,155.49,88.2642,99.8657,0,0,0,0.618774,0.338318,0.631866,-0.321381,-27.375,19.6833,-29.7083,-7069,-28895
1230,203896,-9.80479,0.133984,-0.282324,155.484,88.2642,99.8657,0,0,0,0.618774,0.338318,0.631866,-0.321381,-27.4083,19.6833,-29.65,-7069,-28895
1236,203902,-9.80957,0.119629,-0.277539,155.484,88.2642,99.8657,0,0,0,0.618774,0.338287,0.631866,-0.32135,-27.4417,19.675,-29.6,-7069,-28895
1242,203908,-9.81914,0.143555,-0.272754,155.484,88.2642,99.8657,0,0,0,0.618805,0.338287,0.631866,-0.32135,-27.475,19.65,-29.55,-7069,-28895
1248,203914,-9.81436,0.124414,-0.263184,155.479,88.2642,99.8657,0,0,0,0.618805,0.338287,0.631897,-0.32132,-27.475,19.575,-29.4833,-7069,-28895
1254,203920,-9.79521,0.114844,-0.277539,155.479,88.2642,99.8657,0,0,0,0.618805,0.338257,0.631897,-0.32132,-27.4417,19.5417,-29.4333,-7069,-28895
1260,203926,-9.80479,0.133984,-0.263184,155.479,88.2642,99.8657,0,0,0,0.618805,0.338257,0.631897,-0.32132,-27.4167,19.5333,-29.4167,-7069,-28895
1266,203932,-9.8335,0.133984,-0.267969,155.473,88.2642,99.8657,0,0,0,0.618805,0.338257,0.631897,-0.321289,-27.3917,19.5333,-29.4417,-7069,-28895
1272,203938,-9.78564,0.129199,-0.263184,155.473,88.2642,99.8657,0,0,0,0.618835,0.338226,0.631897,-0.321289,-27.3917,19.525,-29.4417,-7069,-28895
1278,203944,-9.79043,0.129199,-0.277539,155.468,88.2642,99.8657,0,0,0,0.618835,0.338226,0.631927,-0.321259,-27.4083,19.525,-29.4417,-7069,-28895
1284,203950,-9.79043,0.143555,-0.272754,155.468,88.2642,99.8657,0,0,0,0.618835,0.338196,0.631927,-0.321259,-27.4167,19.5167,-29.4333,-7069,-28895
1290,203956,-9.80479,0.129199,-0.320605,155.468,88.2642,99.8657,0,0,0,0.618835,0.338196,0.631927,-0.321228,-27.4333,19.525,-29.4417,-7069,-28895
1296,203962,-9.80957,0.133984,-0.267969,155.462,88.2642,99.8657,0,0,0,0.618866,0.338165,0.631927,-0.321228,-27.4333,19.5333,-29.4917,-7069,-28895
1302,203968,-9.79043,0.129199,-0.263184,155.462,88.2642,99.8657,0,0,0,0.618866,0.338165,0.631958,-0.321228,-27.425,19.5417,-29.5417,-7069,-28895
1308,203974,-9.8,0.124414,-0.267969,155.457,88.2642,99.8657,0,0,0,0.618866,0.338135,0.631958,-0.321198,-27.4167,19.6,-29.6667,-7069,-28895
1314,203980,-9.80479,0.090918,-0.272754,155.457,88.2642,99.8657,0,0,0,0.618866,0.338135,0.631958,-0.321198,-27.4083,19.6333,-29.7167,-7069,-28895
1320,203986,-9.80479,0.110059,-0.282324,155.457,88.2642,99.8657,0,0,0,0.618866,0.338135,0.631958,-0.321167,-27.4167,19.6583,-29.7333,-7069,-28895
1326,203992,-9.8,0.143555,-0.267969,155.457,88.2587,99.8657,0,0,0,0.618866,0.338135,0.631958,-0.321167,-27.4167,19.6917,-29.75,-7069,-28895
1332,203998,-9.79043,0.133984,-0.267969,155.451,88.2587,99.8657,0,0,0,0.618896,0.338135,0.631989,-0.321167,-27.4167,19.7,-29.7333,-7069,-28895
1338,204004,-9.81436,0.114844,-0.248828,155.451,88.2587,99.8657,0,0,0,0.618896,0.338104,0.631989,-0.321136,-27.425,19.7083,-29.725,-7069,-28895
1344,204010,-9.82393,0.110059,-0.291895,155.451,88.2587,99.8657,0,0,0,0.618896,0.338104,0.631989,-0.321136,-27.425,19.7083,-29.7167,-7069,-28895
1350,204016,-9.82393,0.114844,-0.263184,155.451,88.2587,99.8712,0,0,0,0.618896,0.338104,0.631989,-0.321136,-27.4083,19.6833,-29.725,-7069,-28895
1356,204022,-9.79521,0.124414,-0.244043,155.446,88.2587,99.8712,0,0,0,0.618896,0.338104,0.631989,-0.321136,-27.4083,19.6667,-29.75,-7069,-28895
1362,204028,-9.80479,0.133984,-0.277539,155.446,88.2587,99.8712,0,0,0,0.618896,0.338074,0.631989,-0.321136,-27.3917,19.6333,-29.75,-7069,-28895
1368,204034,-9.80957,0.124414,-0.301465,155.446,88.2587,99.8712,0,0,0,0.618896,0.338074,0.631989,-0.321106,-27.4,19.5917,-29.6833,-7069,-28895
1374,204040,-9.80479,0.119629,-0.258398,155.446,88.2587,99.8712,0,0,0,0.618896,0.338074,0.632019,-0.321106,-27.4083,19.5833,-29.6667,-7069,-28895
1380,204046,-9.81914,0.100488,-0.253613,155.446,88.2587,99.8712,0,0,0,0.618896,0.338074,0.632019,-0.321106,-27.4333,19.5917,-29.6417,-7069,-28895
1386,204052,-9.80479,0.143555,-0.248828,155.446,88.2587,99.8712,0,0,0,0.618927,0.338074,0.632019,-0.321106,-27.4583,19.6,-29.6417,-7069,-28895
1392,204058,-9.80957,0.124414,-0.29668,155.44,88.2587,99.8712,0,0,0,0.618927,0.338043,0.632019,-0.321075,-27.475,19.625,-29.6833,-7069,-28895
1398,204064,-9.79043,0.119629,-0.239258,155.44,88.2587,99.8712,0,0,0,0.618927,0.338043,0.632019,-0.321075,-27.4667,19.6833,-29.7833,-7069,-28895
1404,204070,-9.8,0.129199,-0.287109,155.44,88.2587,99.8712,0,0,0,0.618927,0.338043,0.632019,-0.321075,-27.4667,19.7167,-29.8667,-7069,-28895
1410,204076,-9.8,0.124414,-0.282324,155.435,88.2587,99.8712,0,0,0,0.618927,0.338013,0.632019,-0.321045,-27.4583,19.7333,-29.95,-7069,-28895
1416,204082,-9.78564,0.110059,-0.267969,155.435,88.2587,99.8712,0,0,0,0.618927,0.338013,0.632019,-0.321045,-27.475,19.7583,-29.9833,-7069,-28895
1422,204088,-9.8335,0.124414,-0.267969,155.435,88.2587,99.8712,0,0,0,0.618927,0.338013,0.63205,-0.321045,-27.4917,19.775,-30,-7069,-28895
1428,204094,-9.79043,0.114844,-0.267969,155.435,88.2587,99.8712,0,0,0,0.618958,0.338013,0.63205,-0.321045,-27.4917,19.7833,-29.9333,-7069,-28895
1434,204100,-9.81436,0.119629,-0.248828,155.435,88.2587,99.8712,0,0,0,0.618958,0.338013,0.63205,-0.321014,-27.475,19.7583,-29.9167,-7069,-28895
1440,204106,-9.82871,0.119629,-0.277539,155.429,88.2587,99.8712,0,0,0,0.618958,0.337982,0.63205,-0.321014,-27.45,19.75,-29.9167,-7069,-28895
1446,204112,-9.8,0.119629,-0.277539,155.429,88.2587,99.8712,0,0,0,0.618958,0.337982,0.63205,-0.321014,-27.425,19.7333,-29.9167,-7069,-28895
1452,204118,-9.78564,0.110059,-0.263184,155.429,88.2587,99.8712,0,0,0,0.618958,0.337982,0.63205,-0.321014,-27.4167,19.7333,-29.9167,-7069,-28895
1458,204124,-9.79043,0.105273,-0.267969,155.435,88.2587,99.8712,0,0,0,0.618958,0.337982,0.63205,-0.321014,-27.4167,19.7417,-29.9417,-7069,-28895
1464,204130,-9.81436,0.129199,-0.29668,155.435,88.2587,99.8712,0,0,0,0.618958,0.337982,0.63205,-0.321014,-27.4167,19.7417,-29.9583,-7069,-28895
1470,204136,-9.79521,0.100488,-0.311035,155.435,88.2587,99.8712,0,0,0,0.618958,0.338013,0.63205,-0.321014,-27.4167,19.7333,-29.9833,-7069,-28895
1476,204142,-9.79043,0.124414,-0.277539,155.435,88.2587,99.8712,0,0,0,0.618927,0.338013,0.63205,-0.321045,-27.4083,19.725,-30.0083,-7069,-28895
1482,204148,-9.80957,0.124414,-0.282324,155.435,88.2587,99.8712,0,0,0,0.618927,0.338013,0.63205,-0.321045,-27.425,19.7167,-30.025,-7069,-28895
1488,204154,-9.81436,0.105273,-0.277539,155.44,88.2587,99.8712,0,0,0,0.618927,0.338043,0.632019,-0.321045,-27.4417,19.725,-29.9917,-7069,-28895
1494,204160,-9.81436,0.124414,-0.272754,155.44,88.2587,99.8712,0,0,0,0.618927,0.338043,0.632019,-0.321075,-27.4583,19.7333,-29.9667,-7069,-28895
1500,204166,-9.81914,0.133984,-0.244043,155.446,88.2587,99.8712,0,0,0,0.618927,0.338043,0.632019,-0.321075,-27.4667,19.7333,-29.9333,-7069,-28895
1506,204172,-9.81436,0.129199,-0.258398,155.446,88.2587,99.8712,0,0,0,0.618927,0.338043,0.632019,-0.321075,-27.4833,19.7167,-29.9417,-7069,-28895
1512,204178,-9.80479,0.105273,-0.244043,155.446,88.2587,99.8712,0,0,0,0.618927,0.338043,0.632019,-0.321075,-27.5,19.7,-29.9667,-7069,-28895
1518,204184,-9.8,0.119629,-0.253613,155.446,88.2587,99.8712,0,0,0,0.618927,0.338074,0.632019,-0.321075,-27.4917,19.6667,-29.9833,-7069,-28895
1524,204190,-9.81914,0.105273,-0.239258,155.446,88.2587,99.8712,0,0,0,0.618896,0.338074,0.632019,-0.321106,-27.4917,19.6333,-29.9583,-7069,-28895
1530,204196,-9.80479,0.124414,-0.248828,155.446,88.2587,99.8712,0,0,0,0.618896,0.338074,0.632019,-0.321106,-27.5,19.6083,-29.9167,-7069,-28895
1536,204202,-9.80957,0.143555,-0.253613,155.446,88.2587,99.8712,0,0,0,0.618896,0.338074,0.632019,-0.321106,-27.525,19.6,-29.8667,-7069,-28895
1542,204208,-9.81436,0.090918,-0.239258,155.446,88.2587,99.8767,0,0,0,0.618927,0.338074,0.632019,-0.321075,-27.55,19.6,-29.8417,-7069,-28895
1548,204214,-9.80957,0.114844,-0.263184,155.446,88.2587,99.8767,0,0,0,0.618927,0.338074,0.632019,-0.321075,-27.5667,19.65,-29.8583,-7069,-28895
1554,204220,-9.81436,0.110059,-0.263184,155.446,88.2587,99.8767,0,0,0,0.618927,0.338074,0.632019,-0.321106,-27.5583,19.6917,-29.875,-7069,-28895
1560,204226,-9.79521,0.105273,-0.263184,155.451,88.2587,99.8767,0,0,0,0.618927,0.338074,0.632019,-0.321106,-27.55,19.7417,-29.9,-7069,-28895
1566,204232,-9.8,0.124414,-0.258398,155.451,88.2587,99.8767,0,0,0,0.618896,0.338074,0.632019,-0.321106,-27.5583,19.7917,-29.925,-7069,-28895
1572,204238,-9.8335,0.119629,-0.248828,155.451,88.2587,99.8767,0,0,0,0.618896,0.338074,0.632019,-0.321106,-27.575,19.8167,-29.9333,-7069,-28895
1578,204244,-9.77607,0.13877,-0.263184,155.451,88.2587,99.8767,0,0,0,0.618896,0.338074,0.632019,-0.321106,-27.625,19.8333,-29.9833,-7069,-28895
1584,204250,-9.81436,0.133984,-0.244043,155.451,88.2587,99.8767,0,0,0,0.618927,0.338074,0.632019,-0.321106,-27.625,19.8083,-30.0167,-7069,-28895
1590,204256,-9.81914,0.133984,-0.263184,155.446,88.2587,99.8767,0,0,0,0.618927,0.338043,0.632019,-0.321075,-27.625,19.8,-30.0417,-7069,-28895
1596,204262,-9.80957,0.114844,-0.263184,155.446,88.2587,99.8767,0,0,0,0.618927,0.338043,0.632019,-0.321075,-27.6167,19.8,-30.0917,-7069,-28895
1602,204268,-9.80479,0.133984,-0.277539,155.446,88.2587,99.8767,0,0,0,0.618927,0.338043,0.632019,-0.321075,-27.5833,19.8,-30.1167,-7069,-28895
1608,204274,-9.80957,0.129199,-0.272754,155.44,88.2587,99.8767,0,0,0,0.618927,0.338013,0.632019,-0.321045,-27.575,19.8167,-30.1333,-7069,-28895
1614,204280,-9.79521,0.119629,-0.267969,155.44,88.2587,99.8767,0,0,0,0.618958,0.338013,0.63205,-0.321045,-27.5667,19.8083,-30.1333,-7069,-28895
1620,204286,-9.81436,0.14834,-0.282324,155.44,88.2587,99.8767,0,0,0,0.618958,0.337982,0.63205,-0.321014,-27.5667,19.8,-30.1333,-7069,-28895
1626,204292,-9.79521,0.129199,-0.287109,155.435,88.2587,99.8767,0,0,0,0.618958,0.337982,0.63205,-0.321014,-27.5667,19.7917,-30.1583,-7069,-28895
1632,204298,-9.81914,0.124414,-0.244043,155.429,88.2587,99.8767,0,0,0,0.618958,0.337982,0.63205,-0.321014,-27.5583,19.7833,-30.1917,-7069,-28895
1638,204304,-9.8,0.105273,-0.267969,155.429,88.2587,99.8767,0,0,0,0.618988,0.337952,0.63208,-0.320984,-27.55,19.775,-30.2083,-7069,-28895
1644,204310,-9.78564,0.133984,-0.248828,155.429,88.2587,99.8767,0,0,0,0.618988,0.337921,0.63208,-0.320984,-27.55,19.775,-30.2167,-7069,-28895
1650,204316,-9.82393,0.133984,-0.239258,155.424,88.2587,99.8767,0,0,0,0.618988,0.337921,0.63208,-0.320953,-27.525,19.7833,-30.2,-7069,-28895
1656,204322,-9.84785,0.105273,-0.258398,155.424,88.2642,99.8767,0,0,0,0.618988,0.337891,0.63208,-0.320953,-27.4833,19.7917,-30.1917,-7069,-28895
1662,204328,-9.8,0.105273,-0.253613,155.418,88.2642,99.8767,0,0,0,0.619019,0.337891,0.632111,-0.320923,-27.4583,19.825,-30.1667,-7069,-28895
1668,204334,-9.79043,0.114844,-0.263184,155.418,88.2642,99.8767,0,0,0,0.619019,0.33786,0.632111,-0.320892,-27.4833,19.8333,-30.1417,-7069,-28895
1674,204340,-9.79521,0.129199,-0.239258,155.413,88.2642,99.8767,0,0,0,0.619019,0.33786,0.632111,-0.320892,-27.5,19.8583,-30.1333,-7069,-28895
1680,204346,-9.82393,0.0957031,-0.234473,155.413,88.2642,99.8767,0,0,0,0.619049,0.33783,0.632111,-0.320892,-27.5083,19.8667,-30.125,-7069,-28895
1686,204352,-9.80957,0.100488,-0.244043,155.407,88.2642,99.8767,0,0,0,0.619049,0.33783,0.632111,-0.320862,-27.5083,19.8833,-30.125,-7069,-28895
1692,204358,-9.79043,0.100488,-0.272754,155.407,88.2642,99.8767,0,0,0,0.619049,0.33783,0.632141,-0.320862,-27.5,19.9167,-30.1333,-7069,-28895
1698,204364,-9.79521,0.133984,-0.277539,155.407,88.2642,99.8767,0,0,0,0.619049,0.337799,0.632141,-0.320862,-27.5083,19.925,-30.1417,-7069,-28895
1704,204370,-9.81436,0.129199,-0.277539,155.402,88.2642,99.8767,0,0,0,0.619049,0.337799,0.632141,-0.320831,-27.5,19.9417,-30.1417,-7069,-28895
1710,204376,-9.82393,0.133984,-0.248828,155.402,88.2642,99.8767,0,0,0,0.61908,0.337799,0.632141,-0.320831,-27.475,19.95,-30.125,-7069,-28895
1716,204382,-9.80479,0.114844,-0.277539,155.402,88.2642,99.8767,0,0,0,0.61908,0.337769,0.632141,-0.320831,-27.4417,19.9417,-30.1167,-7069,-28895
1722,204388,-9.8,0.129199,-0.267969,155.396,88.2642,99.8767,0,0,0,0.61908,0.337769,0.632141,-0.320831,-27.425,19.9167,-30.0417,-7069,-28895
1728,204394,-9.8,0.153125,-0.272754,155.396,88.2642,99.8767,0,0,0,0.61908,0.337738,0.632172,-0.320801,-27.425,19.9083,-30.0583,-7069,-28895
1734,204400,-9.81914,0.105273,-0.248828,155.396,88.2642,99.8767,0,0,0,0.61908,0.337738,0.632172,-0.320801,-27.4167,19.8917,-30.0333,-7069,-28895
1740,204406,-9.81436,0.124414,-0.291895,155.396,88.2642,99.8767,0,0,0,0.61911,0.337738,0.632172,-0.32077,-27.3833,19.8583,-30.0083,-7069,-28895
1746,204412,-9.77129,0.124414,-0.258398,155.391,88.2642,99.8767,0,0,0,0.61911,0.337708,0.632172,-0.32077,-27.35,19.825,-29.9667,-7069,-28895
1752,204418,-9.79043,0.14834,-0.272754,155.385,88.2642,99.8767,0,0,0,0.61911,0.337708,0.632172,-0.32077,-27.3,19.7833,-29.8583,-7069,-28895
1758,204424,-9.78564,0.114844,-0.272754,155.385,88.2642,99.8822,0,0,0,0.61911,0.337677,0.632202,-0.32074,-27.2917,19.8,-29.8333,-7069,-28895
1764,204430,-9.78564,0.119629,-0.287109,155.385,88.2642,99.8822,0,0,0,0.619141,0.337677,0.632202,-0.32074,-27.2917,19.8167,-29.825,-7069,-28895
1770,204436,-9.80479,0.133984,-0.253613,155.385,88.2642,99.8822,0,0,0,0.619141,0.337677,0.632202,-0.320709,-27.3167,19.8417,-29.7833,-7069,-28895
1776,204442,-9.81436,0.124414,-0.282324,155.38,88.2642,99.8822,0,0,0,0.619141,0.337646,0.632202,-0.320709,-27.35,19.8833,-29.7417,-7069,-28895
1782,204448,-9.78086,0.124414,-0.258398,155.38,88.2642,99.8822,0,0,0,0.619141,0.337646,0.632202,-0.320709,-27.3917,19.925,-29.6583,-7069,-28895
1788,204454,-9.78564,0.124414,-0.277539,155.374,88.2642,99.8822,0,0,0,0.619141,0.337646,0.632233,-0.320679,-27.4083,19.9333,-29.625,-7069,-28895
1794,204460,-9.80957,0.119629,-0.244043,155.374,88.2642,99.8822,0,0,0,0.619141,0.337616,0.632233,-0.320679,-27.3833,19.9167,-29.6083,-7069,-28895
1800,204466,-9.80479,0.133984,-0.263184,155.374,88.2642,99.8822,0,0,0,0.619171,0.337616,0.632233,-0.320648,-27.375,19.9083,-29.6167,-7069,-28895
1806,204472,-9.82871,0.110059,-0.287109,155.374,88.2642,99.8822,0,0,0,0.619171,0.337616,0.632233,-0.320648,-27.3667,19.9083,-29.675,-7069,-28895
1812,204478,-9.79521,0.143555,-0.267969,155.369,88.2642,99.8822,0,0,0,0.619171,0.337585,0.632233,-0.320648,-27.3833,19.925,-29.825,-7069,-28895
1818,204484,-9.80479,0.124414,-0.248828,155.363,88.2642,99.8822,0,0,0,0.619202,0.337555,0.632263,-0.320618,-27.4,19.9167,-29.8833,-7069,-28895
1824,204490,-9.80957,0.143555,-0.272754,155.363,88.2642,99.8822,0,0,0,0.619202,0.337555,0.632263,-0.320587,-27.4,19.925,-29.95,-7069,-28895
1830,204496,-9.80957,0.0957031,-0.291895,155.363,88.2642,99.8822,0,0,0,0.619202,0.337555,0.632263,-0.320587,-27.4167,19.9083,-29.95,-7069,-28895
1836,204502,-9.82393,0.133984,-0.272754,155.358,88.2642,99.8822,0,0,0,0.619202,0.337524,0.632263,-0.320587,-27.4417,19.9,-29.9333,-7069,-28895
1842,204508,-9.79521,0.0957031,-0.248828,155.358,88.2642,99.8822,0,0,0,0.619202,0.337524,0.632263,-0.320557,-27.4833,19.9167,-29.9083,-7069,-28895
1848,204514,-9.8,0.119629,-0.277539,155.358,88.2642,99.8822,0,0,0,0.619202,0.337524,0.632294,-0.320557,-27.475,19.9333,-29.925,-7069,-28895
1854,204520,-9.81914,0.100488,-0.263184,155.358,88.2642,99.8822,0,0,0,0.619202,0.337524,0.632294,-0.320557,-27.4583,19.9417,-29.9917,-7069,-28895
1860,204526,-9.80957,0.0957031,-0.258398,155.358,88.2642,99.8822,0,0,0,0.619202,0.337524,0.632294,-0.320557,-27.4583,19.95,-30.0417,-7069,-28895
1866,204532,-9.80957,0.124414,-0.29668,155.358,88.2642,99.8822,0,0,0,0.619202,0.337524,0.632263,-0.320557,-27.4417,19.95,-30.0833,-7069,-28895
1872,204538,-9.78564,0.110059,-0.291895,155.363,88.2642,99.8822,0,0,0,0.619202,0.337524,0.632263,-0.320587,-27.45,19.925,-30.1583,-7069,-28895
1878,204544,-9.8,0.124414,-0.277539,155.363,88.2642,99.8822,0,0,0,0.619202,0.337555,0.632263,-0.320587,-27.4417,19.9167,-30.1583,-7069,-28895
1884,204550,-9.80957,0.0861328,-0.248828,155.363,88.2642,99.8822,0,0,0,0.619202,0.337555,0.632263,-0.320587,-27.4417,19.925,-30.175,-7069,-28895
1890,204556,-9.8,0.105273,-0.282324,155.369,88.2642,99.8822,0,0,0,0.619171,0.337555,0.632263,-0.320618,-27.4333,19.8917,-30.1667,-7069,-28895
1896,204562,-9.80957,0.129199,-0.277539,155.369,88.2642,99.8822,0,0,0,0.619171,0.337585,0.632263,-0.320618,-27.4167,19.8667,-30.1333,-7069,-28895
1902,204568,-9.8,0.13877,-0.253613,155.374,88.2642,99.8822,0,0,0,0.619171,0.337585,0.632233,-0.320648,-27.4333,19.8333,-30.1167,-7069,-28895
1908,204574,-9.79521,0.143555,-0.253613,155.374,88.2642,99.8822,0,0,0,0.619171,0.337616,0.632233,-0.320648,-27.45,19.85,-30.1,-7069,-28895
1914,204580,-9.79043,0.124414,-0.282324,155.374,88.2642,99.8822,0,0,0,0.619171,0.337616,0.632233,-0.320648,-27.45,19.85,-30.075,-7069,-28895
1920,204586,-9.79043,0.110059,-0.258398,155.38,88.2642,99.8822,0,0,0,0.619171,0.337616,0.632233,-0.320679,-27.425,19.8667,-30.0417,-7069,-28895
1926,204592,-9.82871,0.110059,-0.282324,155.38,88.2642,99.8822,0,0,0,0.619141,0.337616,0.632233,-0.320679,-27.4167,19.875,-30.0667,-7069,-28895
1932,204598,-9.8,0.129199,-0.282324,155.38,88.2642,99.8822,0,0,0,0.619141,0.337646,0.632233,-0.320679,-27.4083,19.9,-30.075,-7069,-28895
1938,204604,-9.81436,0.124414,-0.282324,155.38,88.2642,99.8822,0,0,0,0.619141,0.337646,0.632202,-0.320679,-27.425,19.9167,-30.1,-7069,-28895
1944,204610,-9.81914,0.110059,-0.282324,155.385,88.2642,99.8822,0,0,0,0.619141,0.337646,0.632202,-0.320709,-27.4417,19.9417,-30.1083,-7069,-28895
1950,204616,-9.78564,0.110059,-0.287109,155.385,88.2642,99.8822,0,0,0,0.619141,0.337677,0.632202,-0.320709,-27.4417,19.9667,-30.1,-7069,-28895
1956,204622,-9.79521,0.110059,-0.272754,155.385,88.2642,99.8822,0,0,0,0.619141,0.337677,0.632202,-0.320709,-27.45,19.9833,-30.1333,-7069,-28895
1962,204628,-9.80957,0.133984,-0.291895,155.391,88.2642,99.8822,0,0,0,0.61911,0.337677,0.632202,-0.32074,-27.4333,20.0167,-30.1833,-7069,-28895
1968,204634,-9.80957,0.105273,-0.263184,155.391,88.2642,99.8822,0,0,0,0.61911,0.337708,0.632202,-0.32074,-27.45,20.025,-30.1667,-7069,-28895
1974,204640,-9.81436,0.110059,-0.263184,155.396,88.2642,99.8822,0,0,0,0.61911,0.337708,0.632172,-0.32077,-27.4583,20.025,-30.1583,-7069,-28895
1980,204646,-9.78086,0.13877,-0.282324,155.396,88.2642,99.8822,0,0,0,0.61911,0.337708,0.632172,-0.32077,-27.4667,20.0333,-30.1417,-7069,-28895
1986,204652,-9.78564,0.114844,-0.248828,155.396,88.2642,99.8822,0,0,0,0.61911,0.337738,0.632172,-0.32077,-27.4833,20.0333,-30.125,-7069,-28895
1992,204658,-9.81914,0.129199,-0.248828,155.402,88.2642,99.8822,0,0,0,0.61908,0.337738,0.632172,-0.320801,-27.525,20.025,-30.1167,-7069,-28895
1998,204664,-9.80479,0.110059,-0.263184,155.402,88.2642,99.8822,0,0,0,0.61908,0.337738,0.632172,-0.320801,-27.5417,20.0083,-30.0917,-7069,-28895
2004,204670,-9.80479,0.129199,-0.244043,155.402,88.2642,99.8822,0,0,0,0.61908,0.337769,0.632172,-0.320801,-27.5417,19.9917,-30.075,-7069,-28895
2010,204676,-9.79521,0.110059,-0.263184,155.407,88.2642,99.8877,0,0,0,0.61908,0.337769,0.632141,-0.320801,-27.5583,20,-30.0667,-7069,-28895
2016,204682,-9.78564,0.105273,-0.291895,155.407,88.2642,99.8877,0,0,0,0.61908,0.337769,0.632141,-0.320801,-27.5667,20,-30.05,-7069,-28895
2022,204688,-9.81436,0.13877,-0.263184,155.407,88.2642,99.8877,0,0,0,0.61908,0.337769,0.632141,-0.320831,-27.5667,20.0083,-30.0667,-7069,-28895
2028,204694,-9.80957,0.153125,-0.272754,155.407,88.2642,99.8877,0,0,0,0.61908,0.337769,0.632141,-0.320831,-27.55,20.0083,-30.05,-7069,-28895
2034,204700,-9.79043,0.110059,-0.248828,155.407,88.2642,99.8877,0,0,0,0.61908,0.337769,0.632141,-0.320831,-27.5333,20,-30.0667,-7069,-28895
2040,204706,-9.78086,0.13877,-0.253613,155.407,88.2642,99.8877,0,0,0,0.61908,0.337769,0.632141,-0.320801,-27.5167,20.0167,-30.0833,-7069,-28895
2046,204712,-9.8,0.14834,-0.267969,155.407,88.2642,99.8877,0,0,0,0.61908,0.337769,0.632141,-0.320801,-27.5083,20.0167,-30.0917,-7069,-28895
2052,204718,-9.80957,0.129199,-0.229688,155.402,88.2642,99.8877,0,0,0,0.61908,0.337738,0.632172,-0.320801,-27.5333,19.9917,-30.0833,-7069,-28895
2058,204724,-9.82393,0.105273,-0.282324,155.402,88.2642,99.8877,0,0,0,0.61908,0.337738,0.632172,-0.320801,-27.55,19.975,-30.0917,-7069,-28895
2064,204730,-9.81914,0.119629,-0.248828,155.402,88.2642,99.8877,0,0,0,0.61911,0.337738,0.632172,-0.32077,-27.5667,19.9583,-30.0667,-7069,-28895
2070,204736,-9.79043,0.133984,-0.229688,155.396,88.2642,99.8877,0,0,0,0.61911,0.337708,0.632172,-0.32077,-27.5833,19.9333,-30.0667,-7069,-28895
2076,204742,-9.80479,0.110059,-0.272754,155.396,88.2642,99.8877,0,0,0,0.61911,0.337708,0.632172,-0.32077,-27.5833,19.9167,-30.0833,-7069,-28895
2082,204748,-9.7665,0.129199,-0.272754,155.391,88.2642,99.8877,0,0,0,0.61911,0.337677,0.632202,-0.32074,-27.5833,19.8917,-30.0583,-7069,-28895
2088,204754,-9.80957,0.13877,-0.287109,155.391,88.2642,99.8877,0,0,0,0.619141,0.337677,0.632202,-0.32074,-27.5833,19.8917,-30.0417,-7069,-28895
2094,204760,-9.78086,0.110059,-0.267969,155.391,88.2642,99.8877,0,0,0,0.619141,0.337677,0.632202,-0.320709,-27.5917,19.8917,-30.025,-7069,-28895
2100,204766,-9.80957,0.090918,-0.234473,155.391,88.2642,99.8877,0,0,0,0.619141,0.337646,0.632202,-0.320709,-27.5833,19.8917,-30.0333,-7069,-28895
2106,204772,-9.79043,0.129199,-0.263184,155.391,88.2642,99.8877,0,0,0,0.619141,0.337646,0.632202,-0.320709,-27.575,19.8917,-30.0667,-7069,-28895
2112,204778,-9.8,0.129199,-0.287109,155.385,88.2642,99.8877,0,0,0,0.619141,0.337646,0.632202,-0.320709,-27.55,19.9167,-30.125,-7069,-28895
2118,204784,-9.81914,0.129199,-0.287109,155.385,88.2642,99.8877,0,0,0,0.619141,0.337646,0.632202,-0.320709,-27.5417,19.9417,-30.125,-7069,-28895
2124,204790,-9.81436,0.129199,-0.234473,155.385,88.2642,99.8877,0,0,0,0.619141,0.337646,0.632233,-0.320679,-27.5417,19.975,-30.1417,-7069,-28895
2130,204796,-9.8,0.129199,-0.282324,155.385,88.2642,99.8877,0,0,0,0.619141,0.337616,0.632233,-0.320679,-27.5167,19.9833,-30.1833,-7069,-28895
2136,204802,-9.80957,0.129199,-0.291895,155.38,88.2642,99.8877,0,0,0,0.619171,0.337616,0.632233,-0.320679,-27.5083,20,-30.2167,-7069,-28895
2142,204808,-9.79043,0.100488,-0.267969,155.38,88.2642,99.8877,0,0,0,0.619171,0.337616,0.632233,-0.320648,-27.5,19.975,-30.2083,-7069,-28895
2148,204814,-9.81436,0.133984,-0.282324,155.38,88.2642,99.8877,0,0,0,0.619171,0.337585,0.632233,-0.320648,-27.5,19.95,-30.15,-7069,-28895
2154,204820,-9.80479,0.133984,-0.263184,155.38,88.2642,99.8877,0,0,0,0.619171,0.337585,0.632233,-0.320648,-27.5083,19.95,-30.0833,-7069,-28895
2160,204826,-9.80479,0.119629,-0.258398,155.374,88.2642,99.8877,0,0,0,0.619171,0.337585,0.632233,-0.320648,-27.525,19.9583,-30.0417,-7069,-28895
2166,204832,-9.78086,0.133984,-0.287109,155.374,88.2642,99.8877,0,0,0,0.619171,0.337585,0.632233,-0.320618,-27.5333,19.9833,-30,-7069,-28895
2172,204838,-9.8,0.124414,-0.263184,155.374,88.2642,99.8877,0,0,0,0.619202,0.337555,0.632263,-0.320618,-27.5,20.025,-30.075,-7069,-28895
2178,204844,-9.80957,0.100488,-0.272754,155.374,88.2642,99.8877,0,0,0,0.619202,0.337555,0.632263,-0.320618,-27.4667,20.0333,-30.1083,-7069,-28895
2184,204850,-9.8,0.119629,-0.210547,155.369,88.2642,99.8877,0,0,0,0.619202,0.337555,0.632263,-0.320618,-27.4333,20.0417,-30.1667,-7069,-28895
2190,204856,-9.80957,0.124414,-0.282324,155.369,88.2642,99.8877,0,0,0,0.619202,0.337555,0.632263,-0.320587,-27.4083,20.0333,-30.225,-7069,-28895
2196,204862,-9.8,0.114844,-0.282324,155.369,88.2642,99.8877,0,0,0,0.619202,0.337524,0.632263,-0.320587,-27.3833,20.0167,-30.2333,-7069,-28895
2202,204868,-9.78086,0.110059,-0.244043,155.369,88.2642,99.8877,0,0,0,0.619202,0.337524,0.632263,-0.320587,-27.3667,19.9917,-30.0917,-7069,-28895
2208,204874,-9.80957,0.124414,-0.301465,155.369,88.2642,99.8877,0,0,0,0.619202,0.337524,0.632263,-0.320587,-27.3583,19.9833,-30.025,-7069,-28895
2214,204880,-9.81436,0.114844,-0.253613,155.369,88.2642,99.8877,0,0,0,0.619202,0.337524,0.632263,-0.320587,-27.3667,19.975,-29.975,-7069,-28895
2220,204886,-9.79043,0.15791,-0.267969,155.363,88.2642,99.8877,0,0,0,0.619202,0.337524,0.632294,-0.320557,-27.3583,19.9667,-29.9917,-7069,-28895
2226,204892,-9.79043,0.114844,-0.253613,155.363,88.2642,99.8877,0,0,0,0.619202,0.337494,0.632294,-0.320557,-27.3583,19.95,-30.025,-7069,-28895
2232,204898,-9.80957,0.119629,-0.267969,155.363,88.2642,99.8877,0,0,0,0.619232,0.337494,0.632294,-0.320557,-27.3333,19.9417,-30.1917,-7069,-28895
2238,204904,-9.79521,0.124414,-0.263184,155.358,88.2642,99.8877,0,0,0,0.619232,0.337494,0.632294,-0.320557,-27.3083,19.9417,-30.2583,-7069,-28895
2244,204910,-9.80479,0.129199,-0.244043,155.358,88.2642,99.8877,0,0,0,0.619232,0.337494,0.632294,-0.320526,-27.2667,19.95,-30.3,-7069,-28895
2250,204916,-9.80479,0.114844,-0.263184,155.358,88.2642,99.8877,0,0,0,0.619232,0.337463,0.632294,-0.320526,-27.2333,19.9583,-30.3333,-7069,-28895
2256,204922,-9.81436,0.133984,-0.272754,155.352,88.2642,99.8877,0,0,0,0.619232,0.337463,0.632294,-0.320526,-27.1917,19.9583,-30.325,-7069,-28895
2262,204928,-9.79521,0.110059,-0.253613,155.352,88.2642,99.8877,0,0,0,0.619263,0.337433,0.632324,-0.320496,-27.225,19.9667,-30.2833,-7069,-28895
2268,204934,-9.82393,0.129199,-0.239258,155.352,88.2642,99.8877,0,0,0,0.619263,0.337433,0.632324,-0.320496,-27.225,19.9667,-30.2417,-7069,-28895
2274,204940,-9.78564,0.124414,-0.272754,155.347,88.2642,99.8877,0,0,0,0.619263,0.337433,0.632324,-0.320465,-27.2333,19.975,-30.1833,-7069,-28895
2280,204946,-9.79521,0.110059,-0.253613,155.347,88.2642,99.8932,0,0,0,0.619263,0.337402,0.632324,-0.320465,-27.2333,19.9833,-30.125,-7069,-28895
2286,204952,-9.78564,0.14834,-0.267969,155.347,88.2642,99.8877,0,0,0,0.619263,0.337402,0.632324,-0.320465,-27.2417,20.0083,-30.05,-7069,-28895
2292,204958,-9.8,0.119629,-0.277539,155.341,88.2642,99.8877,0,0,0,0.619293,0.337372,0.632355,-0.320435,-27.3083,20.0333,-29.95,-7069,-28895
2298,204964,-9.79521,0.133984,-0.263184,155.341,88.2642,99.8877,0,0,0,0.619293,0.337372,0.632355,-0.320435,-27.3583,20.0667,-29.9333,-7069,-28895
2304,204970,-9.77607,0.124414,-0.282324,155.341,88.2642,99.8932,0,0,0,0.619293,0.337372,0.632355,-0.320435,-27.3833,20.0583,-29.9333,-7069,-28895
2310,204976,-9.80957,0.133984,-0.267969,155.336,88.2642,99.8932,0,0,0,0.619293,0.337341,0.632355,-0.320404,-27.3833,20.0667,-29.975,-7069,-28895
2316,204982,-9.78564,0.119629,-0.277539,155.336,88.2642,99.8932,0,0,0,0.619293,0.337341,0.632355,-0.320404,-27.3917,20.05,-29.9917,-7069,-28895
2322,204988,-9.82393,0.129199,-0.248828,155.33,88.2642,99.8932,0,0,0,0.619324,0.337341,0.632355,-0.320374,-27.375,20.0833,-30.025,-7069,-28895
2328,204994,-9.80479,0.14834,-0.248828,155.33,88.2642,99.8932,0,0,0,0.619324,0.337311,0.632385,-0.320374,-27.3667,20.1167,-30,-7069,-28895
2334,205000,-9.79521,0.124414,-0.263184,155.325,88.2642,99.8932,0,0,0,0.619324,0.337311,0.632385,-0.320343,-27.35,20.15,-30.0083,-7069,-28895
2340,205006,-9.78086,0.133984,-0.272754,155.325,88.2642,99.8932,0,0,0,0.619354,0.33728,0.632385,-0.320343,-27.3333,20.1667,-30.0333,-7069,-28895
2346,205012,-9.81914,0.110059,-0.277539,155.319,88.2642,99.8932,0,0,0,0.619354,0.33728,0.632385,-0.320343,-27.3167,20.1667,-30.0583,-7069,-28895
2352,205018,-9.79043,0.13877,-0.263184,155.319,88.2642,99.8932,0,0,0,0.619354,0.33725,0.632416,-0.320313,-27.3,20.2,-30.1667,-7069,-28895
2358,205024,-9.79521,0.133984,-0.277539,155.314,88.2642,99.8932,0,0,0,0.619354,0.337219,0.632416,-0.320282,-27.3083,20.225,-30.2333,-7069,-28895
2364,205030,-9.79521,0.124414,-0.272754,155.314,88.2642,99.8932,0,0,0,0.619385,0.337219,0.632416,-0.320282,-27.3,20.25,-30.2583,-7069,-28895
2370,205036,-9.79043,0.143555,-0.29668,155.308,88.2642,99.8932,0,0,0,0.619385,0.337219,0.632446,-0.320251,-27.3167,20.2583,-30.2417,-7069,-28895
2376,205042,-9.80957,0.110059,-0.263184,155.308,88.2642,99.8932,0,0,0,0.619385,0.337189,0.632446,-0.320251,-27.3417,20.2417,-30.2167,-7069,-28895
2382,205048,-9.80479,0.119629,-0.267969,155.303,88.2642,99.8932,0,0,0,0.619385,0.337189,0.632446,-0.320221,-27.35,20.2167,-30.15,-7069,-28895
2388,205054,-9.80479,0.119629,-0.291895,155.303,88.2642,99.8932,0,0,0,0.619415,0.337158,0.632446,-0.320221,-27.3417,20.2,-30.1083,-7069,-28895
2394,205060,-9.80957,0.13877,-0.267969,155.303,88.2642,99.8932,0,0,0,0.619415,0.337158,0.632446,-0.320221,-27.3333,20.1917,-30.1,-7069,-28895
2400,205066,-9.8,0.124414,-0.272754,155.303,88.2642,99.8932,0,0,0,0.619415,0.337158,0.632477,-0.32019,-27.3167,20.2,-30.1,-7069,-28895
2406,205072,-9.8335,0.114844,-0.272754,155.297,88.2642,99.8932,0,0,0,0.619415,0.337158,0.632477,-0.32019,-27.3333,20.2167,-30.2333,-7069,-28895
2412,205078,-9.81436,0.0957031,-0.272754,155.297,88.2642,99.8932,0,0,0,0.619415,0.337128,0.632477,-0.32019,-27.35,20.2083,-30.2917,-7069,-28895
2418,205084,-9.80957,0.110059,-0.291895,155.297,88.2642,99.8932,0,0,0,0.619415,0.337128,0.632477,-0.32019,-27.3917,20.2,-30.3083,-7069,-28895
2424,205090,-9.80957,0.0957031,-0.277539,155.297,88.2642,99.8932,0,0,0,0.619415,0.337128,0.632477,-0.32019,-27.4167,20.1917,-30.2667,-7069,-28895
2430,205096,-9.80479,0.105273,-0.277539,155.297,88.2642,99.8932,0,0,0,0.619415,0.337158,0.632477,-0.32019,-27.4417,20.175,-30.2667,-7069,-28895
2436,205102,-9.82393,0.110059,-0.239258,155.303,88.2642,99.8932,0,0,0,0.619415,0.337158,0.632477,-0.32019,-27.4583,20.175,-30.325,-7069,-28895
2442,205108,-9.8,0.090918,-0.263184,155.303,88.2642,99.8932,0,0,0,0.619385,0.337189,0.632446,-0.320221,-27.4583,20.1583,-30.4,-7069,-28895
2448,205114,-9.80479,0.129199,-0.272754,155.308,88.2642,99.8932,0,0,0,0.619385,0.337189,0.632446,-0.320221,-27.4583,20.15,-30.4583,-7069,-28895
2454,205120,-9.82393,0.119629,-0.272754,155.308,88.2642,99.8932,0,0,0,0.619385,0.337189,0.632446,-0.320251,-27.45,20.15,-30.4417,-7069,-28895
2460,205126,-9.8,0.110059,-0.277539,155.308,88.2642,99.8932,0,0,0,0.619385,0.337189,0.632446,-0.320251,-27.4333,20.15,-30.4417,-7069,-28895
2466,205132,-9.81436,0.129199,-0.267969,155.314,88.2642,99.8932,0,0,0,0.619385,0.337219,0.632446,-0.320251,-27.3917,20.1333,-30.3833,-7069,-28895
2472,205138,-9.82871,0.129199,-0.253613,155.314,88.2642,99.8932,0,0,0,0.619354,0.337219,0.632416,-0.320282,-27.4083,20.1167,-30.375,-7069,-28895
2478,205144,-9.78086,0.124414,-0.267969,155.314,88.2642,99.8932,0,0,0,0.619354,0.337219,0.632416,-0.320282,-27.425,20.0917,-30.3333,-7069,-28895
2484,205150,-9.8,0.143555,-0.267969,155.314,88.2642,99.8932,0,0,0,0.619354,0.337219,0.632416,-0.320282,-27.4417,20.05,-30.3167,-7069,-28895
2490,205156,-9.78564,0.13877,-0.253613,155.314,88.2642,99.8932,0,0,0,0.619354,0.337219,0.632416,-0.320282,-27.475,20.0167,-30.2917,-7069,-28895
2496,205162,-9.80479,0.119629,-0.258398,155.314,88.2642,99.8932,0,0,0,0.619354,0.337219,0.632416,-0.320282,-27.5333,19.9833,-30.275,-7069,-28895
2502,205168,-9.79521,0.143555,-0.248828,155.314,88.2642,99.8932,0,0,0,0.619385,0.337219,0.632446,-0.320282,-27.5667,20,-30.25,-7069,-28895
2508,205174,-9.8,0.129199,-0.287109,155.314,88.2642,99.8932,0,0,0,0.619385,0.337219,0.632446,-0.320251,-27.5833,20.025,-30.2333,-7069,-28895
