TimeSinceCollection,Timestamp,AccX,AccY,AccZ,AngleRoll,AnglePitch,AngleYaw,AngularVelX,AngularVelY,AngularVelZ,Q1,Q2,Q3,Q4,MagX,MagY,MagZ,Height,Airpressure
0,8292,0,0,0,177.05,-89.3903,-0.86792,9.79043,0.0239258,-0.119629,0.0235901,0.710419,-0.023468,0.702942,-115.108,44.625,-33.0667,-8011,-28781
6,8298,0,0,0,177.045,-89.3903,-0.86792,9.82871,0.00957031,-0.0813477,0.0236206,0.710419,-0.0234985,0.702942,-115.117,44.625,-33.0833,-8011,-28781
12,8304,0,0,0,177.039,-89.3903,-0.86792,9.80479,0,-0.0957031,0.0236816,0.710388,-0.0235291,0.702942,-115.117,44.625,-33.0917,-8011,-28781
18,8310,0,0,0,177.034,-89.3903,-0.86792,9.81914,0.00957031,-0.114844,0.0237122,0.710388,-0.0235596,0.702942,-115.108,44.6167,-33.1167,-8011,-28781
24,8316,0,0,0,177.034,-89.3903,-0.86792,9.79043,0.00478516,-0.110059,0.0237427,0.710388,-0.0235901,0.702942,-115.092,44.6,-33.15,-8011,-28781
30,8322,0,0,0,177.023,-89.3903,-0.873413,9.8,0.00478516,-0.0957031,0.0237732,0.710388,-0.0236511,0.702911,-115.083,44.5833,-33.1167,-8011,-28781
36,8328,0,0,0,177.023,-89.3903,-0.873413,9.79043,-0.0239258,-0.090918,0.0238037,0.710388,-0.0236816,0.702911,-115.083,44.55,-33.1,-8011,-28781
42,8334,0,0,0,177.023,-89.3903,-0.873413,9.79043,0,-0.0717773,0.0238037,0.710388,-0.0236816,0.702911,-115.083,44.5417,-33.0917,-8011,-28781
48,8340,0,0,0,177.023,-89.3903,-0.873413,9.82871,0.00957031,-0.110059,0.0238037,0.710388,-0.0236816,0.702911,-115.092,44.5417,-33.1,-8011,-28781
54,8346,0,0,0,177.023,-89.3903,-0.873413,9.8,0.0382813,-0.0957031,0.0238342,0.710388,-0.0236816,0.702911,-115.092,44.5333,-33.1167,-8011,-28781
60,8352,0,0,0,177.017,-89.3903,-0.878906,9.81436,0.0143555,-0.0717773,0.0238647,0.710388,-0.0237427,0.702911,-115.1,44.5667,-33.1167,-8011,-28781
66,8358,0,0,0,177.017,-89.3903,-0.878906,9.80957,0.00478516,-0.0957031,0.0238953,0.710388,-0.0237427,0.702911,-115.075,44.5833,-33.1,-8011,-28781
72,8364,0,0,0,177.012,-89.3958,-0.878906,9.8335,0.00478516,-0.090918,0.0239258,0.710388,-0.0237732,0.702911,-115.058,44.6,-33.1167,-8011,-28781
78,8370,0,0,0,177.006,-89.3903,-0.878906,9.79521,0.0191406,-0.090918,0.0239563,0.710388,-0.0238037,0.702911,-115.025,44.625,-33.125,-8011,-28781
84,8376,0,0,0,177.001,-89.3903,-0.884399,9.81436,0,-0.0957031,0.0239868,0.710388,-0.0238342,0.702911,-115,44.6333,-33.125,-8011,-28781
90,8382,0,0,0,176.995,-89.3903,-0.884399,9.79043,-0.00478516,-0.100488,0.0240479,0.710388,-0.0238953,0.702911,-114.983,44.6417,-33.0833,-8011,-28781
96,8388,0,0,0,176.995,-89.3903,-0.884399,9.80957,-0.0143555,-0.119629,0.0240479,0.710388,-0.0238953,0.702911,-114.992,44.625,-33.0167,-8011,-28781
102,8394,0,0,0,176.995,-89.3903,-0.884399,9.80479,0.00478516,-0.114844,0.0240479,0.710388,-0.0238953,0.702911,-115.008,44.6167,-32.9833,-8011,-28781
108,8400,0,0,0,176.995,-89.3903,-0.884399,9.82393,0.00478516,-0.0957031,0.0240479,0.710388,-0.0239258,0.702911,-115.017,44.6167,-32.95,-8011,-28781
114,8406,0,0,0,177.001,-89.3958,-0.889893,9.82871,-0.00957031,-0.0861328,0.0240479,0.710388,-0.0239258,0.702911,-115.033,44.6333,-32.9417,-8011,-28781
120,8412,0,0,0,177.001,-89.3958,-0.889893,9.81436,0.00478516,-0.110059,0.0240479,0.710388,-0.0238953,0.702911,-115.042,44.6333,-32.975,-8011,-28781
126,8418,0,0,0,177.001,-89.3903,-0.889893,9.81914,0.00957031,-0.110059,0.0240479,0.710388,-0.0238953,0.702911,-115.033,44.6333,-32.975,-8011,-28781
132,8424,0,0,0,177.001,-89.3958,-0.889893,9.83828,0.00957031,-0.105273,0.0240479,0.710388,-0.0238953,0.702911,-115.025,44.625,-32.9417,-8011,-28781
138,8430,0,0,0,177.001,-89.3958,-0.889893,9.79521,-0.00478516,-0.0861328,0.0240479,0.710388,-0.0238953,0.702911,-115.017,44.6417,-32.9083,-8011,-28781
144,8436,0,0,0,177.006,-89.3958,-0.895386,9.79521,0.00957031,-0.0765625,0.0240479,0.710388,-0.0238953,0.702911,-115,44.6583,-32.9,-8011,-28781
150,8442,0,0,0,177.001,-89.3958,-0.895386,9.8,0.00478516,-0.105273,0.0240784,0.710388,-0.0239258,0.702911,-114.975,44.6583,-32.95,-8011,-28781
156,8448,0,0,0,177.001,-89.3903,-0.895386,9.80957,-0.00478516,-0.0861328,0.0240784,0.710388,-0.0239563,0.702911,-114.975,44.6417,-33.0167,-8011,-28781
162,8454,0,0,0,177.001,-89.3958,-0.895386,9.80479,0.00478516,-0.119629,0.0241089,0.710388,-0.0239563,0.702911,-114.992,44.6333,-33.0667,-8011,-28781
168,8460,0,0,0,176.995,-89.3958,-0.895386,9.79521,0.00478516,-0.105273,0.0241089,0.710388,-0.0239868,0.702911,-115.008,44.65,-33.1083,-8011,-28781
174,8466,0,0,0,176.995,-89.3958,-0.900879,9.81914,0.00478516,-0.090918,0.0241394,0.710388,-0.0239868,0.702911,-115.017,44.675,-33.1417,-8011,-28781
180,8472,0,0,0,176.995,-89.3958,-0.900879,9.8,-0.00478516,-0.110059,0.0241394,0.710388,-0.0240173,0.702911,-115.025,44.7,-33.0917,-8011,-28781
186,8478,0,0,0,176.995,-89.3958,-0.900879,9.80479,-0.00957031,-0.100488,0.0241394,0.710388,-0.0240173,0.702911,-115.017,44.7,-33.05,-8011,-28781
192,8484,0,0,0,177.001,-89.3958,-0.900879,9.80957,0.0287109,-0.114844,0.0241394,0.710388,-0.0239868,0.702911,-115.008,44.6833,-32.9667,-8011,-28781
198,8490,0,0,0,177.001,-89.3958,-0.900879,9.80479,0.0191406,-0.105273,0.0241394,0.710388,-0.0239868,0.702911,-114.983,44.6583,-32.9167,-8011,-28781
204,8496,0,0,0,177.001,-89.3958,-0.906372,9.79521,-0.0143555,-0.0765625,0.0241394,0.710388,-0.0240173,0.702911,-114.958,44.6417,-32.8667,-8011,-28781
210,8502,0,0,0,177.001,-89.3958,-0.906372,9.81436,0.0143555,-0.0717773,0.0241394,0.710388,-0.0240173,0.702911,-114.925,44.6417,-32.8417,-8011,-28781
216,8508,0,0,0,177.001,-89.3958,-0.906372,9.80479,0,-0.0957031,0.0241394,0.710358,-0.0240173,0.702911,-114.933,44.65,-32.875,-8011,-28781
222,8514,0,0,0,177.001,-89.3958,-0.906372,9.8,0,-0.100488,0.0241394,0.710358,-0.0240173,0.702942,-114.95,44.675,-32.9,-8011,-28781
228,8520,0,0,0,177.001,-89.3958,-0.906372,9.79043,0,-0.119629,0.0241394,0.710358,-0.0240173,0.702942,-114.958,44.7,-32.925,-8011,-28781
234,8526,0,0,0,177.006,-89.3958,-0.911865,9.8,0.0191406,-0.100488,0.0241394,0.710358,-0.0240173,0.702942,-114.975,44.7333,-32.95,-8011,-28781
240,8532,0,0,0,177.006,-89.3958,-0.911865,9.79043,-0.00478516,-0.062207,0.0241394,0.710358,-0.0240173,0.702942,-115.017,44.7333,-33.0333,-8011,-28781
246,8538,0,0,0,177.006,-89.3958,-0.911865,9.80957,0,-0.100488,0.0241394,0.710358,-0.0240173,0.702942,-115.042,44.7167,-33.0667,-8011,-28781
252,8544,0,0,0,177.006,-89.3958,-0.911865,9.79043,0.00478516,-0.119629,0.0241394,0.710358,-0.0239868,0.702942,-115.05,44.675,-33.075,-8011,-28781
258,8550,0,0,0,177.012,-89.3958,-0.911865,9.80957,0,-0.0813477,0.0241394,0.710358,-0.0239868,0.702942,-115.058,44.6417,-33.0667,-8011,-28781
264,8556,0,0,0,177.017,-89.3958,-0.917358,9.8,0.00957031,-0.100488,0.0241089,0.710358,-0.0239868,0.702942,-115.058,44.6667,-33.0167,-8011,-28781
270,8562,0,0,0,177.017,-89.3958,-0.917358,9.8,-0.00478516,-0.0957031,0.0241089,0.710358,-0.0239868,0.702942,-115.067,44.6917,-33.0167,-8011,-28781
276,8568,0,0,0,177.017,-89.3958,-0.917358,9.80479,0,-0.090918,0.0241089,0.710358,-0.0239563,0.702942,-115.083,44.7,-33.0333,-8011,-28781
282,8574,0,0,0,177.023,-89.3958,-0.917358,9.80957,0.00478516,-0.110059,0.0240784,0.710358,-0.0239563,0.702942,-115.108,44.7,-33.075,-8011,-28781
288,8580,0,0,0,177.023,-89.3958,-0.917358,9.81436,0.00478516,-0.119629,0.0240784,0.710358,-0.0239563,0.702942,-115.133,44.6917,-33.1167,-8011,-28781
294,8586,0,0,0,177.028,-89.3958,-0.922852,9.8,0.00957031,-0.110059,0.0240784,0.710358,-0.0239258,0.702942,-115.133,44.675,-33.15,-8011,-28781
300,8592,0,0,0,177.028,-89.3958,-0.922852,9.82393,0.00957031,-0.119629,0.0240479,0.710358,-0.0239258,0.702942,-115.092,44.675,-33.1583,-8011,-28781
306,8598,0,0,0,177.034,-89.3958,-0.922852,9.81436,0.00478516,-0.124414,0.0240479,0.710358,-0.0239258,0.702942,-115.05,44.6833,-33.1667,-8011,-28781
312,8604,0,0,0,177.034,-89.3958,-0.922852,9.80479,0.0143555,-0.0861328,0.0240479,0.710358,-0.0239258,0.702942,-115.025,44.6917,-33.1583,-8011,-28781
318,8610,0,0,0,177.034,-89.3958,-0.922852,9.80957,-0.00957031,-0.090918,0.0240479,0.710358,-0.0239258,0.702942,-115.008,44.7,-33.1417,-8011,-28781
324,8616,0,0,0,177.034,-89.3958,-0.922852,9.80479,0.00957031,-0.105273,0.0240479,0.710358,-0.0239258,0.702942,-115.008,44.7,-33.1,-8011,-28781
330,8622,0,0,0,177.039,-89.3958,-0.928345,9.82393,0.0191406,-0.105273,0.0240479,0.710358,-0.0239258,0.702942,-115.025,44.675,-33.0583,-8011,-28781
336,8628,0,0,0,177.034,-89.3958,-0.928345,9.78564,0.00478516,-0.090918,0.0240479,0.710358,-0.0239258,0.702942,-115.042,44.6583,-33.0167,-8011,-28781
342,8634,0,0,0,177.034,-89.3958,-0.928345,9.82871,0,-0.105273,0.0240479,0.710358,-0.0239258,0.702942,-115.05,44.6417,-32.9833,-8011,-28781
348,8640,0,0,0,177.034,-89.3958,-0.928345,9.82393,0,-0.110059,0.0240784,0.710358,-0.0239258,0.702942,-115.075,44.65,-32.9167,-8011,-28781
354,8646,0,0,0,177.034,-89.3958,-0.928345,9.79521,0.0239258,-0.100488,0.0240784,0.710358,-0.0239563,0.702942,-115.075,44.7,-32.9833,-8011,-28781
360,8652,0,0,0,177.034,-89.3958,-0.928345,9.79043,-0.00478516,-0.105273,0.0241089,0.710358,-0.0239563,0.702942,-115.05,44.7167,-33.0417,-8011,-28781
366,8658,0,0,0,177.034,-89.3958,-0.933838,9.82393,0,-0.0861328,0.0241089,0.710358,-0.0239868,0.702942,-115.008,44.7417,-33.15,-8011,-28781
372,8664,0,0,0,177.034,-89.3958,-0.933838,9.8335,0.00957031,-0.0765625,0.0241089,0.710358,-0.0239868,0.702942,-114.983,44.7583,-33.2167,-8011,-28781
378,8670,0,0,0,177.034,-89.3958,-0.933838,9.80957,0.0239258,-0.090918,0.0241089,0.710358,-0.0239868,0.702942,-114.958,44.7667,-33.25,-8011,-28781
384,8676,0,0,0,177.028,-89.3958,-0.933838,9.81914,0.0143555,-0.0813477,0.0241394,0.710358,-0.0240173,0.702942,-114.958,44.7417,-33.2333,-8011,-28781
390,8682,0,0,0,177.023,-89.3958,-0.933838,9.80957,-0.00957031,-0.105273,0.0241699,0.710358,-0.0240479,0.702942,-114.958,44.725,-33.1583,-8011,-28781
396,8688,0,0,0,177.023,-89.3958,-0.939331,9.8,0,-0.0957031,0.0242004,0.710358,-0.0240479,0.702942,-114.95,44.7083,-33.1,-8011,-28781
402,8694,0,0,0,177.023,-89.3958,-0.939331,9.80957,-0.00957031,-0.0957031,0.0242004,0.710358,-0.0240784,0.702942,-114.942,44.7,-33.0417,-8011,-28781
408,8700,0,0,0,177.023,-89.3958,-0.939331,9.8,0.00478516,-0.110059,0.0242004,0.710358,-0.0240784,0.702942,-114.942,44.7,-32.9917,-8011,-28781
414,8706,0,0,0,177.023,-89.3958,-0.939331,9.8,0.00957031,-0.105273,0.0242004,0.710358,-0.0240784,0.702942,-114.967,44.675,-32.9417,-8011,-28781
420,8712,0,0,0,177.023,-89.3958,-0.939331,9.79043,0,-0.0813477,0.0242004,0.710358,-0.0240784,0.702942,-114.967,44.65,-32.9333,-8011,-28781
426,8718,0,0,0,177.023,-89.3958,-0.939331,9.80957,0.00478516,-0.0957031,0.0242004,0.710358,-0.0240784,0.702942,-114.975,44.6333,-32.9167,-8011,-28781
432,8724,0,0,0,177.023,-89.3958,-0.944824,9.81914,-0.00478516,-0.119629,0.024231,0.710358,-0.0240784,0.702942,-114.975,44.6333,-32.8917,-8011,-28781
438,8730,0,0,0,177.028,-89.3958,-0.944824,9.82393,-0.00478516,-0.105273,0.0242004,0.710358,-0.0240784,0.702942,-114.983,44.6333,-32.8667,-8011,-28781
444,8736,0,0,0,177.034,-89.3958,-0.944824,9.80957,0,-0.0957031,0.0242004,0.710358,-0.0240784,0.702942,-115.017,44.675,-32.8583,-8011,-28781
450,8742,0,0,0,177.034,-89.3958,-0.944824,9.80957,0.0334961,-0.124414,0.0241699,0.710358,-0.0240479,0.702942,-115.025,44.6917,-32.9167,-8011,-28781
456,8748,0,0,0,177.034,-89.3958,-0.944824,9.80957,-0.00957031,-0.090918,0.0242004,0.710358,-0.0240479,0.702942,-115.017,44.7083,-32.9833,-8011,-28781
462,8754,0,0,0,177.034,-89.3958,-0.944824,9.79521,0.00478516,-0.0957031,0.0242004,0.710358,-0.0240479,0.702942,-115.008,44.725,-33.025,-8011,-28781
468,8760,0,0,0,177.034,-89.3958,-0.944824,9.78564,0.00957031,-0.110059,0.0242004,0.710358,-0.0240479,0.702942,-115,44.725,-33.0667,-8011,-28781
474,8766,0,0,0,177.034,-89.3958,-0.950317,9.79043,0,-0.119629,0.0242004,0.710358,-0.0240479,0.702942,-115.008,44.7167,-33,-8011,-28781
480,8772,0,0,0,177.039,-89.3958,-0.950317,9.8,0,-0.090918,0.0242004,0.710358,-0.0240479,0.702942,-115.017,44.7083,-32.9667,-8011,-28781
486,8778,0,0,0,177.039,-89.3958,-0.950317,9.81436,0,-0.090918,0.0241699,0.710358,-0.0240479,0.702942,-115.017,44.6917,-32.9083,-8011,-28781
492,8784,0,0,0,177.039,-89.3958,-0.950317,9.81436,0.0191406,-0.124414,0.0241699,0.710358,-0.0240479,0.702942,-115.017,44.6917,-32.8667,-8011,-28781
498,8790,0,0,0,177.045,-89.3958,-0.950317,9.79043,0,-0.114844,0.0241699,0.710358,-0.0240479,0.702942,-115.008,44.7,-32.8583,-8011,-28781
504,8796,0,0,0,177.045,-89.3958,-0.955811,9.79521,-0.00957031,-0.0861328,0.0241699,0.710358,-0.0240479,0.702942,-115.008,44.7167,-32.8833,-8011,-28781
510,8802,0,0,0,177.05,-89.3958,-0.955811,9.80957,0.00957031,-0.0813477,0.0241394,0.710358,-0.0240173,0.702942,-115,44.7167,-32.8833,-8011,-28781
516,8808,0,0,0,177.05,-89.3958,-0.955811,9.81436,0.0239258,-0.090918,0.0241394,0.710358,-0.0240173,0.702942,-114.992,44.7083,-32.8917,-8011,-28781
522,8814,0,0,0,177.05,-89.3958,-0.955811,9.8,0,-0.0957031,0.0241394,0.710358,-0.0240173,0.702942,-114.983,44.6833,-32.9,-8011,-28781
528,8820,0,0,0,177.05,-89.3958,-0.955811,9.8,0.0287109,-0.0957031,0.0241394,0.710358,-0.0240173,0.702942,-114.983,44.6583,-32.9083,-8011,-28781
534,8826,0,0,0,177.045,-89.3958,-0.955811,9.81914,0.0287109,-0.105273,0.0242004,0.710358,-0.0240784,0.702942,-114.975,44.6167,-32.9,-8011,-28781
540,8832,0,0,0,177.039,-89.3958,-0.961304,9.8,0.00478516,-0.090918,0.024231,0.710358,-0.0241089,0.702942,-114.983,44.5917,-32.8583,-8011,-28781
546,8838,0,0,0,177.034,-89.3958,-0.961304,9.8,-0.00478516,-0.105273,0.0242615,0.710358,-0.0241394,0.702942,-114.992,44.5667,-32.825,-8011,-28781
552,8844,0,0,0,177.034,-89.3958,-0.961304,9.82393,0.00478516,-0.105273,0.024292,0.710358,-0.0241699,0.702942,-115.017,44.5583,-32.775,-8011,-28781
558,8850,0,0,0,177.028,-89.3958,-0.961304,9.82393,0.00957031,-0.133984,0.0243225,0.710358,-0.0241699,0.702942,-115.042,44.5417,-32.7667,-8011,-28781
564,8856,0,0,0,177.023,-89.3958,-0.961304,9.79043,0,-0.100488,0.024353,0.710358,-0.024231,0.702911,-115.092,44.5167,-32.7917,-8011,-28781
570,8862,0,0,0,177.017,-89.3958,-0.961304,9.79521,-0.00478516,-0.100488,0.0243835,0.710358,-0.0242615,0.702911,-115.108,44.5167,-32.8167,-8011,-28781
576,8868,0,0,0,177.017,-89.3958,-0.961304,9.80957,-0.00957031,-0.090918,0.0244141,0.710358,-0.0242615,0.702911,-115.133,44.5167,-32.8083,-8011,-28781
582,8874,0,0,0,177.017,-89.3958,-0.966797,9.79521,0.00478516,-0.100488,0.0244141,0.710358,-0.024292,0.702911,-115.158,44.5333,-32.8083,-8011,-28781
588,8880,0,0,0,177.012,-89.3958,-0.966797,9.81914,0,-0.105273,0.0244141,0.710358,-0.024292,0.702911,-115.175,44.5417,-32.7833,-8011,-28781
594,8886,0,0,0,177.012,-89.3958,-0.966797,9.79043,0.0334961,-0.0765625,0.0244446,0.710358,-0.0243225,0.702911,-115.2,44.5333,-32.7417,-8011,-28781
600,8892,0,0,0,177.006,-89.3958,-0.966797,9.81436,0.00478516,-0.090918,0.0244751,0.710358,-0.024353,0.702911,-115.192,44.5083,-32.7333,-8011,-28781
606,8898,0,0,0,177.006,-89.3958,-0.966797,9.79521,0.0287109,-0.110059,0.0245056,0.710358,-0.0243835,0.702911,-115.183,44.475,-32.7083,-8011,-28781
612,8904,0,0,0,177.001,-89.3958,-0.966797,9.82393,0,-0.0813477,0.0245361,0.710358,-0.0244141,0.702911,-115.167,44.45,-32.7083,-8011,-28781
618,8910,0,0,0,176.995,-89.3958,-0.97229,9.80957,-0.00478516,-0.090918,0.0245667,0.710358,-0.0244446,0.702911,-115.125,44.425,-32.7,-8011,-28781
624,8916,0,0,0,176.99,-89.3958,-0.97229,9.79521,0.00478516,-0.105273,0.0246277,0.710358,-0.0245056,0.702911,-115.017,44.4083,-32.7333,-8011,-28781
630,8922,0,0,0,176.984,-89.3958,-0.97229,9.81914,0,-0.0957031,0.0246582,0.710358,-0.0245361,0.702911,-115,44.425,-32.7583,-8011,-28781
636,8928,0,0,0,176.979,-89.3958,-0.97229,9.81436,0.0191406,-0.105273,0.0246887,0.710358,-0.0245667,0.702911,-114.992,44.4417,-32.775,-8011,-28781
642,8934,0,0,0,176.973,-89.3958,-0.97229,9.82393,0,-0.0957031,0.0247192,0.710358,-0.0245972,0.702911,-114.992,44.475,-32.775,-8011,-28781
648,8940,0,0,0,176.968,-89.3958,-0.97229,9.79043,0.0143555,-0.0957031,0.0247803,0.710358,-0.0246277,0.702911,-115,44.4917,-32.7833,-8011,-28781
654,8946,0,0,0,176.951,-89.3958,-0.977783,9.79521,0.0287109,-0.105273,0.0248718,0.710327,-0.0247192,0.702911,-115,44.525,-32.8333,-8011,-28781
660,8952,0,0,0,176.946,-89.3958,-0.977783,9.8,0,-0.0717773,0.0249023,0.710327,-0.0247803,0.702911,-115.017,44.5333,-32.8333,-8011,-28781
666,8958,0,0,0,176.94,-89.3958,-0.977783,9.8,0.00957031,-0.119629,0.0249634,0.710327,-0.0248413,0.702911,-115.033,44.5417,-32.85,-8011,-28781
672,8964,0,0,0,176.929,-89.3958,-0.977783,9.80957,0.0143555,-0.0861328,0.0250244,0.710327,-0.0248718,0.702911,-115.05,44.55,-32.8833,-8011,-28781
678,8970,0,0,0,176.924,-89.3958,-0.977783,9.80479,0.00478516,-0.0957031,0.0250549,0.710327,-0.0249329,0.702911,-115.075,44.5667,-32.9,-8011,-28781
684,8976,0,0,0,176.907,-89.3958,-0.977783,9.81436,0,-0.0957031,0.025177,0.710327,-0.0250244,0.702911,-115.117,44.5667,-32.9667,-8011,-28781
690,8982,0,0,0,176.902,-89.3958,-0.983276,9.83828,0.00957031,-0.13877,0.025238,0.710327,-0.0250854,0.702911,-115.108,44.575,-32.975,-8011,-28781
696,8988,0,0,0,176.891,-89.3958,-0.983276,9.82871,0.00957031,-0.100488,0.0252686,0.710327,-0.0251465,0.702911,-115.075,44.5667,-32.9583,-8011,-28781
702,8994,0,0,0,176.885,-89.3958,-0.983276,9.80957,0.0191406,-0.110059,0.0253296,0.710327,-0.025177,0.702881,-115.033,44.5583,-32.9417,-8011,-28781
708,9000,0,0,0,176.874,-89.3958,-0.983276,9.80957,0.0191406,-0.0861328,0.0253906,0.710327,-0.025238,0.702881,-114.992,44.5583,-32.9167,-8011,-28781
714,9006,0,0,0,176.858,-89.3958,-0.983276,9.80479,-0.00957031,-0.114844,0.0255127,0.710327,-0.0253601,0.702881,-114.942,44.5583,-32.8333,-8011,-28781
720,9012,0,0,0,176.852,-89.3958,-0.983276,9.80957,0.00478516,-0.110059,0.0255432,0.710327,-0.0254211,0.702881,-114.958,44.575,-32.8333,-8011,-28781
726,9018,0,0,0,176.847,-89.3958,-0.983276,9.80957,0,-0.0957031,0.0256042,0.710297,-0.0254517,0.702881,-114.983,44.5917,-32.825,-8011,-28781
732,9024,0,0,0,176.841,-89.3958,-0.983276,9.8,0.00478516,-0.0861328,0.0256348,0.710297,-0.0254822,0.702881,-115.017,44.6,-32.85,-8011,-28781
738,9030,0,0,0,176.836,-89.3958,-0.98877,9.82393,0.00478516,-0.062207,0.0256653,0.710297,-0.0255432,0.702881,-115.025,44.6083,-32.875,-8011,-28781
744,9036,0,0,0,176.825,-89.3958,-0.98877,9.80479,0,-0.0957031,0.0257568,0.710297,-0.0256042,0.702881,-115.033,44.625,-32.85,-8011,-28781
750,9042,0,0,0,176.819,-89.3958,-0.98877,9.80479,0,-0.110059,0.0257874,0.710297,-0.0256348,0.702881,-115.042,44.6333,-32.8167,-8011,-28781
756,9048,0,0,0,176.814,-89.3958,-0.98877,9.80479,0.0191406,-0.0957031,0.0258179,0.710297,-0.0256653,0.702881,-115.058,44.65,-32.825,-8011,-28781
762,9054,0,0,0,176.808,-89.3958,-0.98877,9.80479,-0.00478516,-0.0861328,0.0258484,0.710297,-0.0257263,0.702881,-115.058,44.6583,-32.85,-8011,-28781
768,9060,0,0,0,176.803,-89.3958,-0.98877,9.8,-0.00478516,-0.13877,0.0258789,0.710297,-0.0257568,0.702881,-115.067,44.6667,-32.8917,-8011,-28781
774,9066,0,0,0,176.797,-89.3958,-0.994263,9.81436,0.00478516,-0.0957031,0.0259399,0.710297,-0.0257874,0.702881,-115.075,44.675,-32.9833,-8011,-28781
780,9072,0,0,0,176.797,-89.3958,-0.994263,9.81436,0,-0.119629,0.0259399,0.710297,-0.0258179,0.702881,-115.075,44.6583,-32.95,-8011,-28781
786,9078,0,0,0,176.792,-89.3958,-0.994263,9.8,0.00478516,-0.105273,0.0259705,0.710297,-0.0258179,0.702881,-115.083,44.6417,-32.9583,-8011,-28781
792,9084,0,0,0,176.792,-89.3958,-0.994263,9.8335,0.00957031,-0.110059,0.026001,0.710297,-0.0258484,0.702881,-115.092,44.65,-32.9917,-8011,-28781
798,9090,0,0,0,176.786,-89.3958,-0.994263,9.80479,0.00957031,-0.105273,0.026001,0.710297,-0.0258789,0.702881,-115.092,44.6583,-33.0583,-8011,-28781
804,9096,0,0,0,176.781,-89.3958,-0.994263,9.81914,0.0191406,-0.119629,0.026062,0.710297,-0.0259094,0.702881,-115.042,44.7,-33.1917,-8011,-28781
810,9102,0,0,0,176.776,-89.3958,-0.994263,9.81436,-0.00478516,-0.105273,0.0260925,0.710297,-0.0259399,0.702881,-115.017,44.7167,-33.1833,-8011,-28781
816,9108,0,0,0,176.776,-89.3958,-0.994263,9.84307,0.00478516,-0.114844,0.0260925,0.710297,-0.0259705,0.702881,-114.992,44.725,-33.1417,-8011,-28781
822,9114,0,0,0,176.77,-89.3958,-0.999756,9.78564,0.0239258,-0.0813477,0.026123,0.710297,-0.0259705,0.702881,-114.983,44.7417,-33.1167,-8011,-28781
828,9120,0,0,0,176.765,-89.3958,-0.999756,9.80479,0,-0.105273,0.0261536,0.710297,-0.026001,0.702881,-114.975,44.75,-33.075,-8011,-28781
834,9126,0,0,0,176.759,-89.3958,-0.999756,9.80957,0.0191406,-0.0861328,0.0262146,0.710297,-0.026062,0.70285,-114.967,44.7667,-33.0417,-8011,-28781
840,9132,0,0,0,176.754,-89.3958,-0.999756,9.79521,0.0239258,-0.114844,0.0262756,0.710297,-0.026123,0.70285,-114.958,44.775,-33.025,-8011,-28781
846,9138,0,0,0,176.743,-89.3958,-0.999756,9.79043,-0.00957031,-0.0957031,0.0263062,0.710297,-0.0261841,0.70285,-114.958,44.7667,-32.9917,-8011,-28781
852,9144,0,0,0,176.737,-89.3958,-0.999756,9.80957,0,-0.0957031,0.0263672,0.710297,-0.0262146,0.70285,-114.933,44.7417,-32.95,-8011,-28781
858,9150,0,0,0,176.726,-89.3958,-0.999756,9.8,-0.00478516,-0.0717773,0.0263977,0.710297,-0.0262451,0.70285,-114.9,44.7167,-32.9417,-8011,-28781
864,9156,0,0,0,176.726,-89.3958,-1.00525,9.81914,-0.00957031,-0.0861328,0.0264282,0.710266,-0.0263062,0.70285,-114.858,44.675,-32.9083,-8011,-28781
870,9162,0,0,0,176.726,-89.3958,-1.00525,9.80957,0.00478516,-0.0813477,0.0264587,0.710266,-0.0263062,0.70285,-114.833,44.6667,-32.9083,-8011,-28781
876,9168,0,0,0,176.726,-89.3958,-1.00525,9.83828,-0.00478516,-0.0957031,0.0264587,0.710266,-0.0263062,0.70285,-114.85,44.675,-32.9,-8011,-28781
882,9174,0,0,0,176.726,-89.3958,-1.00525,9.80479,0,-0.0717773,0.0264587,0.710266,-0.0263062,0.70285,-114.875,44.6833,-32.8667,-8011,-28781
888,9180,0,0,0,176.732,-89.3958,-1.00525,9.80957,-0.0143555,-0.090918,0.0264587,0.710266,-0.0263062,0.70285,-114.892,44.7,-32.8667,-8011,-28781
894,9186,0,0,0,176.732,-89.3958,-1.00525,9.8,0.0334961,-0.0957031,0.0264282,0.710266,-0.0262756,0.70285,-114.908,44.7,-32.7917,-8011,-28781
900,9192,0,0,0,176.732,-89.3958,-1.00525,9.80479,0.0191406,-0.105273,0.0264282,0.710266,-0.0262756,0.70285,-114.917,44.6833,-32.775,-8011,-28781
906,9198,0,0,0,176.732,-89.3958,-1.00525,9.79043,0.0382813,-0.100488,0.0264282,0.710266,-0.0263062,0.70285,-114.917,44.65,-32.7583,-8011,-28781
912,9204,0,0,0,176.726,-89.3958,-1.00525,9.78086,0.0239258,-0.114844,0.0264893,0.710266,-0.0263367,0.70285,-114.933,44.65,-32.7667,-8011,-28781
918,9210,0,0,0,176.715,-89.3958,-1.01074,9.80479,-0.0191406,-0.124414,0.0265198,0.710266,-0.0263672,0.70285,-114.95,44.6417,-32.7667,-8011,-28781
924,9216,0,0,0,176.715,-89.3958,-1.01074,9.84785,-0.00478516,-0.114844,0.0265503,0.710266,-0.0264282,0.70285,-114.975,44.65,-32.75,-8011,-28781
930,9222,0,0,0,176.71,-89.3958,-1.01074,9.81436,0,-0.114844,0.0265808,0.710266,-0.0264282,0.70285,-115,44.65,-32.7167,-8011,-28781
936,9228,0,0,0,176.71,-89.3958,-1.01074,9.81914,-0.00957031,-0.114844,0.0265808,0.710266,-0.0264282,0.70285,-115.033,44.65,-32.675,-8011,-28781
942,9234,0,0,0,176.71,-89.3958,-1.01074,9.82393,0.00957031,-0.124414,0.0265808,0.710266,-0.0264587,0.70285,-115.033,44.6417,-32.7,-8011,-28781
948,9240,0,0,0,176.71,-89.3958,-1.01074,9.82393,-0.00478516,-0.0765625,0.0266113,0.710266,-0.0264587,0.70285,-115.017,44.65,-32.7833,-8011,-28781
954,9246,0,0,0,176.71,-89.3958,-1.01074,9.8,0.0143555,-0.090918,0.0265808,0.710266,-0.0264587,0.70285,-115.008,44.6583,-32.8333,-8011,-28781
960,9252,0,0,0,176.715,-89.3958,-1.01624,9.8,-0.00478516,-0.0861328,0.0265808,0.710266,-0.0264282,0.70285,-115,44.6833,-32.8417,-8011,-28781
966,9258,0,0,0,176.715,-89.3958,-1.01624,9.8,0.00957031,-0.105273,0.0265808,0.710266,-0.0264282,0.70285,-115.008,44.6917,-32.85,-8011,-28781
972,9264,0,0,0,176.715,-89.3958,-1.01624,9.80479,0.0143555,-0.0813477,0.0265808,0.710266,-0.0264282,0.70285,-115.025,44.6833,-32.85,-8011,-28781
978,9270,0,0,0,176.715,-89.3958,-1.01624,9.79521,0.00478516,-0.110059,0.0265808,0.710266,-0.0264282,0.70285,-115.075,44.7,-32.8833,-8011,-28781
984,9276,0,0,0,176.715,-89.3958,-1.01624,9.80479,0,-0.0861328,0.0265808,0.710266,-0.0264282,0.70285,-115.108,44.7167,-32.8667,-8011,-28781
990,9282,0,0,0,176.721,-89.3958,-1.01624,9.81436,0.00957031,-0.105273,0.0265808,0.710266,-0.0264282,0.70285,-115.117,44.7417,-32.8833,-8011,-28781
996,9288,0,0,0,176.721,-89.3958,-1.01624,9.80957,-0.00957031,-0.114844,0.0265808,0.710266,-0.0264282,0.70285,-115.117,44.7583,-32.8917,-8011,-28781
1002,9294,0,0,0,176.721,-89.3958,-1.01624,9.80479,0,-0.0957031,0.0265808,0.710266,-0.0264282,0.70285,-115.117,44.7667,-32.8917,-8011,-28781
1008,9300,0,0,0,176.726,-89.3958,-1.02173,9.8335,0.00957031,-0.105273,0.0265503,0.710266,-0.0263977,0.70285,-115.125,44.7833,-32.9167,-8011,-28781
1014,9306,0,0,0,176.726,-89.3958,-1.02173,9.80957,0.0382813,-0.105273,0.0265503,0.710266,-0.0263977,0.70285,-115.125,44.7833,-32.95,-8011,-28781
1020,9312,0,0,0,176.726,-89.3958,-1.02173,9.82871,-0.00957031,-0.100488,0.0265503,0.710266,-0.0263977,0.70285,-115.125,44.775,-32.975,-8011,-28781
1026,9318,0,0,0,176.726,-89.3958,-1.02173,9.80479,0,-0.0765625,0.0265503,0.710266,-0.0263977,0.70285,-115.142,44.7583,-33,-8011,-28781
1032,9324,0,0,0,176.732,-89.3958,-1.02173,9.80957,-0.0191406,-0.105273,0.0265503,0.710266,-0.0263977,0.70285,-115.158,44.7417,-33.0167,-8011,-28781
1038,9330,0,0,0,176.737,-89.3958,-1.02173,9.80479,0,-0.114844,0.0265198,0.710266,-0.0263672,0.70285,-115.167,44.7167,-33,-8011,-28781
1044,9336,0,0,0,176.743,-89.3958,-1.02173,9.79521,0.00957031,-0.133984,0.0264893,0.710266,-0.0263367,0.70285,-115.167,44.7167,-33.025,-8011,-28781
1050,9342,0,0,0,176.743,-89.3958,-1.02173,9.81436,0.00478516,-0.090918,0.0264587,0.710266,-0.0263062,0.70285,-115.142,44.6917,-33.0167,-8011,-28781
1056,9348,0,0,0,176.748,-89.3958,-1.02173,9.80479,-0.00957031,-0.114844,0.0264587,0.710266,-0.0263062,0.70285,-115.117,44.6833,-33.0333,-8011,-28781
1062,9354,0,0,0,176.748,-89.3958,-1.02722,9.80957,0,-0.0957031,0.0264282,0.710266,-0.0262756,0.70285,-115.1,44.6917,-33.0417,-8011,-28781
1068,9360,0,0,0,176.759,-89.3958,-1.02722,9.79043,0.00478516,-0.0717773,0.0263977,0.710266,-0.0262451,0.70285,-115.083,44.7,-33.05,-8011,-28781
1074,9366,0,0,0,176.765,-89.3958,-1.02722,9.81914,0.00478516,-0.0669922,0.0263672,0.710297,-0.0262146,0.70285,-115.083,44.7083,-33.0667,-8011,-28781
1080,9372,0,0,0,176.765,-89.3958,-1.02722,9.81436,0,-0.105273,0.0263367,0.710297,-0.0262146,0.70285,-115.075,44.7,-33.05,-8011,-28781
1086,9378,0,0,0,176.77,-89.3958,-1.02722,9.80479,0.00478516,-0.0861328,0.0263367,0.710297,-0.0261841,0.70285,-115.058,44.6667,-33.025,-8011,-28781
1092,9384,0,0,0,176.77,-89.3958,-1.02722,9.80479,-0.00478516,-0.114844,0.0263062,0.710297,-0.0261841,0.70285,-115.067,44.6583,-32.9917,-8011,-28781
1098,9390,0,0,0,176.781,-89.3958,-1.02722,9.80479,-0.0143555,-0.0957031,0.0263062,0.710297,-0.0261536,0.70285,-115.058,44.6167,-32.9917,-8011,-28781
1104,9396,0,0,0,176.786,-89.3958,-1.02722,9.81914,0.00478516,-0.0765625,0.0262451,0.710297,-0.0260925,0.70285,-115.05,44.5833,-32.975,-8011,-28781
1110,9402,0,0,0,176.792,-89.3958,-1.02722,9.80957,0.0143555,-0.100488,0.0262146,0.710297,-0.026062,0.702881,-115.025,44.55,-33.0083,-8011,-28781
1116,9408,0,0,0,176.792,-89.3958,-1.03271,9.79521,0.00957031,-0.133984,0.0261841,0.710297,-0.026062,0.702881,-115,44.5333,-33.0833,-8011,-28781
1122,9414,0,0,0,176.797,-89.3958,-1.03271,9.80957,0.0191406,-0.100488,0.0261841,0.710297,-0.0260315,0.702881,-114.975,44.5167,-33.125,-8011,-28781
1128,9420,0,0,0,176.797,-89.3958,-1.03271,9.80479,0,-0.105273,0.0261841,0.710297,-0.0260315,0.702881,-114.983,44.5583,-33.075,-8011,-28781
1134,9426,0,0,0,176.803,-89.3958,-1.03271,9.80957,0,-0.090918,0.0261536,0.710297,-0.026001,0.702881,-114.983,44.5833,-33,-8011,-28781
1140,9432,0,0,0,176.803,-89.3958,-1.03271,9.80479,0.00478516,-0.0861328,0.0261536,0.710297,-0.026001,0.702881,-115.008,44.6083,-32.9417,-8011,-28781
1146,9438,0,0,0,176.808,-89.3958,-1.03271,9.80957,0,-0.0957031,0.026123,0.710297,-0.026001,0.702881,-115.017,44.625,-32.9417,-8011,-28781
1152,9444,0,0,0,176.808,-89.3958,-1.03271,9.80479,0,-0.0765625,0.026123,0.710297,-0.0259705,0.702881,-115.017,44.6333,-32.9583,-8011,-28781
1158,9450,0,0,0,176.814,-89.3958,-1.03271,9.80479,0,-0.100488,0.0260925,0.710297,-0.0259705,0.702881,-115.075,44.675,-33.0833,-8011,-28781
1164,9456,0,0,0,176.819,-89.3958,-1.03271,9.82393,-0.00478516,-0.0861328,0.026062,0.710297,-0.0259094,0.702881,-115.092,44.7,-33.1167,-8011,-28781
1170,9462,0,0,0,176.825,-89.3958,-1.03821,9.80957,-0.00957031,-0.105273,0.0260315,0.710297,-0.0258789,0.702881,-115.108,44.7333,-33.1583,-8011,-28781
1176,9468,0,0,0,176.83,-89.3958,-1.03821,9.8,0.0191406,-0.100488,0.026001,0.710297,-0.0258484,0.702881,-115.133,44.75,-33.1833,-8011,-28781
1182,9474,0,0,0,176.836,-89.3958,-1.03821,9.82871,-0.00478516,-0.0813477,0.0259705,0.710297,-0.0258179,0.702881,-115.142,44.725,-33.1417,-8011,-28781
1188,9480,0,0,0,176.847,-89.3958,-1.03821,9.8,0.00478516,-0.0861328,0.0259399,0.710297,-0.0257874,0.702881,-115.142,44.7083,-33.0667,-8011,-28781
1194,9486,0,0,0,176.852,-89.3958,-1.03821,9.8,0.00478516,-0.100488,0.0258484,0.710297,-0.0257263,0.702881,-115.108,44.7083,-33.0417,-8011,-28781
1200,9492,0,0,0,176.858,-89.3958,-1.03821,9.8335,0,-0.0717773,0.0258179,0.710297,-0.0256958,0.702881,-115.092,44.7083,-33.0083,-8011,-28781
1206,9498,0,0,0,176.863,-89.3958,-1.03821,9.8,0.0239258,-0.0861328,0.0258179,0.710297,-0.0256653,0.702881,-115.067,44.7,-32.9917,-8011,-28781
1212,9504,0,0,0,176.869,-89.3958,-1.03821,9.8,0.0239258,-0.105273,0.0257874,0.710297,-0.0256653,0.702881,-115.05,44.6667,-32.9833,-8011,-28781
1218,9510,0,0,0,176.869,-89.3958,-1.03821,9.8,0,-0.119629,0.0257874,0.710297,-0.0256653,0.702881,-115.042,44.6167,-32.9583,-8011,-28781
1224,9516,0,0,0,176.869,-89.3958,-1.03821,9.80957,0.0287109,-0.110059,0.0257874,0.710297,-0.0256653,0.702881,-115.042,44.6167,-32.95,-8011,-28781
1230,9522,0,0,0,176.869,-89.3958,-1.03821,9.8,0.0191406,-0.0765625,0.0257874,0.710297,-0.0256653,0.702881,-115.042,44.625,-32.9333,-8011,-28781
1236,9528,0,0,0,176.863,-89.3958,-1.0437,9.80957,0.0191406,-0.062207,0.0258179,0.710297,-0.0256653,0.702881,-115.067,44.6333,-32.9417,-8011,-28781
1242,9534,0,0,0,176.863,-89.3958,-1.0437,9.80479,0,-0.124414,0.0258484,0.710297,-0.0256958,0.702881,-115.117,44.6417,-32.925,-8011,-28781
1248,9540,0,0,0,176.852,-89.3958,-1.0437,9.81436,0.00478516,-0.100488,0.0258789,0.710297,-0.0257568,0.702881,-115.167,44.6417,-32.85,-8011,-28781
1254,9546,0,0,0,176.852,-89.3958,-1.0437,9.82393,0,-0.114844,0.0259094,0.710297,-0.0257568,0.702881,-115.183,44.65,-32.7833,-8011,-28781
1260,9552,0,0,0,176.852,-89.3958,-1.0437,9.79521,0.0143555,-0.100488,0.0259094,0.710297,-0.0257874,0.702881,-115.167,44.6583,-32.7083,-8011,-28781
1266,9558,0,0,0,176.847,-89.3958,-1.0437,9.8335,0.0191406,-0.0813477,0.0259399,0.710297,-0.0257874,0.702881,-115.15,44.6833,-32.6833,-8011,-28781
1272,9564,0,0,0,176.847,-89.3958,-1.0437,9.82393,0,-0.119629,0.0259705,0.710297,-0.0258179,0.702881,-115.142,44.6917,-32.65,-8011,-28781
1278,9570,0,0,0,176.841,-89.3958,-1.0437,9.8,0.00957031,-0.110059,0.026001,0.710297,-0.0258789,0.702881,-115.092,44.6917,-32.7,-8011,-28781
1284,9576,0,0,0,176.836,-89.3958,-1.0437,9.81436,0.0239258,-0.119629,0.0260315,0.710297,-0.0258789,0.702881,-115.075,44.7083,-32.7583,-8011,-28781
1290,9582,0,0,0,176.836,-89.3958,-1.04919,9.80479,0,-0.0765625,0.0260315,0.710297,-0.0259094,0.702881,-115.05,44.7167,-32.8,-8011,-28781
1296,9588,0,0,0,176.83,-89.3958,-1.04919,9.80479,-0.00478516,-0.100488,0.026062,0.710297,-0.0259399,0.702881,-115.033,44.7417,-32.8083,-8011,-28781
1302,9594,0,0,0,176.83,-89.3958,-1.04919,9.80479,0,-0.124414,0.026062,0.710297,-0.0259399,0.702881,-115.025,44.7667,-32.8,-8011,-28781
1308,9600,0,0,0,176.83,-89.3958,-1.04919,9.81436,0,-0.105273,0.0260925,0.710297,-0.0259399,0.702881,-115.008,44.7833,-32.75,-8011,-28781
1314,9606,0,0,0,176.83,-89.3958,-1.04919,9.8,-0.00478516,-0.0957031,0.0260925,0.710297,-0.0259399,0.702881,-115.008,44.7667,-32.7,-8011,-28781
1320,9612,0,0,0,176.83,-89.3958,-1.04919,9.79521,-0.0191406,-0.100488,0.0260925,0.710297,-0.0259399,0.702881,-115.008,44.725,-32.6667,-8011,-28781
1326,9618,0,0,0,176.836,-89.3958,-1.04919,9.81436,0.0191406,-0.110059,0.026062,0.710297,-0.0259399,0.702881,-115.008,44.6917,-32.6667,-8011,-28781
1332,9624,0,0,0,176.836,-89.3958,-1.04919,9.80957,0.00478516,-0.0574219,0.026062,0.710297,-0.0259094,0.702881,-114.983,44.6583,-32.7167,-8011,-28781
1338,9630,0,0,0,176.836,-89.3958,-1.04919,9.8,0,-0.0957031,0.0260315,0.710297,-0.0259094,0.702881,-114.925,44.6167,-32.8417,-8011,-28781
1344,9636,0,0,0,176.841,-89.3958,-1.04919,9.79043,-0.00957031,-0.0861328,0.0260315,0.710297,-0.0259094,0.702881,-114.892,44.6167,-32.9,-8011,-28781
1350,9642,0,0,0,176.841,-89.3958,-1.05469,9.80479,0.0287109,-0.105273,0.0260315,0.710297,-0.0258789,0.702881,-114.875,44.6083,-32.9167,-8011,-28781
1356,9648,0,0,0,176.841,-89.3958,-1.05469,9.80957,0,-0.0957031,0.0260315,0.710297,-0.0258789,0.702881,-114.883,44.6167,-32.875,-8011,-28781
1362,9654,0,0,0,176.847,-89.3958,-1.05469,9.79521,0.0143555,-0.0813477,0.026001,0.710297,-0.0258789,0.702881,-114.917,44.6333,-32.85,-8011,-28781
1368,9660,0,0,0,176.841,-89.3958,-1.05469,9.79521,0.0287109,-0.114844,0.0260315,0.710297,-0.0259094,0.702881,-114.967,44.675,-32.825,-8011,-28781
1374,9666,0,0,0,176.841,-89.3958,-1.05469,9.80957,0,-0.124414,0.026062,0.710297,-0.0259094,0.702881,-114.975,44.7083,-32.85,-8011,-28781
1380,9672,0,0,0,176.836,-89.3958,-1.05469,9.80479,0.0191406,-0.0957031,0.026062,0.710297,-0.0259399,0.702881,-114.975,44.75,-32.925,-8011,-28781
1386,9678,0,0,0,176.836,-89.3958,-1.05469,9.8,0.00957031,-0.0957031,0.0260925,0.710297,-0.0259399,0.702881,-114.983,44.7833,-32.975,-8011,-28781
1392,9684,0,0,0,176.83,-89.3958,-1.05469,9.80479,-0.00957031,-0.119629,0.026123,0.710297,-0.0259705,0.702881,-114.983,44.8167,-32.9917,-8011,-28781
1398,9690,0,0,0,176.825,-89.3958,-1.05469,9.80957,0,-0.110059,0.0261536,0.710266,-0.026001,0.702881,-115.033,44.875,-32.9667,-8011,-28781
1404,9696,0,0,0,176.825,-89.3958,-1.05469,9.80479,-0.0143555,-0.105273,0.0261536,0.710266,-0.0260315,0.702881,-115.033,44.875,-32.9417,-8011,-28781
1410,9702,0,0,0,176.825,-89.3958,-1.06018,9.81436,0,-0.0861328,0.0261536,0.710266,-0.0260315,0.702881,-115.025,44.875,-32.925,-8011,-28781
1416,9708,0,0,0,176.825,-89.3958,-1.06018,9.80479,0.0191406,-0.114844,0.0261536,0.710266,-0.0260315,0.702881,-115,44.875,-32.9167,-8011,-28781
1422,9714,0,0,0,176.825,-89.3958,-1.06018,9.82393,0.00478516,-0.0957031,0.0261841,0.710266,-0.0260315,0.702881,-114.983,44.8833,-32.875,-8011,-28781
1428,9720,0,0,0,176.825,-89.3958,-1.06018,9.81436,0.0239258,-0.0765625,0.0261841,0.710266,-0.0260315,0.702881,-114.967,44.925,-32.8667,-8011,-28781
1434,9726,0,0,0,176.825,-89.3958,-1.06018,9.81914,0,-0.105273,0.0261841,0.710266,-0.026062,0.702881,-114.942,44.95,-32.8583,-8011,-28781
1440,9732,0,0,0,176.819,-89.3958,-1.06018,9.80479,0.00957031,-0.105273,0.0262146,0.710266,-0.026062,0.702881,-114.942,44.9667,-32.85,-8011,-28781
1446,9738,0,0,0,176.819,-89.3958,-1.06018,9.80957,0,-0.0813477,0.0262146,0.710266,-0.0260925,0.702881,-114.925,44.9833,-32.85,-8011,-28781
1452,9744,0,0,0,176.819,-89.3958,-1.06018,9.82871,-0.00478516,-0.100488,0.0262146,0.710266,-0.0260925,0.702881,-114.917,45.0083,-32.8667,-8011,-28781
1458,9750,0,0,0,176.814,-89.3958,-1.06018,9.80479,0.0239258,-0.0861328,0.0262451,0.710266,-0.0260925,0.702881,-114.883,45.05,-32.975,-8011,-28781
1464,9756,0,0,0,176.814,-89.3958,-1.06018,9.80957,0.00478516,-0.0957031,0.0262756,0.710266,-0.026123,0.702881,-114.875,45.0583,-33.0167,-8011,-28781
1470,9762,0,0,0,176.808,-89.3958,-1.06018,9.79521,-0.00957031,-0.0861328,0.0262756,0.710266,-0.0261536,0.702881,-114.867,45.0583,-33.05,-8011,-28781
1476,9768,0,0,0,176.808,-89.3958,-1.06567,9.81914,0,-0.0861328,0.0263062,0.710266,-0.0261536,0.702881,-114.883,45.0417,-33.0333,-8011,-28781
1482,9774,0,0,0,176.808,-89.3958,-1.06567,9.8335,-0.0143555,-0.0957031,0.0263062,0.710266,-0.0261841,0.702881,-114.9,45.025,-33.0417,-8011,-28781
1488,9780,0,0,0,176.808,-89.3958,-1.06567,9.82393,0.0191406,-0.0861328,0.0263062,0.710266,-0.0261536,0.702881,-114.917,44.9667,-32.9917,-8011,-28781
1494,9786,0,0,0,176.808,-89.3958,-1.06567,9.79043,0.0239258,-0.110059,0.0263062,0.710266,-0.0261841,0.702881,-114.908,44.95,-32.9833,-8011,-28781
1500,9792,0,0,0,176.808,-89.3958,-1.06567,9.8,0,-0.105273,0.0263367,0.710266,-0.0261841,0.702881,-114.9,44.9583,-32.9917,-8011,-28781
1506,9798,0,0,0,176.803,-89.3958,-1.06567,9.78564,0.00478516,-0.0813477,0.0263367,0.710266,-0.0262146,0.702881,-114.883,44.95,-33,-8011,-28781
1512,9804,0,0,0,176.803,-89.3958,-1.06567,9.80479,0.00957031,-0.0669922,0.0263672,0.710266,-0.0262146,0.702881,-114.883,44.9167,-33,-8011,-28781
1518,9810,0,0,0,176.797,-89.3958,-1.06567,9.8,-0.0191406,-0.0957031,0.0263977,0.710266,-0.0262451,0.702881,-114.9,44.875,-33.0167,-8011,-28781
1524,9816,0,0,0,176.797,-89.3958,-1.06567,9.80479,0.0191406,-0.0861328,0.0263977,0.710266,-0.0262451,0.702881,-114.908,44.85,-32.9667,-8011,-28781
1530,9822,0,0,0,176.797,-89.3958,-1.06567,9.79043,0.00957031,-0.114844,0.0263977,0.710266,-0.0262756,0.702881,-114.917,44.8417,-32.9333,-8011,-28781
1536,9828,0,0,0,176.792,-89.4012,-1.06567,9.81436,-0.00957031,-0.0957031,0.0264282,0.710266,-0.0262756,0.702881,-114.908,44.8417,-32.9,-8011,-28781
1542,9834,0,0,0,176.792,-89.3958,-1.07117,9.8,0.0191406,-0.105273,0.0264282,0.710266,-0.0263062,0.702881,-114.908,44.8333,-32.9,-8011,-28781
1548,9840,0,0,0,176.792,-89.3958,-1.07117,9.80957,0,-0.0861328,0.0264587,0.710266,-0.0263062,0.702881,-114.908,44.8333,-32.925,-8011,-28781
1554,9846,0,0,0,176.792,-89.4012,-1.07117,9.8335,0,-0.0861328,0.0264587,0.710266,-0.0263062,0.702881,-114.9,44.8417,-32.95,-8011,-28781
1560,9852,0,0,0,176.792,-89.4012,-1.07117,9.8,0.00478516,-0.114844,0.0264587,0.710266,-0.0263062,0.702881,-114.892,44.8583,-32.9583,-8011,-28781
1566,9858,0,0,0,176.792,-89.4012,-1.07117,9.80957,0.0239258,-0.110059,0.0264587,0.710266,-0.0263062,0.702881,-114.883,44.8583,-32.975,-8011,-28781
1572,9864,0,0,0,176.792,-89.4012,-1.07117,9.82393,-0.00957031,-0.110059,0.0264587,0.710266,-0.0263062,0.702881,-114.883,44.8667,-32.9833,-8011,-28781
1578,9870,0,0,0,176.792,-89.4012,-1.07117,9.80957,0.00478516,-0.124414,0.0264587,0.710266,-0.0263062,0.702881,-114.9,44.8833,-32.925,-8011,-28781
1584,9876,0,0,0,176.792,-89.4012,-1.07117,9.81436,0.00478516,-0.0813477,0.0264282,0.710266,-0.0263062,0.702881,-114.908,44.8833,-32.875,-8011,-28781
1590,9882,0,0,0,176.797,-89.4012,-1.07117,9.82393,-0.0143555,-0.0717773,0.0264282,0.710266,-0.0263062,0.702881,-114.9,44.8833,-32.825,-8011,-28781
1596,9888,0,0,0,176.797,-89.4012,-1.07117,9.8,0.0287109,-0.0813477,0.0264282,0.710266,-0.0262756,0.702881,-114.892,44.8917,-32.8,-8011,-28781
1602,9894,0,0,0,176.797,-89.4012,-1.07117,9.81914,0,-0.110059,0.0264282,0.710266,-0.0263062,0.702881,-114.875,44.9083,-32.7833,-8011,-28781
1608,9900,0,0,0,176.797,-89.4012,-1.07666,9.79521,0.0191406,-0.090918,0.0264282,0.710266,-0.0263062,0.702881,-114.867,44.9167,-32.825,-8011,-28781
1614,9906,0,0,0,176.792,-89.4012,-1.07666,9.8,0.0143555,-0.0861328,0.0264587,0.710266,-0.0263367,0.702881,-114.867,44.9083,-32.8667,-8011,-28781
1620,9912,0,0,0,176.792,-89.4012,-1.07666,9.80957,0,-0.0861328,0.0264893,0.710266,-0.0263367,0.702881,-114.867,44.9,-32.9333,-8011,-28781
1626,9918,0,0,0,176.786,-89.4012,-1.07666,9.81914,0.0334961,-0.090918,0.0265198,0.710266,-0.0263672,0.702881,-114.858,44.8583,-32.9833,-8011,-28781
1632,9924,0,0,0,176.776,-89.4012,-1.07666,9.80479,0.00957031,-0.0813477,0.0265503,0.710266,-0.0263977,0.702881,-114.833,44.7833,-33.0333,-8011,-28781
1638,9930,0,0,0,176.77,-89.4012,-1.07666,9.8,-0.00478516,-0.114844,0.0266113,0.710236,-0.0264893,0.702881,-114.8,44.7667,-33.0583,-8011,-28781
1644,9936,0,0,0,176.765,-89.4012,-1.07666,9.82393,0.0143555,-0.0861328,0.0266418,0.710236,-0.0265198,0.702881,-114.767,44.7667,-33.0667,-8011,-28781
1650,9942,0,0,0,176.759,-89.4012,-1.07666,9.81436,0,-0.090918,0.0266724,0.710236,-0.0265503,0.702881,-114.758,44.8,-33.0417,-8011,-28781
1656,9948,0,0,0,176.759,-89.4012,-1.07666,9.8,0,-0.133984,0.0267029,0.710236,-0.0265808,0.702881,-114.742,44.8333,-33.0083,-8011,-28781
1662,9954,0,0,0,176.754,-89.4012,-1.07666,9.80957,0.00478516,-0.0765625,0.0267334,0.710236,-0.0265808,0.702881,-114.708,44.875,-32.95,-8011,-28781
1668,9960,0,0,0,176.748,-89.4012,-1.08215,9.80957,-0.00957031,-0.0957031,0.0267639,0.710236,-0.0266418,0.702881,-114.692,44.8667,-32.8917,-8011,-28781
1674,9966,0,0,0,176.748,-89.4012,-1.08215,9.8,0.0239258,-0.0957031,0.0267944,0.710236,-0.0266418,0.702881,-114.675,44.8583,-32.875,-8011,-28781
1680,9972,0,0,0,176.743,-89.4012,-1.08215,9.80479,0.00478516,-0.0957031,0.026825,0.710236,-0.0266724,0.702881,-114.667,44.8417,-32.8583,-8011,-28781
1686,9978,0,0,0,176.737,-89.4012,-1.08215,9.79521,-0.0191406,-0.110059,0.0268555,0.710236,-0.0267029,0.702881,-114.658,44.8333,-32.8333,-8011,-28781
1692,9984,0,0,0,176.732,-89.4012,-1.08215,9.8,0.00957031,-0.0861328,0.026886,0.710236,-0.0267334,0.702881,-114.633,44.8,-32.7833,-8011,-28781
1698,9990,0,0,0,176.726,-89.4012,-1.08215,9.81914,0.0191406,-0.114844,0.0269165,0.710236,-0.0267639,0.702881,-114.617,44.7833,-32.7583,-8011,-28781
1704,9996,0,0,0,176.726,-89.4012,-1.08215,9.80957,0.00957031,-0.0765625,0.026947,0.710236,-0.0267944,0.70285,-114.608,44.7583,-32.7167,-8011,-28781
1710,10002,0,0,0,176.721,-89.4012,-1.08215,9.79521,-0.00957031,-0.090918,0.0269775,0.710236,-0.026825,0.70285,-114.608,44.7417,-32.675,-8011,-28781
1716,10008,0,0,0,176.715,-89.4012,-1.08215,9.80957,-0.00478516,-0.090918,0.0270081,0.710236,-0.0268555,0.70285,-114.6,44.7333,-32.6583,-8011,-28781
1722,10014,0,0,0,176.71,-89.4012,-1.08215,9.8,0.0143555,-0.100488,0.0270081,0.710236,-0.026886,0.70285,-114.592,44.7333,-32.6167,-8011,-28781
1728,10020,0,0,0,176.71,-89.4012,-1.08215,9.80479,0.00957031,-0.114844,0.0270386,0.710236,-0.0269165,0.70285,-114.608,44.725,-32.6167,-8011,-28781
1734,10026,0,0,0,176.704,-89.4012,-1.08765,9.79521,0.00957031,-0.0861328,0.0270691,0.710236,-0.0269165,0.70285,-114.617,44.725,-32.6333,-8011,-28781
1740,10032,0,0,0,176.704,-89.4012,-1.08765,9.81914,0.00478516,-0.114844,0.0270996,0.710236,-0.026947,0.70285,-114.625,44.7167,-32.6333,-8011,-28781
1746,10038,0,0,0,176.699,-89.4012,-1.08765,9.82393,0.00957031,-0.119629,0.0271301,0.710236,-0.0269775,0.70285,-114.633,44.7167,-32.7,-8011,-28781
1752,10044,0,0,0,176.693,-89.4012,-1.08765,9.82871,0,-0.100488,0.0271301,0.710236,-0.0270081,0.70285,-114.6,44.7083,-32.8583,-8011,-28781
1758,10050,0,0,0,176.688,-89.4012,-1.08765,9.80957,-0.00478516,-0.100488,0.0271912,0.710205,-0.0270386,0.70285,-114.592,44.7167,-32.875,-8011,-28781
1764,10056,0,0,0,176.688,-89.4012,-1.08765,9.81914,0,-0.090918,0.0271912,0.710205,-0.0270386,0.70285,-114.575,44.725,-32.8583,-8011,-28781
1770,10062,0,0,0,176.688,-89.4012,-1.08765,9.80479,0.00957031,-0.0861328,0.0271912,0.710205,-0.0270386,0.70285,-114.558,44.7167,-32.85,-8011,-28781
1776,10068,0,0,0,176.688,-89.4012,-1.08765,9.81436,0,-0.100488,0.0271912,0.710205,-0.0270691,0.70285,-114.55,44.7,-32.8583,-8011,-28781
1782,10074,0,0,0,176.688,-89.4012,-1.08765,9.80957,-0.00957031,-0.100488,0.0271912,0.710205,-0.0270691,0.70285,-114.533,44.6583,-32.9917,-8011,-28781
1788,10080,0,0,0,176.693,-89.4012,-1.08765,9.8,0,-0.090918,0.0271912,0.710205,-0.0270386,0.70285,-114.525,44.6583,-33.0667,-8011,-28781
1794,10086,0,0,0,176.693,-89.4012,-1.08765,9.81436,-0.0191406,-0.119629,0.0271912,0.710205,-0.0270386,0.70285,-114.517,44.6583,-33.1083,-8011,-28781
1800,10092,0,0,0,176.699,-89.4012,-1.08765,9.81436,0.00957031,-0.0861328,0.0271606,0.710205,-0.0270081,0.70285,-114.525,44.6667,-33.125,-8011,-28781
1806,10098,0,0,0,176.704,-89.4012,-1.08765,9.80479,0,-0.0861328,0.0271301,0.710205,-0.0269775,0.702881,-114.533,44.675,-33.1167,-8011,-28781
1812,10104,0,0,0,176.71,-89.4012,-1.08765,9.80957,0.00957031,-0.090918,0.0270996,0.710205,-0.026947,0.702881,-114.592,44.6667,-33.0917,-8011,-28781
1818,10110,0,0,0,176.71,-89.4012,-1.09314,9.80957,0,-0.0861328,0.0270691,0.710205,-0.0269165,0.702881,-114.608,44.6583,-33.0583,-8011,-28781
1824,10116,0,0,0,176.715,-89.4012,-1.09314,9.81436,0.0143555,-0.105273,0.0270691,0.710205,-0.0269165,0.702881,-114.617,44.65,-33.0167,-8011,-28781
1830,10122,0,0,0,176.715,-89.4012,-1.09314,9.82871,0.0287109,-0.0717773,0.0270386,0.710205,-0.0269165,0.702881,-114.6,44.65,-33,-8011,-28781
1836,10128,0,0,0,176.715,-89.4012,-1.09314,9.8,0.0143555,-0.090918,0.0270691,0.710205,-0.0269165,0.702881,-114.592,44.6667,-32.975,-8011,-28781
1842,10134,0,0,0,176.71,-89.4012,-1.09314,9.79521,0.0430664,-0.114844,0.0270691,0.710205,-0.0269165,0.702881,-114.567,44.7,-33.0083,-8011,-28781
1848,10140,0,0,0,176.704,-89.4012,-1.09314,9.80957,0.0143555,-0.0861328,0.0271301,0.710205,-0.0269775,0.702881,-114.542,44.7083,-33.0417,-8011,-28781
1854,10146,0,0,0,176.699,-89.4012,-1.09314,9.8,0.00957031,-0.110059,0.0271606,0.710205,-0.0270081,0.702881,-114.508,44.7,-33.075,-8011,-28781
1860,10152,0,0,0,176.693,-89.4012,-1.09314,9.80479,0.00957031,-0.0861328,0.0271912,0.710205,-0.0270691,0.702881,-114.492,44.7,-33.1083,-8011,-28781
1866,10158,0,0,0,176.688,-89.4012,-1.09314,9.80479,-0.00478516,-0.0813477,0.0272217,0.710205,-0.0270996,0.702881,-114.483,44.7,-33.1417,-8011,-28781
1872,10164,0,0,0,176.682,-89.4012,-1.09314,9.8,0.00957031,-0.0957031,0.0272522,0.710205,-0.0271301,0.702881,-114.467,44.7,-33.175,-8011,-28781
1878,10170,0,0,0,176.677,-89.4012,-1.09314,9.8,0.00957031,-0.105273,0.0273132,0.710205,-0.0271912,0.70285,-114.483,44.7,-33.1833,-8011,-28781
1884,10176,0,0,0,176.671,-89.4012,-1.09314,9.80479,0,-0.0861328,0.0273438,0.710205,-0.0272217,0.70285,-114.492,44.7083,-33.1917,-8011,-28781
1890,10182,0,0,0,176.666,-89.4012,-1.09314,9.80479,0,-0.105273,0.0273743,0.710205,-0.0272217,0.70285,-114.5,44.7083,-33.1917,-8011,-28781
1896,10188,0,0,0,176.666,-89.4012,-1.09863,9.8,-0.00478516,-0.062207,0.0273743,0.710205,-0.0272522,0.70285,-114.508,44.725,-33.1917,-8011,-28781
1902,10194,0,0,0,176.66,-89.4012,-1.09863,9.80479,0.0239258,-0.0813477,0.0274048,0.710205,-0.0272827,0.70285,-114.525,44.7417,-33.2417,-8011,-28781
1908,10200,0,0,0,176.655,-89.4012,-1.09863,9.80957,-0.0191406,-0.0957031,0.0274353,0.710205,-0.0273132,0.70285,-114.55,44.7417,-33.275,-8011,-28781
1914,10206,0,0,0,176.655,-89.4012,-1.09863,9.81436,0.00478516,-0.0957031,0.0274658,0.710205,-0.0273132,0.70285,-114.567,44.7417,-33.3,-8011,-28781
1920,10212,0,0,0,176.655,-89.4012,-1.09863,9.81914,0,-0.100488,0.0274658,0.710205,-0.0273438,0.70285,-114.575,44.7417,-33.3333,-8011,-28781
1926,10218,0,0,0,176.655,-89.4067,-1.09863,9.82393,0.0239258,-0.0861328,0.0274963,0.710205,-0.0273438,0.70285,-114.575,44.7167,-33.3167,-8011,-28781
1932,10224,0,0,0,176.644,-89.4012,-1.09863,9.79521,0.00478516,-0.0669922,0.0275269,0.710205,-0.0273743,0.70285,-114.592,44.7,-33.325,-8011,-28781
1938,10230,0,0,0,176.644,-89.4012,-1.09863,9.82393,0.00957031,-0.0861328,0.0275574,0.710175,-0.0274048,0.70285,-114.583,44.675,-33.375,-8011,-28781
1944,10236,0,0,0,176.638,-89.4067,-1.09863,9.81436,-0.00478516,-0.0957031,0.0275879,0.710175,-0.0274353,0.70285,-114.567,44.6417,-33.4,-8011,-28781
1950,10242,0,0,0,176.633,-89.4012,-1.09863,9.78564,0.0191406,-0.090918,0.0276184,0.710175,-0.0274658,0.70285,-114.558,44.6167,-33.425,-8011,-28781
1956,10248,0,0,0,176.627,-89.4067,-1.09863,9.80479,0,-0.0669922,0.0276489,0.710175,-0.0274963,0.70285,-114.542,44.6,-33.45,-8011,-28781
1962,10254,0,0,0,176.622,-89.4012,-1.10413,9.78086,-0.00957031,-0.0813477,0.0276794,0.710175,-0.0275574,0.70285,-114.558,44.6083,-33.4,-8011,-28781
1968,10260,0,0,0,176.622,-89.4067,-1.10413,9.81436,0,-0.0957031,0.02771,0.710175,-0.0275574,0.70285,-114.567,44.625,-33.3833,-8011,-28781
1974,10266,0,0,0,176.622,-89.4067,-1.10413,9.80957,0.0430664,-0.105273,0.02771,0.710175,-0.0275574,0.70285,-114.558,44.6333,-33.3333,-8011,-28781
1980,10272,0,0,0,176.616,-89.4067,-1.10413,9.82871,0,-0.0957031,0.0277405,0.710175,-0.0275879,0.70285,-114.567,44.6667,-33.3,-8011,-28781
1986,10278,0,0,0,176.611,-89.4067,-1.10413,9.80957,-0.00957031,-0.114844,0.027771,0.710175,-0.0276184,0.70285,-114.567,44.7,-33.275,-8011,-28781
1992,10284,0,0,0,176.605,-89.4067,-1.10413,9.80479,0.00957031,-0.105273,0.0278015,0.710175,-0.0276489,0.70285,-114.592,44.75,-33.2,-8011,-28781
1998,10290,0,0,0,176.605,-89.4067,-1.10413,9.78564,-0.00478516,-0.105273,0.0278015,0.710175,-0.0276794,0.70285,-114.617,44.775,-33.15,-8011,-28781
2004,10296,0,0,0,176.605,-89.4067,-1.10413,9.80479,-0.0239258,-0.0813477,0.027832,0.710175,-0.0276794,0.70285,-114.633,44.7917,-33.1083,-8011,-28781
2010,10302,0,0,0,176.605,-89.4067,-1.10413,9.81436,-0.00957031,-0.0957031,0.0278015,0.710175,-0.0276794,0.70285,-114.658,44.7833,-33.0667,-8011,-28781
2016,10308,0,0,0,176.605,-89.4067,-1.10413,9.81436,0.00478516,-0.114844,0.0278015,0.710175,-0.0276489,0.70285,-114.667,44.7917,-33.0167,-8011,-28781
2022,10314,0,0,0,176.611,-89.4067,-1.10413,9.82871,0.00957031,-0.0957031,0.027771,0.710175,-0.0276184,0.70285,-114.667,44.7417,-33.0333,-8011,-28781
2028,10320,0,0,0,176.611,-89.4067,-1.10413,9.81436,0.00478516,-0.0765625,0.027771,0.710175,-0.0276184,0.70285,-114.667,44.7167,-33.0333,-8011,-28781
2034,10326,0,0,0,176.611,-89.4067,-1.10413,9.79521,0.0382813,-0.119629,0.027771,0.710175,-0.0276489,0.70285,-114.658,44.6917,-33.0417,-8011,-28781
2040,10332,0,0,0,176.611,-89.4067,-1.10413,9.80957,0.0382813,-0.090918,0.0278015,0.710175,-0.0276489,0.70285,-114.667,44.6833,-33.0917,-8011,-28781
2046,10338,0,0,0,176.605,-89.4067,-1.10413,9.80957,0.00957031,-0.0765625,0.027832,0.710175,-0.0276794,0.70285,-114.675,44.7,-33.1667,-8011,-28781
2052,10344,0,0,0,176.589,-89.4067,-1.10962,9.79043,0,-0.0861328,0.0279236,0.710175,-0.027771,0.70285,-114.692,44.7,-33.2917,-8011,-28781
2058,10350,0,0,0,176.583,-89.4067,-1.10962,9.8,0.0191406,-0.0957031,0.0279541,0.710144,-0.027832,0.70285,-114.692,44.675,-33.3583,-8011,-28781
2064,10356,0,0,0,176.578,-89.4067,-1.10962,9.80479,0.0287109,-0.114844,0.0280151,0.710144,-0.0278625,0.70285,-114.7,44.65,-33.4083,-8011,-28781
2070,10362,0,0,0,176.567,-89.4067,-1.10962,9.78086,0.00957031,-0.0861328,0.0280762,0.710144,-0.0279236,0.70285,-114.7,44.625,-33.4667,-8011,-28781
2076,10368,0,0,0,176.561,-89.4067,-1.10962,9.81914,0.0143555,-0.0957031,0.0281372,0.710144,-0.0279846,0.70285,-114.683,44.625,-33.5167,-8011,-28781
2082,10374,0,0,0,176.539,-89.4067,-1.10962,9.82393,-0.00478516,-0.114844,0.0282593,0.710144,-0.0281067,0.70285,-114.675,44.6417,-33.525,-8011,-28781
2088,10380,0,0,0,176.534,-89.4067,-1.10962,9.79521,0.00957031,-0.0765625,0.0283203,0.710144,-0.0281677,0.70285,-114.658,44.625,-33.5333,-8011,-28781
2094,10386,0,0,0,176.523,-89.4067,-1.10962,9.81436,0.0143555,-0.114844,0.0283508,0.710144,-0.0282288,0.70285,-114.658,44.5917,-33.5333,-8011,-28781
2100,10392,0,0,0,176.512,-89.4067,-1.10962,9.81914,0.0287109,-0.0957031,0.0284119,0.710144,-0.0282593,0.70285,-114.65,44.575,-33.5417,-8011,-28781
2106,10398,0,0,0,176.506,-89.4067,-1.10962,9.8,0,-0.110059,0.0285034,0.710144,-0.0283508,0.70285,-114.667,44.55,-33.5917,-8011,-28781
2112,10404,0,0,0,176.49,-89.4067,-1.11511,9.80479,0.00478516,-0.0861328,0.028595,0.710114,-0.0284424,0.70285,-114.667,44.5417,-33.6833,-8011,-28781
2118,10410,0,0,0,176.484,-89.4067,-1.11511,9.8,0,-0.119629,0.0286255,0.710114,-0.0284729,0.70285,-114.675,44.55,-33.7167,-8011,-28781
2124,10416,0,0,0,176.479,-89.4067,-1.11511,9.82393,0,-0.100488,0.028656,0.710114,-0.0285034,0.70285,-114.667,44.5583,-33.725,-8011,-28781
2130,10422,0,0,0,176.473,-89.4067,-1.11511,9.80957,0.0143555,-0.0669922,0.0286865,0.710114,-0.0285339,0.70285,-114.65,44.5583,-33.7167,-8011,-28781
2136,10428,0,0,0,176.468,-89.4067,-1.11511,9.8,-0.00478516,-0.110059,0.0287476,0.710114,-0.028595,0.70285,-114.633,44.5417,-33.675,-8011,-28781
2142,10434,0,0,0,176.457,-89.4067,-1.11511,9.81436,0.0143555,-0.090918,0.0288086,0.710114,-0.028656,0.70282,-114.617,44.5167,-33.6333,-8011,-28781
2148,10440,0,0,0,176.451,-89.4067,-1.11511,9.8,0.00478516,-0.0861328,0.0288391,0.710114,-0.0286865,0.70282,-114.625,44.5083,-33.625,-8011,-28781
2154,10446,0,0,0,176.44,-89.4067,-1.11511,9.81914,-0.00957031,-0.0957031,0.0289001,0.710114,-0.0287476,0.70282,-114.625,44.5167,-33.6333,-8011,-28781
2160,10452,0,0,0,176.44,-89.4067,-1.11511,9.8,0.0143555,-0.0861328,0.0289307,0.710114,-0.0287781,0.70282,-114.617,44.5417,-33.6,-8011,-28781
2166,10458,0,0,0,176.424,-89.4067,-1.11511,9.82393,0.0191406,-0.0861328,0.0289612,0.710114,-0.0288086,0.70282,-114.592,44.55,-33.55,-8011,-28781
2172,10464,0,0,0,176.418,-89.4067,-1.11511,9.82393,0.0191406,-0.119629,0.0290527,0.710114,-0.0289001,0.70282,-114.558,44.5167,-33.3417,-8011,-28781
2178,10470,0,0,0,176.413,-89.4067,-1.11511,9.8,0.00957031,-0.090918,0.0291138,0.710114,-0.0289307,0.70282,-114.592,44.5083,-33.25,-8011,-28781
2184,10476,0,0,0,176.402,-89.4067,-1.12061,9.80479,0.00957031,-0.110059,0.0291443,0.710114,-0.0289917,0.70282,-114.633,44.5083,-33.175,-8011,-28781
2190,10482,0,0,0,176.396,-89.4067,-1.12061,9.81436,0.0191406,-0.0957031,0.0292053,0.710083,-0.0290527,0.70282,-114.658,44.5167,-33.1083,-8011,-28781
2196,10488,0,0,0,176.38,-89.4067,-1.12061,9.81436,0,-0.0861328,0.0292664,0.710083,-0.0291138,0.70282,-114.7,44.525,-33.0917,-8011,-28781
2202,10494,0,0,0,176.369,-89.4067,-1.12061,9.81914,0.00478516,-0.114844,0.0293579,0.710083,-0.0292053,0.70282,-114.7,44.525,-33.1167,-8011,-28781
2208,10500,0,0,0,176.364,-89.4067,-1.12061,9.8,0.0287109,-0.105273,0.0294189,0.710083,-0.0292664,0.70282,-114.692,44.5167,-33.1083,-8011,-28781
2214,10506,0,0,0,176.353,-89.4067,-1.12061,9.79521,0.00478516,-0.110059,0.02948,0.710083,-0.0292969,0.70282,-114.675,44.5,-33.1,-8011,-28781
2220,10512,0,0,0,176.347,-89.4067,-1.12061,9.80479,0.00478516,-0.0957031,0.0295105,0.710083,-0.0293579,0.70282,-114.667,44.5,-33.0917,-8011,-28781
2226,10518,0,0,0,176.331,-89.4067,-1.12061,9.82393,0.0191406,-0.0861328,0.0295715,0.710083,-0.0294189,0.70282,-114.667,44.5167,-33.1,-8011,-28781
2232,10524,0,0,0,176.32,-89.4067,-1.12061,9.81914,0.00478516,-0.110059,0.0296936,0.710083,-0.029541,0.70282,-114.642,44.55,-33.2167,-8011,-28781
2238,10530,0,0,0,176.314,-89.4067,-1.12061,9.79521,0,-0.0957031,0.0297546,0.710083,-0.0295715,0.702789,-114.625,44.5917,-33.3417,-8011,-28781
2244,10536,0,0,0,176.303,-89.4067,-1.12061,9.81436,0,-0.0813477,0.0297852,0.710083,-0.0296326,0.702789,-114.608,44.6,-33.45,-8011,-28781
2250,10542,0,0,0,176.298,-89.4067,-1.12061,9.8,0.00478516,-0.0957031,0.0298157,0.710083,-0.0296631,0.702789,-114.583,44.6,-33.525,-8011,-28781
2256,10548,0,0,0,176.287,-89.4067,-1.1261,9.80479,0.0191406,-0.0957031,0.0298767,0.710052,-0.0296936,0.702789,-114.583,44.5917,-33.5583,-8011,-28781
2262,10554,0,0,0,176.276,-89.4067,-1.1261,9.79043,-0.00478516,-0.0813477,0.0299683,0.710052,-0.0298157,0.702789,-114.592,44.55,-33.5917,-8011,-28781
2268,10560,0,0,0,176.27,-89.4067,-1.1261,9.81436,0,-0.0861328,0.0300293,0.710052,-0.0298462,0.702789,-114.583,44.5417,-33.5833,-8011,-28781
2274,10566,0,0,0,176.265,-89.4067,-1.1261,9.81914,0,-0.0957031,0.0300598,0.710052,-0.0298767,0.702789,-114.575,44.5333,-33.5583,-8011,-28781
2280,10572,0,0,0,176.259,-89.4067,-1.1261,9.81436,0.00957031,-0.090918,0.0300903,0.710052,-0.0299072,0.702789,-114.567,44.5417,-33.4667,-8011,-28781
2286,10578,0,0,0,176.248,-89.4067,-1.1261,9.80957,0,-0.0957031,0.0301208,0.710052,-0.0299683,0.702789,-114.55,44.55,-33.3917,-8011,-28781
2292,10584,0,0,0,176.243,-89.4067,-1.1261,9.8,-0.00478516,-0.124414,0.0301819,0.710052,-0.0299988,0.702789,-114.508,44.5333,-33.2667,-8011,-28781
2298,10590,0,0,0,176.243,-89.4067,-1.1261,9.81914,0,-0.0717773,0.0301819,0.710052,-0.0300293,0.702789,-114.458,44.5167,-33.2167,-8011,-28781
2304,10596,0,0,0,176.243,-89.4067,-1.1261,9.79043,0.00478516,-0.0957031,0.0301819,0.710052,-0.0300293,0.702789,-114.425,44.5,-33.1917,-8011,-28781
2310,10602,0,0,0,176.243,-89.4067,-1.1261,9.8,0.00478516,-0.119629,0.0302124,0.710052,-0.0300293,0.702789,-114.417,44.4833,-33.1917,-8011,-28781
2316,10608,0,0,0,176.237,-89.4067,-1.1261,9.80957,0.00957031,-0.0957031,0.0302124,0.710052,-0.0300598,0.702789,-114.425,44.5083,-33.2167,-8011,-28781
2322,10614,0,0,0,176.237,-89.4067,-1.1261,9.82393,0.0143555,-0.0765625,0.0302429,0.710052,-0.0300598,0.702789,-114.442,44.525,-33.2583,-8011,-28781
2328,10620,0,0,0,176.232,-89.4067,-1.1261,9.8,0.0239258,-0.124414,0.0302734,0.710052,-0.0300903,0.702789,-114.458,44.5583,-33.2917,-8011,-28781
2334,10626,0,0,0,176.226,-89.4067,-1.1261,9.79043,0.0143555,-0.0813477,0.030304,0.710052,-0.0301208,0.702789,-114.483,44.5833,-33.3167,-8011,-28781
2340,10632,0,0,0,176.221,-89.4067,-1.1261,9.80957,0.00957031,-0.110059,0.0303345,0.710052,-0.0301514,0.702789,-114.517,44.6083,-33.3417,-8011,-28781
2346,10638,0,0,0,176.21,-89.4067,-1.1261,9.82871,0,-0.114844,0.030365,0.710052,-0.0301819,0.702789,-114.558,44.65,-33.35,-8011,-28781
2352,10644,0,0,0,176.21,-89.4122,-1.1261,9.81436,0.0239258,-0.0765625,0.030426,0.710052,-0.0302429,0.702789,-114.567,44.675,-33.3667,-8011,-28781
2358,10650,0,0,0,176.204,-89.4122,-1.1261,9.80479,0.0143555,-0.100488,0.0304565,0.710022,-0.0302734,0.702789,-114.583,44.6917,-33.3917,-8011,-28781
2364,10656,0,0,0,176.199,-89.4067,-1.13159,9.82871,-0.0143555,-0.100488,0.0304871,0.710022,-0.030304,0.702789,-114.592,44.7083,-33.4,-8011,-28781
2370,10662,0,0,0,176.193,-89.4067,-1.13159,9.81436,0.0143555,-0.105273,0.0305176,0.710022,-0.0303345,0.702789,-114.6,44.7,-33.375,-8011,-28781
2376,10668,0,0,0,176.188,-89.4067,-1.13159,9.82871,0,-0.0861328,0.0305481,0.710022,-0.030365,0.702789,-114.642,44.6583,-33.375,-8011,-28781
2382,10674,0,0,0,176.188,-89.4067,-1.13159,9.82393,-0.00478516,-0.110059,0.0305786,0.710022,-0.0303955,0.702759,-114.65,44.6333,-33.4167,-8011,-28781
2388,10680,0,0,0,176.182,-89.4067,-1.13159,9.8,0,-0.0861328,0.0305786,0.710022,-0.0303955,0.702759,-114.658,44.625,-33.4667,-8011,-28781
2394,10686,0,0,0,176.182,-89.4122,-1.13159,9.8,0,-0.090918,0.0305786,0.710022,-0.0303955,0.702759,-114.658,44.6,-33.5167,-8011,-28781
2400,10692,0,0,0,176.188,-89.4122,-1.13159,9.81436,-0.00957031,-0.110059,0.0305786,0.710022,-0.0303955,0.702759,-114.658,44.575,-33.5083,-8011,-28781
2406,10698,0,0,0,176.188,-89.4067,-1.13159,9.79043,0.0239258,-0.133984,0.0305786,0.710022,-0.0303955,0.702759,-114.683,44.5583,-33.475,-8011,-28781
2412,10704,0,0,0,176.188,-89.4067,-1.13159,9.79521,0,-0.114844,0.0305786,0.710022,-0.0303955,0.702759,-114.692,44.5667,-33.425,-8011,-28781
2418,10710,0,0,0,176.188,-89.4067,-1.13159,9.77607,0.00478516,-0.110059,0.0305481,0.710022,-0.0303955,0.702759,-114.692,44.5917,-33.4083,-8011,-28781
2424,10716,0,0,0,176.188,-89.4122,-1.13159,9.82393,0,-0.090918,0.0305481,0.710022,-0.0303955,0.702759,-114.675,44.6083,-33.4333,-8011,-28781
2430,10722,0,0,0,176.188,-89.4067,-1.13159,9.80957,0.0191406,-0.105273,0.0305481,0.710022,-0.0303955,0.702759,-114.667,44.625,-33.4417,-8011,-28781
2436,10728,0,0,0,176.188,-89.4067,-1.13159,9.81436,0.0143555,-0.105273,0.0305481,0.710022,-0.0303955,0.702759,-114.65,44.6,-33.4917,-8011,-28781
2442,10734,0,0,0,176.188,-89.4067,-1.13159,9.82871,0.0287109,-0.090918,0.0305786,0.710022,-0.030426,0.702759,-114.633,44.5833,-33.5083,-8011,-28781
2448,10740,0,0,0,176.182,-89.4067,-1.13159,9.81436,0.00957031,-0.110059,0.0306091,0.710022,-0.0304565,0.702759,-114.617,44.5667,-33.5333,-8011,-28781
2454,10746,0,0,0,176.177,-89.4067,-1.13159,9.81914,0.00957031,-0.0765625,0.0306396,0.710022,-0.0304871,0.702759,-114.608,44.5667,-33.55,-8011,-28781
2460,10752,0,0,0,176.171,-89.4067,-1.13159,9.80479,-0.00478516,-0.110059,0.0307007,0.710022,-0.0305176,0.702759,-114.608,44.575,-33.5833,-8011,-28781
2466,10758,0,0,0,176.16,-89.4067,-1.13159,9.80957,0.00478516,-0.0574219,0.0307312,0.710022,-0.0305481,0.702759,-114.617,44.575,-33.6417,-8011,-28781
2472,10764,0,0,0,176.155,-89.4067,-1.13159,9.80957,0,-0.090918,0.0307922,0.710022,-0.0306091,0.702759,-114.633,44.575,-33.675,-8011,-28781
2478,10770,0,0,0,176.149,-89.4067,-1.13159,9.79521,0.00957031,-0.0717773,0.0308228,0.710022,-0.0306396,0.702759,-114.642,44.5667,-33.675,-8011,-28781
