TimeSinceCollection,Timestamp,AccX,AccY,AccZ,AngleRoll,AnglePitch,AngleYaw,AngularVelX,AngularVelY,AngularVelZ,Q1,Q2,Q3,Q4,MagX,MagY,MagZ,Height,Airpressure
0,972701,3.00029,-9.24014,1.6748,-79.2664,-17.298,-44.8517,-0.610352,-1.58691,0.305176,0.667145,-0.627106,0.133514,-0.37912,-148.492,74.75,-16.4417,-3814,-29288
6,972707,2.97637,-9.25449,1.67002,-79.2828,-17.3035,-44.8352,-0.793457,-1.95313,0,0.667114,-0.627167,0.133484,-0.379059,-148.517,74.7667,-16.4,-3814,-29288
12,972713,3.00029,-9.24971,1.74658,-79.2938,-17.3035,-44.8242,-1.2207,-1.95313,0.366211,0.667084,-0.627289,0.133423,-0.378937,-148.567,74.7667,-16.325,-3814,-29288
18,972719,2.97637,-9.23535,1.65566,-79.2993,-17.3035,-44.8132,-0.915527,-1.95313,0.366211,0.667084,-0.62735,0.133392,-0.378876,-148.567,74.7333,-16.3083,-3814,-29288
24,972725,2.92852,-9.23057,1.69873,-79.3048,-17.3035,-44.8022,-0.732422,-1.95313,0.12207,0.667053,-0.62738,0.133362,-0.378815,-148.55,74.7,-16.2917,-3814,-29288
30,972731,2.9333,-9.24492,1.6748,-79.3158,-17.298,-44.7968,-0.854492,-2.0752,0.854492,0.667053,-0.627441,0.133331,-0.378754,-148.55,74.6667,-16.2583,-3814,-29288
36,972737,2.90937,-9.24492,1.6748,-79.3323,-17.298,-44.7748,-0.915527,-2.19727,0.427246,0.667053,-0.627502,0.133301,-0.378662,-148.533,74.6333,-16.2167,-3814,-29288
42,972743,2.97158,-9.17793,1.7083,-79.3378,-17.298,-44.7638,-0.915527,-1.95313,0.305176,0.667053,-0.627625,0.13324,-0.37854,-148.525,74.575,-16.05,-3814,-29288
48,972749,2.94287,-9.25449,1.71787,-79.3488,-17.298,-44.7528,-1.28174,-2.2583,0.305176,0.667023,-0.627686,0.133209,-0.378479,-148.508,74.5667,-15.9833,-3814,-29288
54,972755,2.89502,-9.26885,1.72744,-79.3597,-17.3035,-44.7418,-1.34277,-2.01416,0.244141,0.666992,-0.627747,0.133179,-0.378387,-148.5,74.575,-15.925,-3814,-29288
60,972761,2.86152,-9.23057,1.74658,-79.3707,-17.3035,-44.7308,-1.52588,-2.19727,0.488281,0.666962,-0.627838,0.133179,-0.378326,-148.5,74.5917,-15.8833,-3814,-29288
66,972767,2.8998,-9.154,1.71309,-79.3927,-17.3035,-44.7089,-1.58691,-2.62451,0,0.666931,-0.627899,0.133118,-0.378265,-148.492,74.6167,-15.8083,-3814,-29288
72,972773,2.91416,-9.23057,1.75137,-79.4037,-17.309,-44.6979,-2.01416,-2.56348,-0.305176,0.66687,-0.628113,0.133026,-0.378113,-148.492,74.6333,-15.8083,-3814,-29288
78,972779,2.87588,-9.19707,1.76094,-79.4202,-17.3145,-44.6814,-2.01416,-2.68555,0,0.666809,-0.628204,0.132996,-0.378021,-148.483,74.6417,-15.85,-3814,-29288
84,972785,2.88545,-9.19229,1.73223,-79.4366,-17.3145,-44.6704,-2.0752,-2.50244,-0.366211,0.666779,-0.628296,0.132935,-0.37796,-148.475,74.6583,-15.9083,-3814,-29288
90,972791,2.90459,-9.221,1.69873,-79.4476,-17.3199,-44.6594,-2.19727,-2.68555,-0.549316,0.666718,-0.628418,0.132904,-0.377899,-148.475,74.65,-15.9417,-3814,-29288
96,972797,2.92373,-9.23535,1.63652,-79.4751,-17.3309,-44.632,-2.19727,-2.56348,-0.549316,0.666656,-0.62851,0.132843,-0.377838,-148.433,74.65,-16,-3814,-29288
102,972803,2.90459,-9.221,1.68916,-79.4916,-17.3364,-44.621,-2.01416,-2.62451,-0.305176,0.666565,-0.628723,0.132751,-0.377716,-148.425,74.6583,-16.0167,-3814,-29288
108,972809,2.91895,-9.21621,1.68916,-79.5081,-17.3364,-44.61,-2.13623,-2.44141,-0.427246,0.666504,-0.628845,0.132721,-0.377625,-148.4,74.6333,-16.025,-3814,-29288
114,972815,2.90937,-9.24971,1.67959,-79.519,-17.3419,-44.599,-1.95313,-2.2583,-0.488281,0.666443,-0.628937,0.13266,-0.377594,-148.358,74.6,-16.0083,-3814,-29288
120,972821,2.91895,-9.26406,1.62217,-79.5355,-17.3474,-44.588,-2.31934,-2.31934,-0.549316,0.666382,-0.629028,0.132629,-0.377533,-148.333,74.5667,-15.95,-3814,-29288
126,972827,2.96201,-9.27363,1.62217,-79.5575,-17.3584,-44.5715,-1.89209,-2.2583,-0.610352,0.666321,-0.62912,0.132568,-0.377472,-148.35,74.5333,-15.85,-3814,-29288
132,972833,2.8998,-9.27842,1.6126,-79.574,-17.3639,-44.5605,-1.83105,-1.83105,-0.732422,0.666229,-0.629303,0.132507,-0.377411,-148.358,74.5417,-15.7833,-3814,-29288
138,972839,2.90937,-9.26406,1.65566,-79.585,-17.3694,-44.5551,-2.01416,-1.46484,-0.671387,0.666168,-0.629395,0.132477,-0.37738,-148.383,74.55,-15.7333,-3814,-29288
144,972845,2.89502,-9.23535,1.67002,-79.5959,-17.3749,-44.5496,-1.77002,-1.58691,-1.15967,0.666107,-0.629486,0.132446,-0.37735,-148.4,74.5667,-15.7083,-3814,-29288
150,972851,2.87588,-9.221,1.68438,-79.6069,-17.3804,-44.5441,-2.01416,-1.34277,-1.40381,0.666046,-0.629578,0.132385,-0.37735,-148.392,74.5583,-15.675,-3814,-29288
156,972857,2.90459,-9.26406,1.69395,-79.6289,-17.3969,-44.5386,-1.70898,-1.0376,-1.58691,0.665955,-0.629669,0.132355,-0.37735,-148.383,74.5333,-15.6417,-3814,-29288
162,972863,2.91895,-9.26885,1.64609,-79.6344,-17.4078,-44.5386,-1.70898,-0.610352,-2.19727,0.665802,-0.629791,0.132294,-0.377411,-148.383,74.525,-15.6083,-3814,-29288
168,972869,2.8998,-9.221,1.65566,-79.6454,-17.4188,-44.5386,-1.58691,-0.549316,-1.83105,0.665741,-0.629852,0.132263,-0.377441,-148.392,74.5167,-15.575,-3814,-29288
174,972875,2.90937,-9.19707,1.63174,-79.6509,-17.4298,-44.5386,-1.2207,-0.305176,-2.50244,0.665649,-0.629913,0.132202,-0.377502,-148.4,74.5167,-15.5583,-3814,-29288
180,972881,2.89502,-9.24492,1.67002,-79.6564,-17.4408,-44.5441,-1.70898,-0.12207,-2.31934,0.665588,-0.629974,0.132172,-0.377563,-148.425,74.5167,-15.5333,-3814,-29288
186,972887,2.74668,-9.1875,1.7418,-79.6783,-17.4683,-44.5496,-2.68555,-0.366211,-3.2959,0.665466,-0.630035,0.132141,-0.377625,-148.442,74.5167,-15.5333,-3814,-29288
192,972893,2.89502,-9.12051,1.6748,-79.6893,-17.4847,-44.5496,-1.70898,-0.305176,-3.11279,0.665253,-0.630219,0.132019,-0.377777,-148.442,74.5,-15.5333,-3814,-29288
198,972899,2.95244,-9.22578,1.6748,-79.6948,-17.5012,-44.5551,-1.70898,0.427246,-3.23486,0.665161,-0.63028,0.131989,-0.377869,-148.45,74.475,-15.5167,-3814,-29288
204,972905,2.99551,-9.26406,1.65566,-79.7058,-17.5122,-44.5605,-2.50244,-0.305176,-2.86865,0.665039,-0.630371,0.131958,-0.37793,-148.458,74.4583,-15.4833,-3814,-29288
210,972911,2.95723,-9.22578,1.58867,-79.7168,-17.5287,-44.5605,-2.19727,0.0610352,-3.60107,0.664917,-0.630432,0.131897,-0.378021,-148.475,74.4417,-15.3917,-3814,-29288
216,972917,2.99072,-9.23535,1.64131,-79.7443,-17.5616,-44.566,-3.60107,-1.0376,-3.23486,0.664795,-0.630524,0.131866,-0.378113,-148.5,74.425,-15.2,-3814,-29288
222,972923,3.03379,-9.25449,1.64131,-79.7607,-17.5781,-44.5605,-2.80762,-1.09863,-3.2959,0.66452,-0.630798,0.131744,-0.378204,-148.508,74.4083,-15.15,-3814,-29288
228,972929,2.9333,-9.20186,1.61738,-79.7717,-17.5946,-44.566,-2.2583,-0.12207,-2.74658,0.664429,-0.630859,0.131714,-0.378265,-148.508,74.3833,-15.125,-3814,-29288
234,972935,3.029,-9.30234,1.58867,-79.7827,-17.6056,-44.566,-2.62451,-0.488281,-2.80762,0.664307,-0.630951,0.131653,-0.378326,-148.5,74.3667,-15.1083,-3814,-29288
240,972941,3.01943,-9.25449,1.52168,-79.7992,-17.6221,-44.566,-2.62451,-0.549316,-2.99072,0.664185,-0.631073,0.131622,-0.378387,-148.492,74.3417,-15.1,-3814,-29288
246,972947,3.05293,-9.25449,1.53125,-79.8212,-17.6495,-44.566,-2.50244,-0.915527,-2.68555,0.664093,-0.631165,0.131561,-0.378418,-148.5,74.2833,-15.15,-3814,-29288
252,972953,3.0625,-9.26406,1.53604,-79.8376,-17.6605,-44.566,-2.92969,-1.0376,-2.44141,0.663849,-0.631378,0.13147,-0.37851,-148.525,74.2417,-15.1583,-3814,-29288
258,972959,3.11035,-9.2832,1.55039,-79.8486,-17.6715,-44.5605,-2.01416,-0.976563,-2.31934,0.663757,-0.63147,0.131439,-0.37854,-148.567,74.2,-15.175,-3814,-29288
264,972965,2.98594,-9.23057,1.53604,-79.8596,-17.6825,-44.566,-1.70898,-0.244141,-2.19727,0.663696,-0.631531,0.131409,-0.378571,-148.608,74.1667,-15.1917,-3814,-29288
270,972971,3.029,-9.27842,1.56953,-79.8651,-17.6935,-44.566,-1.34277,-0.244141,-1.89209,0.663605,-0.631592,0.131378,-0.378632,-148.642,74.15,-15.2167,-3814,-29288
276,972977,3.029,-9.24014,1.55039,-79.8761,-17.71,-44.566,-1.15967,-0.183105,-1.58691,0.663544,-0.631622,0.131348,-0.378662,-148.708,74.1583,-15.2083,-3814,-29288
282,972983,3.04336,-9.221,1.59346,-79.8871,-17.7155,-44.566,-1.46484,-0.793457,-1.58691,0.663422,-0.631744,0.131287,-0.378723,-148.717,74.1583,-15.2167,-3814,-29288
288,972989,3.16299,-9.32148,1.60781,-79.8926,-17.7264,-44.5605,-1.0376,-1.0376,-1.77002,0.663361,-0.631805,0.131226,-0.378723,-148.708,74.15,-15.1917,-3814,-29288
294,972995,2.92852,-9.22578,1.53604,-79.8981,-17.7319,-44.566,-0.671387,0,-1.34277,0.6633,-0.631836,0.131195,-0.378784,-148.692,74.125,-15.1583,-3814,-29288
300,973001,3.03379,-9.27363,1.59346,-79.8981,-17.7374,-44.566,-0.549316,-0.12207,-1.2207,0.663269,-0.631866,0.131195,-0.378815,-148.667,74.1083,-15.15,-3814,-29288
306,973007,3.03379,-9.24971,1.56475,-79.9091,-17.7539,-44.566,-0.488281,-0.244141,-1.28174,0.663239,-0.631897,0.131134,-0.378845,-148.65,74.0917,-15.075,-3814,-29288
312,973013,3.01943,-9.25928,1.60303,-79.9091,-17.7539,-44.566,-0.488281,-0.366211,-0.915527,0.663147,-0.631958,0.131104,-0.378876,-148.675,74.0833,-15.0167,-3814,-29288
318,973019,3.08643,-9.26885,1.56953,-79.9146,-17.7594,-44.566,-0.793457,-0.549316,-1.0376,0.663116,-0.631989,0.131073,-0.378906,-148.683,74.05,-14.95,-3814,-29288
324,973025,3.02422,-9.23535,1.5791,-79.92,-17.7649,-44.5605,-0.0610352,-0.610352,-0.915527,0.663086,-0.632019,0.131042,-0.378906,-148.7,74,-14.9,-3814,-29288
330,973031,3.01465,-9.23057,1.59824,-79.92,-17.7704,-44.5605,-0.12207,-0.610352,-0.671387,0.663086,-0.63205,0.131012,-0.378906,-148.717,73.9667,-14.8583,-3814,-29288
336,973037,3.05771,-9.23535,1.57432,-79.9255,-17.7759,-44.5551,-0.0610352,-0.915527,-0.549316,0.663055,-0.63208,0.130951,-0.378906,-148.775,73.95,-14.8167,-3814,-29288
342,973043,3.05293,-9.221,1.57432,-79.9255,-17.7814,-44.5496,-0.0610352,-0.671387,-0.549316,0.663025,-0.632111,0.13092,-0.378906,-148.817,73.9833,-14.8333,-3814,-29288
348,973049,3.01943,-9.24492,1.60781,-79.931,-17.7814,-44.5496,-0.12207,-0.732422,-0.0610352,0.663025,-0.632141,0.13092,-0.378906,-148.825,74.0083,-14.85,-3814,-29288
354,973055,2.9668,-9.24014,1.27764,-79.931,-17.7869,-44.5441,-0.244141,-1.15967,-0.244141,0.663025,-0.632172,0.13089,-0.378876,-148.825,74.0333,-14.8667,-3814,-29288
360,973061,3.1917,-9.2832,1.7083,-79.9475,-17.7869,-44.5331,-2.50244,-2.13623,-0.488281,0.662933,-0.632263,0.130859,-0.378815,-148.808,74.0417,-14.8917,-3814,-29288
366,973067,3.04336,-9.16836,1.6126,-79.9585,-17.7924,-44.5221,-0.12207,-0.12207,-0.12207,0.662933,-0.632324,0.130768,-0.378754,-148.8,74.0583,-14.925,-3814,-29288
372,973073,3.096,-9.25928,1.62695,-79.964,-17.7924,-44.5111,-0.488281,-1.64795,-0.0610352,0.662933,-0.632385,0.130737,-0.378693,-148.792,74.075,-14.9583,-3814,-29288
378,973079,2.99072,-9.1875,1.55518,-79.964,-17.7979,-44.5056,0,-1.40381,-0.366211,0.662933,-0.632416,0.130707,-0.378693,-148.783,74.0917,-14.9833,-3814,-29288
384,973085,3.04814,-9.29277,1.54561,-79.9695,-17.7979,-44.5056,-0.183105,-0.976563,-0.0610352,0.662903,-0.632446,0.130676,-0.378662,-148.767,74.075,-15.0083,-3814,-29288
390,973091,3.03857,-9.27363,1.52646,-79.975,-17.8033,-44.5001,-0.305176,-1.34277,-0.427246,0.662903,-0.632477,0.130646,-0.378632,-148.75,74.075,-15.025,-3814,-29288
396,973097,2.99072,-9.25928,1.56953,-79.975,-17.8088,-44.4891,0.183105,-0.976563,-0.244141,0.662903,-0.632507,0.130585,-0.378601,-148.775,74.05,-14.9833,-3814,-29288
402,973103,3.029,-9.27842,1.53604,-79.9805,-17.8088,-44.4836,0.0610352,-1.0376,-0.488281,0.662872,-0.632538,0.130524,-0.378601,-148.775,74.0417,-14.9833,-3814,-29288
408,973109,2.97158,-9.24971,1.47861,-79.9805,-17.8143,-44.4781,0.12207,-1.09863,-0.12207,0.662872,-0.632568,0.130493,-0.378571,-148.792,74.0333,-14.9583,-3814,-29288
414,973115,2.85195,-9.13965,1.77529,-79.9805,-17.8143,-44.4727,0.183105,-1.40381,-0.427246,0.662872,-0.632568,0.130463,-0.37854,-148.775,74.025,-14.9667,-3814,-29288
420,973121,3.2874,-9.27363,1.6748,-79.9915,-17.8198,-44.4672,-0.854492,-1.52588,-0.610352,0.662842,-0.632629,0.130402,-0.37851,-148.758,74.0083,-15.0417,-3814,-29288
426,973127,3.25869,-9.09658,1.47861,-79.9915,-17.8198,-44.4562,0.427246,-1.0376,0.366211,0.662872,-0.63266,0.130371,-0.378479,-148.75,74.0083,-15.1333,-3814,-29288
432,973133,3.07686,-9.24971,1.55518,-79.9969,-17.8198,-44.4562,-0.366211,-0.671387,0.915527,0.662872,-0.63269,0.130371,-0.378448,-148.758,74.0083,-15.1833,-3814,-29288
438,973139,2.95244,-9.24492,1.63652,-79.9969,-17.8143,-44.4507,-0.12207,-0.793457,1.40381,0.662872,-0.63269,0.130402,-0.378387,-148.758,73.9917,-15.175,-3814,-29288
444,973145,2.94766,-9.16836,1.71787,-80.0024,-17.8033,-44.4452,0,-0.854492,1.52588,0.662903,-0.63269,0.130402,-0.378326,-148.767,73.9917,-15.125,-3814,-29288
450,973151,3.08164,-9.11572,1.79443,-80.0024,-17.8033,-44.4397,-0.366211,-1.09863,1.0376,0.662903,-0.632721,0.130432,-0.378265,-148.767,73.9917,-15.0917,-3814,-29288
456,973157,3.11992,-9.15879,1.6748,-80.0189,-17.7924,-44.4232,-1.34277,-1.09863,1.58691,0.662903,-0.632813,0.130463,-0.378113,-148.767,74.0083,-14.9833,-3814,-29288
462,973163,2.93809,-9.25449,1.63652,-80.0354,-17.7869,-44.4177,-1.83105,-1.34277,1.52588,0.662872,-0.632874,0.130493,-0.378021,-148.767,74,-14.9167,-3814,-29288
468,973169,2.89023,-9.21143,1.64609,-80.0464,-17.7814,-44.4067,-1.52588,-1.58691,1.15967,0.662842,-0.632935,0.130524,-0.37796,-148.775,74,-14.85,-3814,-29288
474,973175,2.94287,-9.221,1.63174,-80.0574,-17.7814,-44.4012,-1.70898,-1.83105,1.09863,0.662842,-0.633026,0.130524,-0.377869,-148.792,73.9917,-14.8,-3814,-29288
480,973181,2.98115,-9.25928,1.53125,-80.0684,-17.7759,-44.3903,-1.95313,-1.70898,1.0376,0.662811,-0.633087,0.130524,-0.377777,-148.817,73.9833,-14.7417,-3814,-29288
486,973187,3.05293,-9.32627,1.47861,-80.0903,-17.7704,-44.3738,-1.64795,-1.34277,0.427246,0.66272,-0.63324,0.130554,-0.377655,-148.833,73.9917,-14.6583,-3814,-29288
492,973193,3.21084,-9.35498,1.41641,-80.1013,-17.7704,-44.3683,-1.2207,-1.2207,0.488281,0.66272,-0.633301,0.130554,-0.377594,-148.817,73.9833,-14.6333,-3814,-29288
498,973199,3.13428,-9.35498,1.26328,-80.1068,-17.7649,-44.3683,-0.915527,-0.549316,1.2207,0.662689,-0.633331,0.130585,-0.377563,-148.8,73.975,-14.575,-3814,-29288
504,973205,3.13428,-9.37891,1.32549,-80.1123,-17.7594,-44.3683,-0.854492,0.305176,1.09863,0.662689,-0.633362,0.130646,-0.377533,-148.767,73.9583,-14.55,-3814,-29288
510,973211,3.01943,-9.3167,1.52168,-80.1123,-17.7539,-44.3628,0.305176,-0.244141,2.01416,0.662689,-0.633362,0.130676,-0.377472,-148.75,73.9417,-14.5417,-3814,-29288
516,973217,2.97158,-9.14922,1.81357,-80.1178,-17.7374,-44.3573,-0.12207,-0.488281,1.83105,0.66275,-0.633362,0.130768,-0.37735,-148.75,73.925,-14.575,-3814,-29288
522,973223,2.77539,-9.14443,1.64609,-80.1233,-17.7319,-44.3573,-0.549316,-0.12207,1.28174,0.66275,-0.633392,0.130798,-0.377319,-148.767,73.9167,-14.5583,-3814,-29288
528,973229,3.05293,-9.26885,1.58867,-80.1288,-17.7264,-44.3518,-0.671387,-0.732422,1.28174,0.66275,-0.633392,0.130829,-0.377258,-148.792,73.9,-14.5167,-3814,-29288
534,973235,3.096,-9.22578,1.4834,-80.1343,-17.7264,-44.3463,-0.854492,-1.2207,0.671387,0.66275,-0.633453,0.130829,-0.377228,-148.808,73.8833,-14.5333,-3814,-29288
540,973241,2.99551,-9.20664,1.52168,-80.1398,-17.7209,-44.3408,-0.610352,-1.09863,1.40381,0.66275,-0.633484,0.130859,-0.377167,-148.833,73.85,-14.5083,-3814,-29288
546,973247,2.88066,-9.15879,1.69873,-80.1508,-17.71,-44.3298,-0.366211,-1.15967,1.34277,0.66275,-0.633514,0.13089,-0.377014,-148.85,73.7917,-14.5333,-3814,-29288
552,973253,2.96201,-9.17793,1.67959,-80.1563,-17.7045,-44.3188,-0.427246,-1.52588,0.976563,0.662781,-0.633575,0.130859,-0.376953,-148.858,73.775,-14.5417,-3814,-29288
558,973259,2.98115,-9.221,1.56475,-80.1617,-17.7045,-44.3079,-0.732422,-1.83105,0.732422,0.662781,-0.633606,0.130859,-0.376892,-148.85,73.7667,-14.5667,-3814,-29288
564,973265,2.98594,-9.36934,1.29199,-80.1727,-17.7045,-44.3024,-1.09863,-1.83105,0.793457,0.66275,-0.633667,0.130829,-0.376801,-148.825,73.7667,-14.5917,-3814,-29288
570,973271,2.94766,-9.24014,1.75137,-80.1837,-17.7045,-44.2914,-1.40381,-2.50244,0.671387,0.66272,-0.633759,0.130829,-0.37674,-148.817,73.7833,-14.625,-3814,-29288
576,973277,2.69404,-9.11572,1.56953,-80.2057,-17.7045,-44.2694,-1.09863,-1.40381,0.244141,0.662659,-0.633911,0.130768,-0.376587,-148.8,73.825,-14.6583,-3814,-29288
582,973283,2.80889,-9.17314,1.75615,-80.2167,-17.7045,-44.2584,-1.2207,-2.56348,0.488281,0.662659,-0.633972,0.130737,-0.376495,-148.792,73.8333,-14.65,-3814,-29288
588,973289,2.69883,-9.03916,1.73223,-80.2222,-17.7045,-44.2419,-0.610352,-2.86865,-0.0610352,0.662659,-0.634033,0.130676,-0.376434,-148.783,73.825,-14.6167,-3814,-29288
594,973295,2.71797,-9.01523,1.70352,-80.2332,-17.71,-44.231,-0.854492,-3.05176,-0.610352,0.662628,-0.634125,0.130585,-0.376343,-148.783,73.8167,-14.575,-3814,-29288
600,973301,2.99551,-9.19229,1.71787,-80.2496,-17.7209,-44.2145,-1.83105,-3.90625,-1.34277,0.662567,-0.634247,0.130493,-0.376312,-148.792,73.825,-14.525,-3814,-29288
606,973307,3.21084,-9.25928,1.47861,-80.2771,-17.7374,-44.176,-1.95313,-3.60107,-1.28174,0.662445,-0.634491,0.13028,-0.37616,-148.808,73.85,-14.4333,-3814,-29288
612,973313,3.00029,-9.27842,1.43555,-80.2936,-17.7429,-44.165,-2.19727,-3.2959,-0.610352,0.662415,-0.634613,0.130219,-0.376068,-148.808,73.8583,-14.425,-3814,-29288
618,973319,3.10078,-9.30713,1.49297,-80.3101,-17.7484,-44.1486,-2.19727,-2.68555,-0.671387,0.662354,-0.634705,0.130157,-0.376007,-148.792,73.8667,-14.4333,-3814,-29288
624,973325,3.22041,-9.20186,1.49297,-80.321,-17.7594,-44.1376,-1.89209,-3.05176,-0.793457,0.662292,-0.634827,0.130066,-0.375946,-148.792,73.875,-14.45,-3814,-29288
630,973331,3.16777,-9.13486,1.4834,-80.3485,-17.7594,-44.1101,-2.01416,-2.50244,0.366211,0.662262,-0.634918,0.130035,-0.375854,-148.792,73.8917,-14.4417,-3814,-29288
636,973337,2.8376,-9.20186,1.66045,-80.365,-17.7594,-44.0991,-2.44141,-2.13623,0.488281,0.66217,-0.635101,0.129974,-0.375702,-148.8,73.9083,-14.375,-3814,-29288
642,973343,2.8041,-9.13008,1.71309,-80.3815,-17.7594,-44.0881,-2.50244,-2.19727,0.366211,0.662109,-0.635223,0.129974,-0.37561,-148.8,73.925,-14.3667,-3814,-29288
648,973349,2.88066,-9.12051,1.68438,-80.3979,-17.7649,-44.0717,-2.74658,-2.86865,-0.12207,0.662048,-0.635345,0.129944,-0.375519,-148.775,73.9167,-14.3667,-3814,-29288
654,973355,2.95244,-9.14443,1.6748,-80.4199,-17.7704,-44.0607,-3.35693,-3.23486,-0.488281,0.661987,-0.635498,0.129883,-0.375427,-148.75,73.9083,-14.375,-3814,-29288
660,973361,2.91416,-9.15879,1.55039,-80.4639,-17.7814,-44.0332,-4.39453,-2.56348,-0.915527,0.661865,-0.635651,0.129852,-0.375366,-148.742,73.9,-14.3667,-3814,-29288
666,973367,2.8041,-9.1875,1.53604,-80.4913,-17.7869,-44.0222,-4.3335,-2.01416,-1.09863,0.661652,-0.635986,0.129822,-0.375244,-148.717,73.8917,-14.3583,-3814,-29288
672,973373,3.00986,-9.24971,1.47383,-80.5133,-17.7979,-44.0112,-4.45557,-2.44141,-1.83105,0.661499,-0.636139,0.129761,-0.375214,-148.708,73.9083,-14.3667,-3814,-29288
678,973379,2.98115,-9.25449,1.38291,-80.5353,-17.8088,-44.0057,-4.15039,-1.95313,-2.0752,0.661377,-0.636292,0.12973,-0.375183,-148.725,73.9333,-14.4083,-3814,-29288
684,973385,3.1582,-9.46025,1.29678,-80.5627,-17.8198,-44.0002,-4.57764,-1.46484,-2.44141,0.661224,-0.636475,0.1297,-0.375183,-148.733,73.9333,-14.4167,-3814,-29288
690,973391,3.02422,-9.43154,1.27285,-80.6012,-17.8473,-44.0002,-3.479,-0.0610352,-2.44141,0.661072,-0.636597,0.129669,-0.375214,-148.717,73.9333,-14.4083,-3814,-29288
696,973397,3.07686,-9.42197,1.23457,-80.6122,-17.8583,-44.0057,-2.80762,0.183105,-2.56348,0.660797,-0.63681,0.129669,-0.375336,-148.692,73.8833,-14.4,-3822,-29287
702,973403,3.10078,-9.34541,1.33506,-80.6232,-17.8693,-44.0112,-2.44141,0.732422,-2.50244,0.660706,-0.636871,0.129669,-0.375397,-148.692,73.8333,-14.3667,-3822,-29287
708,973409,3.04336,-9.27842,1.43076,-80.6287,-17.8802,-44.0167,-1.95313,0.671387,-2.2583,0.660583,-0.636932,0.129669,-0.375488,-148.733,73.7917,-14.325,-3822,-29287
714,973415,3.14385,-9.2832,1.44033,-80.6396,-17.8912,-44.0222,-1.95313,0.488281,-2.44141,0.660492,-0.636993,0.129639,-0.375549,-148.783,73.75,-14.3083,-3822,-29287
720,973421,2.9668,-9.26885,1.39727,-80.6506,-17.9077,-44.0442,-2.01416,1.70898,-2.38037,0.6604,-0.637024,0.129669,-0.375671,-148.833,73.725,-14.2917,-3822,-29287
726,973427,3.02422,-9.09658,1.73701,-80.6561,-17.9187,-44.0552,-1.34277,1.2207,-2.62451,0.660217,-0.637115,0.129669,-0.375854,-148.892,73.6917,-14.2917,-3822,-29287
732,973433,3.00508,-9.03438,1.5791,-80.6616,-17.9297,-44.0662,-1.2207,1.28174,-2.56348,0.660126,-0.637146,0.129669,-0.375977,-148.9,73.6833,-14.3083,-3822,-29287
738,973439,2.87109,-9.12529,1.76572,-80.6671,-17.9462,-44.0771,-2.68555,2.01416,-2.92969,0.659973,-0.637207,0.1297,-0.376099,-148.883,73.6583,-14.3,-3822,-29287
744,973445,3.20605,-9.27842,1.51689,-80.6836,-17.9572,-44.0881,-3.90625,0.976563,-3.23486,0.659821,-0.637329,0.1297,-0.37619,-148.875,73.6417,-14.2583,-3822,-29287
750,973451,2.8998,-9.17793,1.54561,-80.7111,-17.9846,-44.1156,-2.99072,1.58691,-2.86865,0.659668,-0.63739,0.129761,-0.376343,-148.875,73.6167,-14.1583,-3822,-29287
756,973457,3.09121,-9.25928,1.32549,-80.722,-18.0011,-44.1266,-2.92969,1.70898,-3.72314,0.659363,-0.637543,0.129761,-0.376587,-148.892,73.6167,-14.0917,-3822,-29287
762,973463,3.3209,-9.4459,1.33984,-80.733,-18.0121,-44.1376,-3.35693,1.46484,-2.86865,0.65921,-0.637634,0.129791,-0.376678,-148.917,73.6167,-14.0333,-3822,-29287
768,973469,3.17256,-9.36934,1.18193,-80.7495,-18.0231,-44.1431,-3.41797,0.793457,-2.80762,0.659088,-0.637726,0.129791,-0.37677,-148.95,73.6167,-14.0417,-3822,-29287
774,973475,3.39268,-9.43633,1.29199,-80.766,-18.0341,-44.1486,-3.23486,0.610352,-1.83105,0.658966,-0.637817,0.129822,-0.376831,-148.992,73.6167,-14.025,-3822,-29287
780,973481,3.11035,-9.37891,1.21543,-80.7825,-18.0505,-44.165,-2.13623,1.77002,-1.52588,0.658844,-0.637878,0.129852,-0.376892,-149.075,73.5917,-14.0667,-3822,-29287
786,973487,3.15342,-9.39326,1.28242,-80.788,-18.0505,-44.176,-1.34277,1.52588,-0.976563,0.658691,-0.637939,0.129944,-0.377045,-149.083,73.5667,-14.075,-3822,-29287
792,973493,3.30176,-9.45547,1.09102,-80.788,-18.056,-44.187,-0.549316,1.95313,-1.0376,0.65863,-0.637939,0.129974,-0.377106,-149.083,73.55,-14.1083,-3822,-29287
798,973499,3.22998,-9.42676,1.17236,-80.788,-18.056,-44.1925,-0.549316,1.15967,-0.12207,0.6586,-0.637939,0.130035,-0.377167,-149.075,73.5333,-14.1083,-3822,-29287
804,973505,3.13428,-9.35498,1.37813,-80.788,-18.056,-44.198,0.366211,1.15967,0.12207,0.6586,-0.637939,0.130066,-0.377197,-149.033,73.5333,-14.1,-3822,-29287
810,973511,2.99072,-9.17793,1.50254,-80.7715,-18.0505,-44.22,0.854492,1.95313,0.366211,0.6586,-0.637878,0.130096,-0.377258,-148.983,73.5167,-13.975,-3822,-29287
816,973517,3.07207,-9.22578,1.45469,-80.766,-18.045,-44.231,0.854492,1.64795,0.305176,0.65863,-0.637756,0.130219,-0.37735,-148.975,73.4917,-13.9167,-3822,-29287
822,973523,3.14863,-9.33105,1.37813,-80.766,-18.0396,-44.2365,0.427246,1.64795,0.549316,0.65863,-0.637726,0.13028,-0.37738,-148.983,73.45,-13.85,-3822,-29287
828,973529,3.11992,-9.3502,1.33506,-80.7605,-18.0396,-44.2474,0.488281,1.52588,0.366211,0.65863,-0.637695,0.130341,-0.377411,-148.992,73.4167,-13.8333,-3822,-29287
834,973535,3.096,-9.32148,1.40684,-80.755,-18.0396,-44.2529,0.915527,1.58691,0.183105,0.65863,-0.637665,0.130371,-0.377472,-149,73.4,-13.8583,-3822,-29287
840,973541,3.07686,-9.25449,1.39727,-80.7385,-18.0286,-44.2694,1.58691,1.46484,0.915527,0.658661,-0.637604,0.130402,-0.377502,-149.008,73.3917,-13.8917,-3822,-29287
846,973547,3.14863,-9.28799,1.36377,-80.7275,-18.0231,-44.2804,1.77002,1.77002,0.793457,0.658722,-0.637451,0.130493,-0.377594,-148.992,73.4083,-13.9083,-3822,-29287
852,973553,3.17256,-9.3167,1.35898,-80.722,-18.0176,-44.2914,1.83105,1.83105,1.2207,0.658783,-0.63739,0.130554,-0.377625,-148.967,73.4083,-13.9167,-3822,-29287
858,973559,3.11992,-9.31191,1.42598,-80.7111,-18.0121,-44.2969,2.01416,1.89209,1.15967,0.658844,-0.637299,0.130615,-0.377655,-148.933,73.4333,-13.9417,-3822,-29287
864,973565,3.05293,-9.24492,1.50732,-80.6946,-18.0011,-44.3079,2.2583,1.70898,1.52588,0.658905,-0.637207,0.130676,-0.377655,-148.908,73.4417,-13.975,-3822,-29287
870,973571,2.95723,-9.19229,1.52646,-80.6726,-17.9846,-44.3243,1.77002,1.58691,1.34277,0.658966,-0.637115,0.130737,-0.377686,-148.933,73.4333,-14.0083,-3822,-29287
876,973577,3.00508,-9.25928,1.44512,-80.6671,-17.9791,-44.3298,1.70898,1.52588,1.34277,0.659058,-0.636963,0.130859,-0.377716,-148.95,73.425,-14.0083,-3822,-29287
882,973583,3.01943,-9.21621,1.44033,-80.6561,-17.9736,-44.3353,1.89209,1.09863,1.2207,0.659119,-0.636902,0.13092,-0.377747,-148.975,73.425,-14.0083,-3822,-29287
888,973589,3.14385,-9.24014,1.41162,-80.6451,-17.9681,-44.3408,1.95313,1.0376,1.2207,0.65918,-0.63681,0.130951,-0.377747,-148.983,73.4417,-14.0083,-3822,-29287
894,973595,3.28262,-9.26885,1.35898,-80.6396,-17.9572,-44.3463,2.19727,0.976563,1.70898,0.659241,-0.636749,0.130981,-0.377747,-148.983,73.4583,-14.0083,-3822,-29287
900,973601,3.1917,-9.24492,1.33506,-80.6122,-17.9352,-44.3573,2.50244,1.52588,2.50244,0.659302,-0.636658,0.131042,-0.377747,-148.992,73.475,-14.0667,-3822,-29287
906,973607,2.98115,-9.19229,1.55039,-80.6012,-17.9242,-44.3628,2.74658,1.52588,2.68555,0.659485,-0.636444,0.131195,-0.377716,-148.975,73.4833,-14.1333,-3822,-29287
912,973613,2.94766,-9.13008,1.7083,-80.5847,-17.9077,-44.3683,2.68555,1.40381,2.62451,0.659607,-0.636322,0.131256,-0.377716,-148.983,73.4833,-14.2083,-3822,-29287
918,973619,3.04336,-9.13486,1.72266,-80.5737,-17.8967,-44.3738,2.2583,1.0376,2.31934,0.659668,-0.636261,0.131317,-0.377686,-148.983,73.4833,-14.2333,-3822,-29287
924,973625,3.0625,-9.16357,1.6126,-80.5682,-17.8857,-44.3793,1.64795,1.2207,2.62451,0.659729,-0.636169,0.131409,-0.377655,-148.983,73.4833,-14.2583,-3822,-29287
930,973631,3.10557,-9.30234,1.4834,-80.5627,-17.8638,-44.3848,0.549316,1.15967,2.2583,0.65979,-0.636139,0.1315,-0.377655,-149.017,73.4917,-14.275,-3822,-29287
936,973637,3.12949,-9.42676,1.49775,-80.5573,-17.8528,-44.3903,0.732422,1.0376,2.50244,0.659851,-0.636047,0.131683,-0.377594,-149,73.5,-14.3167,-3822,-29287
942,973643,3.06729,-9.32627,1.47383,-80.5518,-17.8418,-44.3958,0.976563,1.09863,2.13623,0.659912,-0.635986,0.131744,-0.377563,-148.975,73.5167,-14.3667,-3822,-29287
948,973649,3.07207,-9.34062,1.46426,-80.5463,-17.8253,-44.4012,0.793457,1.28174,2.62451,0.659943,-0.635956,0.131836,-0.377533,-148.95,73.5417,-14.3917,-3822,-29287
954,973655,3.06729,-9.37891,1.42598,-80.5463,-17.8143,-44.4067,0.549316,1.15967,2.2583,0.659973,-0.635895,0.131927,-0.377502,-148.925,73.5583,-14.425,-3822,-29287
960,973661,3.05771,-9.34541,1.37813,-80.5353,-17.7979,-44.4177,1.40381,1.58691,2.13623,0.660004,-0.635864,0.132019,-0.377502,-148.875,73.6,-14.4083,-3822,-29287
966,973667,3.08164,-9.37891,1.32549,-80.5298,-17.7869,-44.4287,1.34277,1.83105,1.95313,0.660126,-0.635742,0.132172,-0.377502,-148.858,73.6083,-14.3833,-3822,-29287
972,973673,3.03857,-9.38369,1.30635,-80.5188,-17.7759,-44.4342,1.64795,2.13623,2.01416,0.660156,-0.635651,0.132263,-0.377533,-148.842,73.6083,-14.325,-3822,-29287
978,973679,3.029,-9.3502,1.3542,-80.5023,-17.7649,-44.4452,2.44141,2.50244,2.13623,0.660248,-0.635529,0.132355,-0.377563,-148.842,73.6167,-14.3417,-3822,-29287
984,973685,3.00029,-9.26885,1.42598,-80.4858,-17.7539,-44.4617,3.11279,2.56348,2.19727,0.660339,-0.635406,0.132446,-0.377594,-148.85,73.625,-14.3833,-3822,-29287
990,973691,2.99551,-9.24014,1.55518,-80.4474,-17.7264,-44.4891,3.60107,3.17383,2.31934,0.660431,-0.635254,0.132538,-0.377625,-148.867,73.7167,-14.4917,-3822,-29287
996,973697,3.03379,-9.32148,1.46426,-80.4309,-17.7155,-44.5056,3.17383,3.41797,2.19727,0.660614,-0.634949,0.132751,-0.377747,-148.867,73.7583,-14.5167,-3822,-29287
1002,973703,3.06729,-9.33584,1.45469,-80.4089,-17.7045,-44.5221,3.41797,3.2959,1.83105,0.660706,-0.634796,0.132843,-0.377808,-148.858,73.7917,-14.5,-3822,-29287
1008,973709,3.029,-9.29277,1.43076,-80.387,-17.6935,-44.5386,3.78418,3.72314,2.19727,0.660797,-0.634644,0.132965,-0.377869,-148.842,73.8083,-14.4833,-3822,-29287
1014,973715,3.00986,-9.3167,1.44033,-80.365,-17.677,-44.5551,3.72314,3.84521,1.95313,0.660889,-0.63446,0.133057,-0.37796,-148.833,73.8333,-14.5083,-3822,-29287
1020,973721,3.00508,-9.32627,1.47861,-80.3156,-17.655,-44.5935,4.3335,3.96729,1.83105,0.661011,-0.634277,0.133179,-0.378021,-148.8,73.875,-14.6083,-3822,-29287
1026,973727,2.94766,-9.23057,1.47383,-80.2881,-17.644,-44.6155,4.88281,4.02832,1.83105,0.661224,-0.633911,0.133362,-0.378204,-148.792,73.8917,-14.65,-3822,-29287
1032,973733,2.97158,-9.24492,1.48818,-80.2606,-17.6331,-44.632,4.82178,3.96729,1.95313,0.661346,-0.633698,0.133453,-0.378296,-148.775,73.9,-14.7,-3822,-29287
1038,973739,2.98594,-9.27842,1.4499,-80.2386,-17.6221,-44.6539,4.57764,3.90625,2.0752,0.661469,-0.633514,0.133545,-0.378357,-148.775,73.8917,-14.7333,-3822,-29287
1044,973745,2.98115,-9.32148,1.3877,-80.2112,-17.6111,-44.6759,4.82178,4.3335,1.64795,0.661591,-0.633301,0.133636,-0.378479,-148.783,73.8917,-14.7667,-3822,-29287
1050,973751,3.04336,-9.33584,1.43076,-80.1453,-17.5836,-44.7144,5.92041,4.15039,2.2583,0.661896,-0.632843,0.13382,-0.378632,-148.808,73.9333,-14.9333,-3822,-29287
1056,973757,3.05293,-9.19707,1.52168,-80.1123,-17.5671,-44.7363,6.7749,4.21143,2.50244,0.662079,-0.632599,0.133911,-0.378723,-148.825,73.975,-15.0167,-3822,-29287
1062,973763,3.03379,-9.20664,1.55996,-80.0739,-17.5507,-44.7528,6.46973,4.27246,3.23486,0.662262,-0.632324,0.134033,-0.378815,-148.825,74,-15.05,-3822,-29287
1068,973769,3.04336,-9.20664,1.55039,-80.0409,-17.5342,-44.7748,6.5918,4.3335,2.99072,0.662445,-0.63208,0.134125,-0.378876,-148.825,74.05,-15.125,-3822,-29287
1074,973775,3.18213,-9.25928,1.54082,-80.0024,-17.5122,-44.7913,6.7749,4.15039,3.54004,0.662628,-0.631805,0.134247,-0.378937,-148.808,74.0833,-15.1583,-3822,-29287
1080,973781,3.33525,-9.19229,1.59824,-79.9255,-17.4683,-44.8297,7.20215,4.08936,4.82178,0.663086,-0.631256,0.13446,-0.378998,-148.717,74.1583,-15.2167,-3822,-29287
1086,973787,3.08164,-9.2832,1.63652,-79.8926,-17.4353,-44.8462,6.5918,4.39453,5.61523,0.6633,-0.630981,0.134644,-0.379028,-148.658,74.175,-15.2667,-3822,-29287
1092,973793,2.97637,-9.26406,1.73223,-79.8596,-17.4078,-44.8627,6.40869,4.3335,5.92041,0.663513,-0.630707,0.134827,-0.378998,-148.617,74.1917,-15.3083,-3822,-29287
1098,973799,2.84717,-9.19229,1.91406,-79.8267,-17.3694,-44.8737,6.46973,3.66211,6.71387,0.663757,-0.630432,0.13501,-0.378967,-148.617,74.2,-15.35,-3822,-29287
1104,973805,2.89023,-9.10615,1.94756,-79.7937,-17.3364,-44.8901,6.40869,3.66211,6.5918,0.664001,-0.630188,0.135193,-0.378906,-148.608,74.2,-15.3917,-3822,-29287
1110,973811,2.94766,-9.12051,1.93799,-79.7443,-17.276,-44.9011,4.5166,2.19727,6.28662,0.664429,-0.629761,0.135498,-0.378754,-148.617,74.1917,-15.5,-3822,-29287
1116,973817,3.029,-9.31191,1.71309,-79.7278,-17.243,-44.9066,3.479,1.58691,6.65283,0.664612,-0.629608,0.135681,-0.378662,-148.608,74.2167,-15.6,-3822,-29287
1122,973823,3.11992,-9.36934,1.61738,-79.7113,-17.2101,-44.9066,3.35693,1.28174,6.71387,0.664795,-0.629456,0.135834,-0.37851,-148.592,74.2417,-15.7083,-3822,-29287
1128,973829,3.25391,-9.50332,1.47861,-79.6948,-17.1771,-44.9066,3.2959,0.915527,7.26318,0.664978,-0.629333,0.135986,-0.378357,-148.583,74.275,-15.8167,-3822,-29287
1134,973835,3.24434,-9.59902,1.3542,-79.6838,-17.1442,-44.9066,3.11279,1.70898,7.26318,0.665131,-0.629181,0.1362,-0.378235,-148.575,74.325,-15.9167,-3822,-29287
1140,973841,3.11035,-9.61816,1.41162,-79.6344,-17.0673,-44.9341,5.67627,4.39453,7.75146,0.665558,-0.628723,0.136658,-0.378082,-148.525,74.3917,-16.0667,-3822,-29287
1146,973847,2.95244,-9.25928,1.73223,-79.6014,-17.0233,-44.9396,6.46973,2.50244,8.54492,0.665833,-0.628448,0.136841,-0.37796,-148.517,74.4167,-16.1167,-3822,-29287
1152,973853,3.05771,-9.27363,1.64131,-79.574,-16.9849,-44.9396,6.34766,1.2207,8.91113,0.666138,-0.628235,0.137024,-0.377777,-148.508,74.4333,-16.15,-3822,-29287
1158,973859,3.26826,-9.56553,1.43555,-79.5465,-16.9409,-44.9341,5.5542,1.34277,9.21631,0.666412,-0.627991,0.137207,-0.377594,-148.492,74.4417,-16.175,-3822,-29287
1164,973865,3.27305,-9.71387,1.44033,-79.5245,-16.897,-44.9396,5.06592,2.2583,9.39941,0.666656,-0.627777,0.137451,-0.377441,-148.458,74.4667,-16.2,-3822,-29287
1170,973871,3.14863,-9.68994,1.42598,-79.4641,-16.7926,-44.9396,7.14111,1.89209,11.3525,0.667297,-0.627228,0.137909,-0.377014,-148.433,74.525,-16.25,-3822,-29287
1176,973877,3.44531,-9.88135,1.48818,-79.4312,-16.7322,-44.9286,7.75146,-0.183105,12.6953,0.667694,-0.626953,0.138123,-0.376709,-148.442,74.575,-16.25,-3822,-29287
1182,973883,3.64629,-10.0297,1.34941,-79.3982,-16.6718,-44.9121,8.91113,-1.2207,13.6719,0.668121,-0.626678,0.138306,-0.376343,-148.45,74.6333,-16.25,-3822,-29287
1188,973889,3.8999,-10.135,1.22021,-79.3597,-16.6003,-44.8846,9.58252,-2.50244,15.9302,0.66864,-0.626373,0.138489,-0.375885,-148.442,74.7,-16.2333,-3822,-29287
1194,973895,3.87119,-10.178,1.20586,-79.3213,-16.5179,-44.8517,11.0474,-2.2583,18.1885,0.669189,-0.626007,0.138733,-0.375397,-148.408,74.7667,-16.2083,-3822,-29287
1200,973901,3.96689,-10.3694,1.21543,-79.2169,-16.3147,-44.7968,13.916,-1.52588,23.7427,0.670563,-0.625092,0.139404,-0.374237,-148.3,74.9167,-16.2417,-3822,-29287
1206,973907,5.82832,-15.9537,3.11035,-79.151,-16.1829,-44.7693,15.625,-0.488281,27.832,0.671387,-0.624512,0.139862,-0.373535,-148.25,74.9917,-16.2833,-3822,-29287
1212,973913,4.4502,-7.63232,-2.22988,-79.0686,-16.0291,-44.7198,19.7144,-2.74658,34.0576,0.672455,-0.62384,0.14035,-0.37262,-148.167,75.0917,-16.35,-3822,-29287
1218,973919,4.89043,-9.25928,3.81855,-78.8818,-15.8643,-44.6429,43.7622,-8.48389,37.1704,0.674194,-0.622528,0.140381,-0.371582,-148.083,75.1833,-16.4083,-3822,-29287
1224,973925,4.8665,-10.0632,1.65088,-78.8049,-15.672,-44.5935,16.0522,4.02832,46.9971,0.675354,-0.621765,0.141113,-0.370483,-147.992,75.2917,-16.4833,-3822,-29287
1230,973931,4.49326,-10.446,2.82803,-78.6731,-15.2106,-44.5386,16.1133,3.90625,50.415,0.677582,-0.620239,0.143341,-0.368164,-147.808,75.5333,-16.6,-3822,-29287
1236,973937,4.34971,-9.46504,3.07207,-78.5962,-14.9579,-44.4946,19.4092,2.68555,54.1992,0.678864,-0.619324,0.144501,-0.366821,-147.717,75.6833,-16.6583,-3822,-29287
1242,973943,4.31621,-9.72822,3.43574,-78.5303,-14.6887,-44.4781,14.5874,7.99561,57.373,0.680054,-0.618469,0.145966,-0.365509,-147.625,75.85,-16.6833,-3822,-29287
1248,973949,3.43574,-10.7092,3.24912,-78.4918,-14.3921,-44.4946,8.66699,15.0146,60.3027,0.681091,-0.617645,0.147797,-0.364258,-147.5,76.0333,-16.7,-3822,-29287
1254,973955,4.35449,-10.824,2.93809,-78.4753,-14.0955,-44.5056,5.37109,13.7939,64.4531,0.681946,-0.616974,0.14978,-0.362915,-147.342,76.2333,-16.75,-3822,-29287
1260,973961,3.9334,-10.9484,2.76582,-78.4369,-13.4637,-44.5276,2.92969,17.0288,66.5894,0.683899,-0.615479,0.153839,-0.360107,-147.008,76.6583,-16.9333,-3822,-29287
1266,973967,3.72764,-10.4651,2.41172,-78.4259,-13.1287,-44.5331,1.95313,14.8926,69.3359,0.684875,-0.614777,0.156006,-0.358551,-146.817,76.8917,-17.1,-3822,-29287
1272,973973,3.53145,-10.2163,2.11504,-78.4204,-12.7826,-44.5386,0.976563,16.1743,71.7773,0.685852,-0.614044,0.158264,-0.356934,-146.617,77.1583,-17.2667,-3822,-29287
1278,973979,3.33525,-10.7427,1.7083,-78.4314,-12.431,-44.5496,-2.0752,16.1133,73.5474,0.686737,-0.613403,0.160583,-0.355286,-146.4,77.4333,-17.4083,-3822,-29287
1284,973985,3.61758,-10.891,1.59824,-78.4698,-12.063,-44.5386,-4.82178,9.76563,78.0029,0.687561,-0.612915,0.163025,-0.353424,-146.175,77.7417,-17.525,-3822,-29287
1290,973991,4.18223,-11.1111,1.37334,-78.5468,-11.3214,-44.4727,-7.14111,8.78906,80.4443,0.689392,-0.611969,0.167694,-0.349304,-145.742,78.3583,-17.7833,-3822,-29287
1296,973997,4.21572,-11.0633,1.0958,-78.6017,-10.9369,-44.4177,-8.72803,5.31006,82.8857,0.690277,-0.611603,0.170044,-0.347015,-145.492,78.7,-17.925,-3822,-29287
1302,974003,4.39277,-10.6709,1.15801,-78.6456,-10.5414,-44.3628,-6.28662,5.79834,85.022,0.691254,-0.611145,0.172424,-0.344696,-145.2,79.05,-18.125,-3822,-29287
1308,974009,5.20147,-9.97705,1.09102,-78.6896,-10.1514,-44.2969,-5.00488,4.02832,84.5947,0.692261,-0.610657,0.174683,-0.342377,-144.917,79.4333,-18.2917,-3822,-29287
1314,974015,6.90977,-9.54639,0.995313,-78.728,-9.77783,-44.22,-3.23486,0,78.125,0.693268,-0.61026,0.176788,-0.339996,-144.608,79.8167,-18.4167,-3822,-29287
1320,974021,8.81426,-9.71865,1.32549,-78.7885,-9.10217,-44.0936,-2.44141,4.69971,73.3643,0.695068,-0.609375,0.180634,-0.335876,-143.967,80.5917,-18.6,-3822,-29287
1326,974027,9.88135,-8.90996,1.2585,-78.7994,-8.80554,-44.0717,-1.09863,8.66699,67.9321,0.695801,-0.608856,0.182465,-0.334259,-143.625,80.975,-18.6583,-3822,-29287
1332,974033,10.4125,-7.13945,1.04795,-78.783,-8.54187,-44.0826,4.82178,13.916,61.4624,0.696564,-0.608154,0.184143,-0.333038,-143.25,81.3667,-18.7,-3822,-29287
1338,974039,10.69,-5.87139,0.91875,-78.75,-8.30017,-44.1266,6.28662,19.7754,55.9692,0.697205,-0.607391,0.185822,-0.332184,-142.883,81.775,-18.775,-3822,-29287
1344,974045,10.3455,-5.21582,0.689063,-78.728,-8.08594,-44.22,-1.28174,34.79,44.5557,0.697601,-0.606628,0.187592,-0.331696,-142.517,82.1833,-18.8417,-3822,-29287
1350,974051,9.71387,-4.46934,0.267969,-78.7335,-7.75085,-44.5001,-5.12695,37.4756,37.4146,0.697601,-0.605469,0.191223,-0.331757,-141.8,82.95,-19.0167,-3822,-29287
1356,974057,9.02481,-3.34482,0.31582,-78.75,-7.64648,-44.6539,-6.89697,36.9873,30.0293,0.697327,-0.605103,0.19281,-0.332123,-141.45,83.2833,-19.1167,-3822,-29287
1362,974063,8.1874,-3.76592,0.0430664,-78.7885,-7.58057,-44.8297,-10.9863,39.1846,22.0337,0.696777,-0.604889,0.194244,-0.332794,-141.117,83.6083,-19.2667,-3822,-29287
1368,974069,8.71377,-4.66553,-0.13877,-78.8818,-7.56958,-44.9945,-20.6909,34.9121,12.5122,0.695862,-0.605133,0.195465,-0.333588,-140.8,83.925,-19.4833,-3822,-29287
1374,974075,9.47939,-4.56982,-0.248828,-78.9752,-7.61353,-45.1263,-19.7754,20.6299,-4.15039,0.694855,-0.60556,0.196106,-0.334473,-140.5,84.2167,-19.6833,-3822,-29287
1380,974081,9.23535,-4.72295,0.00957031,-79.151,-7.82776,-45.3351,-18.3105,17.0898,-9.33838,0.692749,-0.606781,0.196381,-0.336487,-139.942,84.775,-20.1,-3822,-29287
1386,974087,9.13486,-4.39756,0.220117,-79.2279,-7.98706,-45.4065,-14.5874,10.7422,-13.916,0.691742,-0.607452,0.195984,-0.337555,-139.692,85.0083,-20.2417,-3822,-29287
1392,974093,9.10137,-4.18701,0.449805,-79.2883,-8.17932,-45.4449,-12.085,3.84521,-19.3481,0.690796,-0.608215,0.19519,-0.338654,-139.442,85.2,-20.3583,-3814,-29288
1398,974099,9.07266,-4.26357,0.674707,-79.3542,-8.40454,-45.4614,-10.9863,-2.99072,-24.9023,0.689819,-0.60907,0.194,-0.339722,-139.225,85.3333,-20.4417,-3814,-29288
1404,974105,9.154,-4.44063,0.832617,-79.4696,-8.98682,-45.4065,-8.42285,-15.9302,-38.9404,0.688843,-0.610046,0.192413,-0.340881,-139.025,85.4167,-20.55,-3814,-29288
1410,974111,9.64209,-4.7708,1.18193,-79.5245,-9.33838,-45.3516,-6.7749,-20.752,-45.8374,0.686798,-0.612305,0.187988,-0.343414,-138.667,85.4333,-20.8583,-3814,-29288
1416,974117,9.75693,-4.94785,1.41641,-79.5685,-9.73389,-45.2802,-5.18799,-24.6582,-53.2837,0.68573,-0.613525,0.185272,-0.344849,-138.517,85.3917,-21.0417,-3814,-29288
1422,974123,9.79043,-5.0292,1.58389,-79.6069,-10.1678,-45.2032,-3.479,-27.5879,-60.73,0.684601,-0.614807,0.18219,-0.346436,-138.383,85.35,-21.2333,-3814,-29288
1428,974129,9.65166,-5.12969,1.73223,-79.6344,-10.6403,-45.1208,-2.2583,-28.8696,-68.2983,0.683411,-0.616089,0.178833,-0.348236,-138.267,85.275,-21.3417,-3814,-29288
1434,974135,9.45547,-5.32109,1.90449,-79.6893,-11.7114,-44.9725,-2.19727,-30.2124,-85.022,0.682098,-0.617432,0.175262,-0.350281,-138.183,85.1667,-21.45,-3814,-29288
1440,974141,9.74736,-5.83311,1.95713,-79.7168,-12.3047,-44.9066,-2.31934,-30.3955,-92.9565,0.679047,-0.6203,0.167297,-0.35498,-138.083,84.8,-21.5917,-3814,-29288
1446,974147,9.66123,-6.17285,2.05283,-79.7443,-12.9364,-44.8517,-2.62451,-29.2969,-99.8535,0.677307,-0.621765,0.163055,-0.357666,-138.108,84.5083,-21.65,-3814,-29288
1452,974153,9.43633,-6.48389,2.11982,-79.7662,-13.5901,-44.8077,-3.35693,-27.2217,-105.53,0.675446,-0.62326,0.158752,-0.360565,-138.167,84.1667,-21.6917,-3814,-29288
1458,974159,9.39805,-6.77578,2.11982,-79.7937,-14.2603,-44.7803,-3.78418,-25.4517,-109.863,0.673492,-0.624725,0.154358,-0.363586,-138.233,83.8,-21.7,-3814,-29288
1464,974165,9.25928,-7.10117,2.12461,-79.8376,-15.65,-44.7583,-5.06592,-21.5454,-116.699,0.671448,-0.62616,0.149933,-0.36676,-138.308,83.375,-21.6917,-3814,-29288
1470,974171,8.75684,-7.85723,2.12461,-79.8541,-16.3531,-44.7693,-5.43213,-19.2871,-118.53,0.667053,-0.628937,0.141083,-0.373444,-138.483,82.45,-21.6583,-3814,-29288
1476,974177,8.29268,-8.2209,2.15811,-79.8761,-17.0618,-44.7858,-6.10352,-17.395,-120.483,0.664734,-0.63028,0.136688,-0.376923,-138.617,81.925,-21.6417,-3814,-29288
1482,974183,7.97207,-8.61807,2.10068,-79.8926,-17.7759,-44.8132,-6.83594,-16.4795,-123.047,0.662354,-0.631622,0.132294,-0.380432,-138.8,81.35,-21.6083,-3814,-29288
1488,974189,7.67061,-9.06309,2.12939,-79.92,-18.5065,-44.8462,-8.11768,-16.1743,-126.343,0.659851,-0.632965,0.127838,-0.384033,-139,80.7667,-21.575,-3814,-29288
1494,974195,7.39785,-9.62295,2.23467,-79.975,-20.0116,-44.9176,-9.0332,-16.2964,-134.216,0.657288,-0.634308,0.123322,-0.387665,-139.233,80.1333,-21.5833,-3814,-29288
1500,974201,7.41221,-10.2977,2.38779,-79.9969,-20.7806,-44.9561,-8.78906,-16.5405,-137.512,0.651855,-0.636993,0.114044,-0.395203,-139.675,78.7,-21.6583,-3814,-29288
1506,974207,7.30693,-10.4843,2.45,-80.0134,-21.5607,-45,-7.93457,-16.0522,-139.587,0.649078,-0.638275,0.109314,-0.399048,-139.875,77.925,-21.7333,-3797,-29290
1512,974213,7.35479,-10.6039,2.56484,-80.0244,-22.3352,-45.0549,-7.62939,-15.1978,-140.259,0.646301,-0.639465,0.104614,-0.402893,-140.05,77.1083,-21.825,-3797,-29290
1518,974219,7.36914,-10.6853,2.61748,-80.0299,-23.0988,-45.1099,-7.32422,-13.2446,-138.977,0.643494,-0.640594,0.100037,-0.406708,-140.242,76.275,-21.875,-3797,-29290
1524,974225,7.23516,-10.7427,2.68447,-80.0244,-24.5544,-45.2692,-6.65283,-7.14111,-131.47,0.640778,-0.641602,0.0956116,-0.410492,-140.608,74.6417,-21.925,-3797,-29290
1530,974231,6.04365,-11.0872,2.82803,-80.0134,-25.2466,-45.379,-8.78906,-2.50244,-128.357,0.635345,-0.643341,0.0875549,-0.417938,-140.775,73.8,-21.95,-3797,-29290
1536,974237,5.80918,-11.2595,2.75146,-80.0024,-25.9167,-45.4999,-10.1318,-0.732422,-126.038,0.632629,-0.644104,0.0838318,-0.4216,-140.942,72.9333,-22,-3797,-29290
1542,974243,5.48857,-11.4604,2.65098,-79.9915,-26.5759,-45.6317,-10.2539,2.01416,-124.878,0.629913,-0.644836,0.0802307,-0.425262,-141.05,72.0583,-22.0667,-3797,-29290
1548,974249,5.14404,-11.8146,2.64141,-79.9695,-27.2241,-45.78,-11.4746,4.5166,-124.756,0.627136,-0.645508,0.0767822,-0.428986,-141.15,71.1583,-22.1333,-3797,-29290
1554,974255,4.69902,-11.8959,2.47393,-79.9091,-28.5205,-46.1261,-11.0474,8.97217,-126.709,0.624359,-0.646057,0.0734253,-0.43277,-141.283,69.45,-22.1833,-3797,-29290
1560,974261,4.62725,-11.8098,2.20596,-79.8596,-29.1632,-46.3129,-10.1929,10.3149,-127.747,0.618683,-0.647034,0.0667725,-0.44043,-141.342,68.6083,-22.175,-3797,-29290
1566,974267,4.1583,-11.8002,2.18682,-79.7992,-29.8059,-46.5216,-9.15527,13.3057,-128.052,0.615875,-0.6474,0.0635376,-0.444336,-141.408,67.8,-22.1333,-3797,-29290
1572,974273,3.34482,-11.5801,2.16289,-79.7278,-30.4376,-46.7468,-8.60596,15.2588,-127.869,0.613068,-0.647644,0.0603943,-0.448273,-141.442,67.025,-22.125,-3797,-29290
1578,974279,4.00039,-11.5322,2.30166,-79.6564,-31.0693,-46.972,-9.8877,15.1978,-128.906,0.610168,-0.647919,0.057251,-0.452209,-141.467,66.2833,-22.1167,-3797,-29290
1584,974285,2.96201,-11.1542,2.12461,-79.4861,-32.2943,-47.4115,-6.22559,14.6484,-125.732,0.607422,-0.648132,0.0541687,-0.455963,-141.467,64.8917,-22.1083,-3797,-29290
1590,974291,2.45,-11.2355,2.12939,-79.3982,-32.8711,-47.6422,-7.87354,16.1133,-120.605,0.60202,-0.648376,0.0483093,-0.463379,-141.45,64.2167,-22.1417,-3797,-29290
1596,974297,1.84229,-11.4126,2.39258,-79.3158,-33.4204,-47.8784,-9.8877,17.8833,-116.455,0.599365,-0.648468,0.0457153,-0.466919,-141.442,63.55,-22.1833,-3797,-29290
1602,974303,0.899609,-11.36,2.30166,-79.2279,-33.9532,-48.1256,-8.72803,18.7378,-113.77,0.596802,-0.648499,0.0432434,-0.470398,-141.45,62.8917,-22.2167,-3797,-29290
1608,974309,0.6125,-11.4557,2.33994,-79.14,-34.4696,-48.3398,-7.08008,14.2822,-111.145,0.59436,-0.64856,0.040741,-0.473633,-141.458,62.2833,-22.2833,-3797,-29290
1614,974315,0.406738,-11.8959,2.31123,-78.9862,-35.4749,-48.7408,-7.87354,10.0098,-108.826,0.591888,-0.648651,0.0382385,-0.476776,-141.45,61.1917,-22.4417,-3797,-29290
1620,974321,-0.421094,-12.4893,2.09111,-78.9093,-35.9637,-48.9221,-5.7373,8.05664,-107.544,0.587189,-0.648865,0.0332947,-0.482666,-141.442,60.6917,-22.5417,-3797,-29290
1626,974327,-0.789551,-12.3648,2.00498,-78.8269,-36.4417,-49.0759,-1.46484,4.27246,-105.652,0.585052,-0.648895,0.0307007,-0.485352,-141.417,60.2,-22.6083,-3806,-29289
1632,974333,-1.05273,-12.0729,2.00498,-78.7335,-36.9031,-49.2133,2.86865,0.549316,-103.455,0.583099,-0.648895,0.0280457,-0.487885,-141.425,59.7333,-22.6583,-3806,-29289
1638,974339,-1.61738,-11.8815,1.92842,-78.6292,-37.348,-49.3396,6.10352,-0.549316,-100.708,0.581329,-0.648804,0.0253906,-0.490265,-141.4,59.2833,-22.7417,-3806,-29289
1644,974345,-2.16289,-11.7141,1.86143,-78.4204,-38.172,-49.5319,10.8032,-5.7373,-93.2617,0.579712,-0.648712,0.0227661,-0.492432,-141.425,58.4,-22.95,-3806,-29289
1650,974351,-2.6127,-11.0824,1.56475,-78.3215,-38.551,-49.5923,12.146,-8.78906,-88.623,0.576935,-0.648468,0.0176392,-0.496185,-141.442,57.9917,-23.075,-3806,-29289
1656,974357,-2.86631,-10.8623,1.46904,-78.2336,-38.8971,-49.6362,12.7563,-10.6812,-82.8247,0.575775,-0.648376,0.0152588,-0.497742,-141.492,57.5833,-23.2417,-3806,-29289
1662,974363,-3.23477,-10.647,1.41641,-78.1567,-39.1992,-49.6692,12.8784,-11.5356,-75.4395,0.574799,-0.648285,0.013092,-0.499054,-141.558,57.1917,-23.3833,-3806,-29289
1668,974369,-3.66064,-10.6613,1.225,-78.0963,-39.4629,-49.6802,11.5967,-13.1226,-67.4438,0.573975,-0.648254,0.0111694,-0.500092,-141.625,56.8167,-23.5,-3806,-29289
1674,974375,-4.11523,-10.9102,0.985742,-78.0304,-39.8419,-49.6747,7.38525,-12.207,-50.4761,0.573303,-0.648254,0.00958252,-0.500885,-141.817,56.1083,-23.675,-3806,-29289
1680,974381,-5.2541,-10.891,0.837402,-78.0194,-39.9683,-49.6527,6.95801,-12.9395,-43.2739,0.572388,-0.648346,0.00732422,-0.501831,-141.917,55.775,-23.7083,-3806,-29289
1686,974387,-5.2876,-10.8192,0.880469,-78.0139,-40.0616,-49.6198,6.40869,-13.0005,-36.9873,0.572144,-0.648438,0.00653076,-0.502014,-142,55.4667,-23.7417,-3806,-29289
1692,974393,-5.19668,-10.9437,0.957031,-78.0249,-40.1166,-49.5813,4.94385,-13.0615,-30.0903,0.572021,-0.648529,0.00598145,-0.502014,-142.108,55.1917,-23.775,-3806,-29289
1698,974399,-5.26367,-10.9867,1.02402,-78.0469,-40.1221,-49.5319,3.479,-11.9629,-21.1792,0.572083,-0.648651,0.00579834,-0.501801,-142.208,54.9417,-23.8,-3806,-29289
1704,974405,-5.72305,-11.1063,1.11973,-78.1073,-39.9408,-49.4495,0.488281,-6.04248,2.0752,0.572357,-0.648743,0.00604248,-0.501373,-142.433,54.525,-23.85,-3806,-29289
1710,974411,-4.04346,-11.4987,1.23457,-78.1458,-39.7595,-49.411,-0.427246,-3.66211,12.2681,0.573608,-0.648804,0.00790405,-0.499847,-142.542,54.3583,-23.8833,-3806,-29289
1716,974417,2.76104,-16.0159,4.88564,-78.1952,-39.5343,-49.3616,-1.70898,-3.35693,21.1792,0.574493,-0.648865,0.00933838,-0.498749,-142.658,54.225,-23.9,-3806,-29289
1722,974423,-7.78066,-14.4512,-0.133984,-78.3655,-39.0454,-49.3506,-30.8228,13.3057,72.3877,0.575653,-0.649231,0.0132141,-0.496857,-142.75,54.1167,-23.9333,-3806,-29289
1728,974429,-9.17793,-10.4604,-1.00967,-78.349,-38.4137,-49.6088,-27.1606,59.5703,90.5762,0.577271,-0.648468,0.0187378,-0.495758,-142.842,54.05,-23.975,-3806,-29289
1734,974435,-4.51719,-8.66592,1.58867,-78.5138,-36.9965,-49.6143,-22.522,26.8555,124.023,0.579803,-0.64801,0.0231934,-0.493225,-142.967,54.05,-24.075,-3806,-29289
1740,974441,-9.49375,-10.5178,0.971387,-78.6511,-36.1011,-49.8175,-50.293,62.1338,143.066,0.58429,-0.64743,0.036377,-0.487854,-143.008,54.1333,-24.1417,-3814,-29288
1746,974447,-2.19639,-9.9627,1.7418,-78.8708,-35.1563,-49.9713,-59.7534,55.6641,154.297,0.586273,-0.6474,0.044342,-0.484863,-143.042,54.3083,-24.2083,-3814,-29288
1752,974453,6.01973,-8.45537,1.13887,-79.173,-34.2554,-49.8834,-48.4619,14.9536,154.236,0.588593,-0.647888,0.0509949,-0.480713,-143.05,54.5083,-24.275,-3814,-29288
1758,974459,6.26855,-9.63731,1.34941,-79.4751,-33.3435,-49.7131,-39.2456,1.15967,159.424,0.591248,-0.648376,0.0572205,-0.476074,-143.025,54.7833,-24.3417,-3814,-29288
1764,974465,5.43594,-11.4509,1.24893,-79.9969,-31.5308,-49.7681,-54.6265,32.959,152.222,0.595245,-0.648712,0.0714417,-0.468628,-142.875,55.5667,-24.45,-3814,-29288
1770,974471,9.98662,-10.4986,0.660352,-80.2826,-30.6738,-49.6088,-39.0625,-1.77002,154.663,0.597656,-0.64917,0.0772705,-0.46405,-142.75,56.05,-24.4833,-3814,-29288
1776,974477,8.61807,-9.74736,0.200977,-80.5463,-29.8224,-49.5264,-43.396,11.2915,152.527,0.599762,-0.649414,0.083374,-0.459869,-142.617,56.5917,-24.5083,-3814,-29288
1782,974483,5.75176,-9.97227,1.53125,-80.733,-28.927,-49.5703,-40.2222,32.7759,160.095,0.601959,-0.649139,0.0901184,-0.456116,-142.45,57.1917,-24.575,-3814,-29288
1788,974489,3.91426,-11.1111,2.86152,-80.8868,-27.9877,-49.6362,-36.0107,38.208,168.701,0.60434,-0.64856,0.0971375,-0.452332,-142.275,57.775,-24.6333,-3814,-29288
1794,974495,1.50254,-11.982,2.76582,-81.145,-26.109,-49.7626,-28.0151,35.7056,170.227,0.609375,-0.646973,0.110931,-0.444611,-141.85,59.0917,-24.825,-3814,-29288
1800,974501,0.0191406,-14.4847,1.99063,-81.2494,-25.2136,-49.7845,-21.9116,28.1982,164.978,0.612,-0.646088,0.117188,-0.440643,-141.583,59.7833,-24.925,-3814,-29288
1806,974507,-0.607715,-15.8006,0.430664,-81.3318,-24.3622,-49.79,-16.0522,24.4751,155.823,0.614594,-0.645142,0.122955,-0.436859,-141.283,60.5083,-24.975,-3814,-29288
1812,974513,-0.090918,-18.2602,-0.114844,-81.3647,-23.5767,-49.7955,-6.04248,21.8506,144.043,0.617218,-0.643982,0.128113,-0.433319,-140.958,61.2417,-25,-3814,-29288
1818,974519,0.689063,-16.4705,-1.11494,-81.3593,-22.8571,-49.7571,4.39453,11.9019,131.897,0.619934,-0.642822,0.132477,-0.429871,-140.625,61.9583,-25.0167,-3814,-29288
1824,974525,2.30166,-13.4224,0.162695,-81.0406,-21.6321,-49.6307,43.457,5.92041,106.934,0.626495,-0.639099,0.138367,-0.424011,-139.967,63.45,-25.1083,-3814,-29288
1830,974531,1.42598,-10.7235,2.08154,-80.8484,-21.0883,-49.6307,40.1001,15.1978,96.9238,0.629425,-0.637085,0.141113,-0.421814,-139.642,64.2,-25.2333,-3814,-29288
1836,974537,1.14844,-11.9198,1.02881,-80.7001,-20.5939,-49.6527,30.4565,17.0898,87.5244,0.631866,-0.635345,0.143829,-0.419861,-139.283,64.95,-25.4,-3814,-29288
1842,974543,0.186621,-13.987,-0.550293,-80.6012,-20.1654,-49.7131,17.2729,23.2544,73.4863,0.633636,-0.633942,0.146545,-0.418365,-138.917,65.6833,-25.5833,-3814,-29288
1848,974549,0.0478516,-13.7813,0.186621,-80.5353,-19.8303,-49.8944,4.02832,42.2363,50.7202,0.634491,-0.63269,0.149414,-0.417969,-138.55,66.375,-25.775,-3814,-29288
1854,974555,0.488086,-10.9197,0.239258,-80.1782,-19.3854,-50.2789,33.3252,31.0059,26.9165,0.636566,-0.629333,0.153046,-0.418518,-137.842,67.625,-26.0917,-3814,-29288
1860,974561,1.99063,-7.07246,3.94297,-79.9969,-19.1986,-50.3888,32.0435,23.8647,24.7803,0.637817,-0.627838,0.154175,-0.418518,-137.5,68.1917,-26.2667,-3822,-29287
1866,974567,1.01924,-7.14902,3.95254,-79.8541,-19.0063,-50.4657,24.7192,19.104,26.8555,0.638916,-0.626587,0.155334,-0.418274,-137.192,68.7083,-26.425,-3822,-29287
1872,974573,0.76084,-8.55586,3.26826,-79.8047,-18.8306,-50.5261,8.60596,14.6484,23.7427,0.639587,-0.625854,0.156555,-0.417877,-136.908,69.2083,-26.6167,-3814,-29288
1878,974579,1.47861,-9.47939,2.24902,-79.8102,-18.6877,-50.5316,0.610352,-2.01416,18.0054,0.640015,-0.62558,0.157532,-0.417236,-136.625,69.65,-26.8,-3814,-29288
1884,974585,1.35898,-9.56553,1.71309,-79.8157,-18.446,-50.4987,2.74658,-0.366211,14.8315,0.6409,-0.625183,0.158905,-0.415955,-136.125,70.4583,-27.1333,-3814,-29288
1890,974591,1.9667,-9.5416,2.05283,-79.8157,-18.3527,-50.4767,2.31934,-3.23486,11.1694,0.641296,-0.625031,0.159393,-0.415405,-135.9,70.825,-27.275,-3814,-29288
1896,974597,2.63662,-9.23535,2.27295,-79.8267,-18.2758,-50.4272,2.01416,-7.99561,8.72803,0.641632,-0.625,0.159637,-0.414795,-135.692,71.1333,-27.3833,-3814,-29288
1902,974603,2.47871,-8.89561,2.37822,-79.8322,-18.2098,-50.3888,2.19727,-7.50732,7.50732,0.641968,-0.624969,0.159882,-0.414246,-135.533,71.4333,-27.4417,-3814,-29288
1908,974609,2.51699,-8.94824,2.14375,-79.8486,-18.1494,-50.3558,-4.15039,-5.7373,5.00488,0.642212,-0.624969,0.160156,-0.413757,-135.4,71.6917,-27.4583,-3814,-29288
1914,974615,2.66533,-9.51289,2.00498,-79.9255,-18.045,-50.2899,-5.06592,-7.8125,3.96729,0.642395,-0.625275,0.160675,-0.412811,-135.167,72.1667,-27.475,-3814,-29288
1920,974621,2.75625,-9.32148,1.871,-79.9585,-18.0121,-50.2515,-4.45557,-7.93457,2.50244,0.642456,-0.625458,0.160858,-0.412384,-135.075,72.3917,-27.5333,-3814,-29288
1926,974627,3.11035,-9.46982,1.71787,-80.0024,-17.9736,-50.2075,-5.24902,-8.72803,2.19727,0.642487,-0.625702,0.16098,-0.411957,-134.992,72.6,-27.6167,-3814,-29288
1932,974633,3.25391,-9.46504,1.4499,-80.0464,-17.9462,-50.1691,-5.37109,-8.54492,1.77002,0.642487,-0.625916,0.161102,-0.41153,-134.9,72.7917,-27.6833,-3814,-29288
1938,974639,3.42139,-9.53203,1.30635,-80.0848,-17.9187,-50.1306,-4.94385,-6.89697,2.01416,0.642487,-0.62616,0.161224,-0.411102,-134.842,72.975,-27.75,-3814,-29288
1944,974645,3.11035,-9.42676,1.27764,-80.1563,-17.8583,-50.0702,-4.39453,-6.34766,1.77002,0.642517,-0.626526,0.16153,-0.4104,-134.725,73.2833,-27.7917,-3814,-29288
1950,974651,3.08164,-9.66123,1.33027,-80.1892,-17.8308,-50.0482,-4.45557,-4.94385,1.64795,0.642517,-0.626678,0.161682,-0.410126,-134.683,73.4167,-27.8083,-3814,-29288
1956,974657,3.20605,-9.48418,1.24893,-80.2112,-17.8088,-50.0317,-2.99072,-4.21143,1.52588,0.642517,-0.62677,0.161835,-0.409882,-134.633,73.5333,-27.85,-3814,-29288
1962,974663,3.56973,-9.49854,1.35898,-80.2277,-17.7814,-50.0153,-1.64795,-4.08936,1.34277,0.642578,-0.626862,0.161957,-0.409637,-134.567,73.6583,-27.8917,-3814,-29288
1968,974669,3.38311,-9.43154,1.42119,-80.2441,-17.7594,-49.9988,-1.95313,-1.46484,2.2583,0.642609,-0.626923,0.162079,-0.409424,-134.5,73.7583,-27.9167,-3814,-29288
1974,974675,3.27783,-9.59424,1.55039,-80.2771,-17.7045,-49.9878,-1.83105,-1.77002,2.13623,0.64267,-0.626984,0.162476,-0.409058,-134.342,73.95,-27.9333,-3814,-29288
1980,974681,3.07686,-9.30234,1.51211,-80.2826,-17.677,-49.9713,-0.366211,-3.23486,2.31934,0.642761,-0.627014,0.162598,-0.408875,-134.283,74.0333,-27.9167,-3814,-29288
1986,974687,2.98115,-9.1875,1.48818,-80.2881,-17.655,-49.9603,0,-2.68555,2.62451,0.642853,-0.627014,0.16272,-0.408661,-134.233,74.0917,-27.9083,-3814,-29288
1992,974693,2.98594,-9.39326,1.77051,-80.2991,-17.6276,-49.9548,-0.488281,-1.58691,2.44141,0.642914,-0.627014,0.162872,-0.408508,-134.208,74.15,-27.8833,-3814,-29288
1998,974699,2.86631,-9.09658,1.75137,-80.3156,-17.5836,-49.9219,-0.183105,-3.60107,2.19727,0.643005,-0.627045,0.162964,-0.408295,-134.192,74.2083,-27.875,-3814,-29288
2004,974705,2.81367,-9.29277,1.68438,-80.3265,-17.5616,-49.9109,-1.09863,-3.23486,2.13623,0.643127,-0.627106,0.163147,-0.407928,-134.175,74.3083,-27.8917,-3814,-29288
2010,974711,2.8376,-9.31191,1.63174,-80.343,-17.5452,-49.8999,-1.52588,-3.35693,1.83105,0.643158,-0.627167,0.163239,-0.407745,-134.15,74.35,-27.8583,-3814,-29288
2016,974717,3.29697,-9.24492,1.52646,-80.3595,-17.5342,-49.8779,-1.28174,-5.06592,1.34277,0.643188,-0.627258,0.163239,-0.407532,-134.108,74.3833,-27.8083,-3814,-29288
2022,974723,3.18691,-9.29756,1.24893,-80.376,-17.5177,-49.856,-1.89209,-5.06592,1.46484,0.643219,-0.62738,0.163269,-0.407318,-134.058,74.4167,-27.7583,-3814,-29288
2028,974729,3.38311,-9.48418,1.40684,-80.4144,-17.4902,-49.812,-1.77002,-4.94385,1.95313,0.643219,-0.627472,0.16333,-0.407135,-134.008,74.45,-27.6917,-3814,-29288
2034,974735,3.86162,-9.33584,1.23936,-80.4254,-17.4792,-49.7955,-0.671387,-4.27246,1.89209,0.64328,-0.627655,0.163391,-0.406738,-133.942,74.4917,-27.5917,-3814,-29288
2040,974741,2.82324,-9.4124,1.0623,-80.4309,-17.4573,-49.7791,-0.244141,-3.05176,3.72314,0.643372,-0.627655,0.163483,-0.406525,-133.925,74.5083,-27.5417,-3814,-29288
2046,974747,3.56016,-9.47939,1.2585,-80.4419,-17.4353,-49.7681,-0.610352,-3.17383,3.41797,0.643433,-0.627686,0.163574,-0.406342,-133.917,74.525,-27.5,-3814,-29288
2052,974753,3.17734,-9.08701,1.26328,-80.4419,-17.4078,-49.7461,1.64795,-4.08936,4.21143,0.643585,-0.627686,0.163635,-0.406128,-133.908,74.5417,-27.475,-3814,-29288
2058,974759,3.08164,-9.26406,1.49775,-80.4364,-17.3584,-49.7241,1.89209,-2.0752,4.57764,0.643707,-0.627655,0.163696,-0.405945,-133.908,74.5417,-27.425,-3814,-29288
2064,974765,2.8376,-9.21143,1.4499,-80.4364,-17.3309,-49.7186,2.0752,-1.52588,4.82178,0.643982,-0.627533,0.16391,-0.405609,-133.917,74.55,-27.325,-3814,-29288
2070,974771,3.21084,-9.18272,1.57432,-80.4254,-17.309,-49.7076,2.44141,-1.77002,4.27246,0.644104,-0.627441,0.164001,-0.405487,-133.917,74.5583,-27.2833,-3814,-29288
2076,974777,3.12949,-9.12529,1.44033,-80.4254,-17.2815,-49.6967,2.38037,-2.62451,5.00488,0.644257,-0.62738,0.164093,-0.405273,-133.908,74.5833,-27.275,-3814,-29288
2082,974783,3.13906,-9.23535,1.55039,-80.4144,-17.254,-49.6912,2.50244,-1.40381,5.00488,0.644409,-0.627289,0.164185,-0.405121,-133.892,74.6167,-27.2667,-3814,-29288
2088,974789,3.00029,-9.1875,1.51211,-80.4034,-17.1991,-49.6747,2.56348,-1.2207,5.61523,0.644562,-0.627228,0.164307,-0.404968,-133.85,74.625,-27.25,-3814,-29288
2094,974795,2.98594,-9.154,1.42119,-80.3925,-17.1716,-49.6692,2.99072,-1.58691,5.5542,0.644897,-0.627045,0.164551,-0.404633,-133.767,74.6417,-27.2167,-3814,-29288
2100,974801,3.096,-9.27363,1.52646,-80.3815,-17.1387,-49.6637,2.86865,-0.976563,6.04248,0.645081,-0.626923,0.164673,-0.40448,-133.717,74.6417,-27.2,-3814,-29288
2106,974807,2.9333,-9.1875,1.5791,-80.376,-17.1057,-49.6582,2.86865,-0.793457,6.28662,0.645233,-0.626801,0.164825,-0.404327,-133.7,74.6583,-27.25,-3814,-29288
2112,974813,2.95723,-9.1875,1.64131,-80.3595,-17.0728,-49.6527,3.479,-0.671387,6.53076,0.645447,-0.626678,0.164948,-0.404175,-133.683,74.6917,-27.2917,-3814,-29288
2118,974819,3.04814,-9.21143,1.5791,-80.3375,-17.0123,-49.6417,2.92969,-1.28174,6.65283,0.64563,-0.626556,0.16507,-0.404022,-133.708,74.7583,-27.3833,-3814,-29288
2124,974825,3.08164,-9.26406,1.34463,-80.3265,-16.9794,-49.6362,2.99072,-0.793457,7.14111,0.645996,-0.626343,0.165344,-0.403656,-133.733,74.8083,-27.425,-3814,-29288
2130,974831,3.30654,-9.69473,1.24893,-80.3156,-16.9409,-49.6307,3.17383,-1.0376,7.32422,0.646179,-0.626221,0.165497,-0.403473,-133.758,74.8583,-27.4583,-3814,-29288
2136,974837,3.40703,-9.154,1.27764,-80.2991,-16.897,-49.6198,4.88281,-1.0376,9.46045,0.646454,-0.626038,0.16568,-0.403259,-133.758,74.8833,-27.475,-3814,-29288
2142,974843,2.85195,-9.08701,1.68916,-80.2771,-16.8585,-49.6143,5.92041,-0.915527,8.48389,0.646759,-0.625824,0.165802,-0.403046,-133.742,74.9167,-27.4917,-3814,-29288
2148,974849,3.00029,-9.32627,1.63652,-80.2441,-16.7706,-49.6088,4.27246,1.40381,9.09424,0.646973,-0.625671,0.165985,-0.402832,-133.7,74.95,-27.525,-3814,-29288
2154,974855,2.86152,-9.25449,1.51211,-80.2167,-16.7267,-49.6033,6.10352,0.0610352,9.0332,0.647522,-0.625244,0.166382,-0.402496,-133.65,74.9583,-27.5083,-3814,-29288
2160,974861,2.90937,-9.0918,1.53604,-80.1892,-16.6882,-49.6033,7.01904,-0.366211,8.91113,0.647827,-0.625,0.166504,-0.402313,-133.617,74.9667,-27.4917,-3814,-29288
2166,974867,2.86631,-9.32148,1.59824,-80.1563,-16.6443,-49.6033,6.40869,0.915527,8.66699,0.648102,-0.624756,0.166687,-0.402161,-133.583,74.9417,-27.4833,-3814,-29288
2172,974873,2.69404,-9.1875,1.59346,-80.1288,-16.6058,-49.5978,6.7749,0.0610352,8.60596,0.648407,-0.624512,0.16684,-0.402008,-133.542,74.925,-27.4833,-3814,-29288
2178,974879,2.89502,-9.25928,1.72266,-80.0684,-16.5234,-49.5978,6.53076,0.305176,8.11768,0.648712,-0.624268,0.166962,-0.401855,-133.517,74.9667,-27.5333,-3814,-29288
2184,974885,2.63184,-9.33105,1.74658,-80.0354,-16.485,-49.5978,7.99561,0.915527,8.11768,0.649323,-0.623718,0.167236,-0.401581,-133.508,75,-27.55,-3814,-29288
