TimeSinceCollection,Timestamp,AccX,AccY,AccZ,AngleRoll,AnglePitch,AngleYaw,AngularVelX,AngularVelY,AngularVelZ,Q1,Q2,Q3,Q4,MagX,MagY,MagZ,Height,Airpressure
0,906273,-0.44502,-8.24004,2.15332,-74.1412,-3.39478,-93.9441,31.9824,-8.78906,18.1274,0.530884,-0.429871,0.424194,-0.594391,-114.475,65.4833,-47.3417,-10322,-28501
6,906279,-0.985742,-7.79502,2.18203,-74.0259,-3.32886,-94.0649,27.5879,-10.6201,15.625,0.531067,-0.428406,0.424316,-0.595215,-114.225,65.725,-47.4667,-10322,-28501
12,906285,-1.13887,-7.85244,2.10547,-73.927,-3.28491,-94.1748,23.3765,-12.5732,12.3901,0.531158,-0.427094,0.424469,-0.595947,-114.092,65.8333,-47.5667,-10322,-28501
18,906291,-0.459375,-8.45537,2.06719,-73.8391,-3.26294,-94.2847,21.6064,-14.2212,7.38525,0.531128,-0.425995,0.424622,-0.596649,-113.975,65.9083,-47.6583,-10322,-28501
24,906297,0.320605,-8.67549,2.13418,-73.7457,-3.26294,-94.4055,22.583,-12.9395,1.83105,0.530975,-0.425079,0.424683,-0.597412,-113.875,65.9917,-47.7417,-10322,-28501
30,906303,1.79922,-8.20654,1.92842,-73.4985,-3.38379,-94.6857,31.189,-14.1602,-15.2588,0.530243,-0.42334,0.424377,-0.599518,-113.758,66.1,-47.7833,-10322,-28501
36,906309,3.34482,-6.71357,1.79443,-73.3557,-3.51013,-94.856,31.9214,-10.498,-24.1699,0.529663,-0.422638,0.423737,-0.600952,-113.517,66.2,-47.8917,-10322,-28501
42,906315,4.71816,-5.51729,1.95713,-73.2404,-3.66943,-95.0702,26.4893,-3.479,-31.8604,0.528778,-0.421997,0.423035,-0.602692,-113.433,66.2417,-48,-10322,-28501
48,906321,5.90967,-4.60811,1.68438,-73.1689,-3.83972,-95.3503,16.4795,8.72803,-37.6587,0.527466,-0.421448,0.422455,-0.604645,-113.358,66.3083,-48.0833,-10322,-28501
54,906327,6.97197,-4.12002,1.66045,-73.158,-4.01001,-95.7184,4.82178,24.9023,-41.687,0.525543,-0.420959,0.422302,-0.60675,-113.308,66.3583,-48.1583,-10322,-28501
60,906333,6.58916,-4.37842,0.952246,-73.3282,-4.32312,-96.7621,-24.0479,67.1997,-48.2178,0.519592,-0.419739,0.423981,-0.611542,-113.292,66.3583,-48.3167,-10322,-28501
66,906339,4.98135,-5.1584,0.689063,-73.4985,-4.48242,-97.4268,-35.0952,84.2285,-53.6499,0.515472,-0.418915,0.425995,-0.614166,-113.308,66.35,-48.3667,-10322,-28501
72,906345,4.59375,-6.53174,0.0526367,-73.7073,-4.6582,-98.1409,-43.7622,92.4683,-60.2417,0.510651,-0.417999,0.428558,-0.617035,-113.35,66.3167,-48.4167,-10322,-28501
78,906351,4.74209,-7.40264,-0.263184,-73.916,-4.86145,-98.8934,-44.8608,99.8535,-66.04,0.50531,-0.417175,0.431427,-0.619995,-113.433,66.2417,-48.45,-10322,-28501
84,906357,4.68467,-7.65146,-0.291895,-74.1302,-5.0647,-99.6899,-46.5088,107.727,-68.9697,0.499603,-0.41626,0.434357,-0.623169,-113.508,66.1667,-48.4917,-10322,-28501
90,906363,3.88555,-7.61318,-0.191406,-74.5587,-5.48767,-101.365,-48.645,118.042,-71.4722,0.487427,-0.414063,0.440643,-0.629822,-113.7,66.025,-48.625,-10322,-28501
96,906369,3.5458,-7.35,0.062207,-74.7894,-5.69641,-102.233,-51.9409,121.887,-71.9604,0.481079,-0.412811,0.443939,-0.633209,-113.808,65.8833,-48.7333,-10322,-28501
102,906375,3.12949,-7.46006,0.210547,-75.0366,-5.91614,-103.107,-55.3589,123.962,-73.5474,0.474548,-0.411499,0.447357,-0.636566,-113.95,65.7417,-48.8667,-10322,-28501
108,906381,3.10557,-7.55098,0.512012,-75.2893,-6.14136,-103.986,-58.4717,124.634,-75.3174,0.467865,-0.410187,0.450867,-0.639862,-114.1,65.6083,-49.0167,-10322,-28501
114,906387,3.35439,-7.69453,0.756055,-75.5585,-6.38306,-104.892,-62.0117,128.54,-78.0029,0.460999,-0.408966,0.454437,-0.643127,-114.258,65.475,-49.1583,-10322,-28501
120,906393,3.61279,-8.46973,1.11494,-76.1023,-6.89941,-106.743,-65.2466,134.338,-82.8247,0.446594,-0.406403,0.461792,-0.649628,-114.617,65.1083,-49.4917,-10322,-28501
126,906399,3.69414,-8.53672,1.37334,-76.3715,-7.16858,-107.693,-65.918,137.634,-84.7778,0.439117,-0.40506,0.465485,-0.652893,-114.808,64.975,-49.6583,-10322,-28501
132,906405,3.47402,-8.70898,1.38291,-76.6406,-7.44873,-108.666,-66.5283,141.235,-86.2427,0.431488,-0.403656,0.469208,-0.656189,-115.017,64.8,-49.8167,-10322,-28501
138,906411,3.22998,-8.64678,1.53604,-76.9043,-7.73438,-109.649,-67.627,143.677,-87.2803,0.423706,-0.402161,0.472931,-0.659515,-115.233,64.5917,-49.9583,-10322,-28501
144,906417,2.96201,-8.71377,1.53604,-77.168,-8.02551,-110.638,-69.0918,145.447,-87.8906,0.415802,-0.400574,0.476685,-0.662781,-115.442,64.4083,-50.1083,-10322,-28501
150,906423,2.11025,-9.14922,1.37813,-77.6953,-8.61328,-112.61,-70.6787,144.226,-88.0127,0.399689,-0.397308,0.484222,-0.669189,-115.842,64.025,-50.425,-10322,-28501
156,906429,1.67959,-9.49854,1.30156,-77.9535,-8.90991,-113.577,-70.8008,141.724,-87.4023,0.391602,-0.39566,0.487915,-0.672241,-116.067,63.8083,-50.6,-10322,-28501
162,906435,1.28242,-10.001,1.2585,-78.2007,-9.21204,-114.516,-69.0918,136.841,-85.8765,0.383575,-0.394012,0.491547,-0.675201,-116.308,63.5833,-50.7833,-10322,-28501
168,906441,0.966602,-10.4077,1.21064,-78.4369,-9.50317,-115.428,-66.8945,131.104,-83.8623,0.375732,-0.392395,0.495056,-0.678009,-116.55,63.4,-50.975,-10322,-28501
174,906447,0.47373,-10.7953,1.22979,-78.6566,-9.79431,-116.296,-63.3545,123.901,-81.4209,0.360718,-0.389282,0.501495,-0.683167,-116.808,63.175,-51.15,-10322,-28501
180,906453,0.13877,-11.3552,1.21543,-79.0356,-10.3491,-117.905,-54.5044,107.3,-75.1953,0.353668,-0.387848,0.504395,-0.685547,-117.267,62.725,-51.5583,-10322,-28501
186,906459,-0.090918,-11.5227,1.18672,-79.1895,-10.6073,-118.641,-49.3774,99.1821,-71.5332,0.347015,-0.386444,0.507019,-0.687775,-117.492,62.5083,-51.725,-10322,-28501
192,906465,-0.0861328,-11.4174,1.20107,-79.3268,-10.86,-119.328,-44.0063,90.3931,-67.627,0.340729,-0.385071,0.50943,-0.689911,-117.7,62.2833,-51.875,-10322,-28501
198,906471,0.0334961,-11.2308,1.18672,-79.4421,-11.0962,-119.976,-39.3677,82.9468,-63.7207,0.334869,-0.383789,0.511597,-0.691895,-117.925,62.0167,-52.025,-10322,-28501
204,906477,0.119629,-11.0537,1.18193,-79.5465,-11.3104,-120.586,-35.7056,76.1719,-59.021,0.324219,-0.381287,0.515411,-0.695526,-118.15,61.7667,-52.1667,-10322,-28501
210,906483,0.30625,-10.3551,1.17236,-79.7168,-11.6785,-121.69,-29.9683,63.4155,-48.1567,0.319427,-0.380035,0.51709,-0.697144,-118.583,61.3417,-52.525,-10322,-28501
216,906489,0.430664,-9.91963,1.11973,-79.7992,-11.8213,-122.19,-28.8086,58.3496,-41.1987,0.315033,-0.378815,0.518707,-0.698608,-118.808,61.1167,-52.7417,-10322,-28501
222,906495,0.516797,-9.66602,1.16279,-79.8816,-11.9257,-122.651,-28.0762,52.6123,-32.8979,0.310944,-0.377563,0.520355,-0.699921,-119.025,60.9083,-52.975,-10322,-28501
228,906501,2.72275,-11.805,2.4835,-79.9969,-11.9806,-123.052,-31.4941,42.2974,-19.8975,0.307281,-0.376251,0.522003,-0.701019,-119.225,60.725,-53.1583,-10322,-28501
234,906507,10.513,-27.7443,15.5853,-80.2826,-11.64,-123.563,-71.6553,77.8809,56.1523,0.301941,-0.371521,0.528473,-0.701019,-119.425,60.5583,-53.3417,-10322,-28501
240,906513,-8.94824,-13.7669,3.57451,-79.7992,-10.7281,-125.024,15.8081,94.0552,86.1206,0.299561,-0.364349,0.530792,-0.704041,-119.733,60.25,-53.6667,-10322,-28501
246,906519,-24.0071,-23.5765,12.7189,-79.5795,-10.1953,-126.024,9.70459,179.382,70.4956,0.299316,-0.358368,0.533417,-0.7052,-119.85,60.1583,-53.8083,-10322,-28501
252,906525,-28.6487,-9.40762,-7.76631,-79.0741,-9.8877,-126.172,98.6328,5.31006,51.9409,0.29657,-0.350098,0.537048,-0.707764,-119.917,60.1,-54.0417,-10322,-28501
258,906531,0.703418,-9.24014,8.68027,-78.8159,-9.84924,-125.837,63.5986,-97.7173,18.6768,0.298798,-0.346313,0.5354,-0.70993,-119.942,60.0417,-54.3083,-10322,-28501
264,906537,-2.68926,-0.923535,4.31621,-78.4973,-9.7229,-126.052,57.251,11.9629,16.4185,0.302185,-0.344421,0.532013,-0.711975,-119.933,59.9917,-54.575,-10322,-28501
270,906543,1.65088,-7.67061,5.18711,-78.4259,-9.55811,-126.321,-6.04248,-17.8223,8.72803,0.301727,-0.342651,0.532501,-0.712646,-119.892,59.9667,-55.1083,-10322,-28501
276,906549,4.21572,-8.7999,2.74189,-78.4094,-9.51416,-126.535,-4.21143,9.82666,1.58691,0.301544,-0.342041,0.53299,-0.712677,-119.867,59.9167,-55.375,-10322,-28501
282,906555,0.378027,-8.66113,1.20107,-78.4314,-9.46472,-126.788,-13.1226,17.0898,1.09863,0.300476,-0.340729,0.533661,-0.713226,-119.858,59.8833,-55.6417,-10322,-28501
288,906561,0.0526367,-10.1589,2.57441,-78.4644,-9.43176,-126.942,-11.9629,-2.62451,1.0376,0.299103,-0.339325,0.534729,-0.713684,-119.867,59.8917,-55.8917,-10322,-28501
294,906567,1.38291,-7.25908,3.48359,-78.4808,-9.41528,-127.062,-7.38525,-8.42285,-0.12207,0.297485,-0.337891,0.536011,-0.714081,-119.858,59.9,-56.1333,-10322,-28501
300,906573,1.16758,-8.22568,2.98594,-78.6346,-9.41528,-127.354,-26.3672,-4.27246,-4.39453,0.296509,-0.337341,0.536713,-0.714203,-119.817,59.8417,-56.5333,-10322,-28501
306,906579,1.16279,-9.91484,1.65088,-78.7445,-9.43176,-127.502,-27.771,-4.5166,-6.16455,0.295258,-0.336945,0.537811,-0.714111,-119.783,59.85,-56.6833,-10322,-28501
312,906585,1.13887,-10.3168,1.17715,-78.8434,-9.45374,-127.639,-24.0479,-6.7749,-7.38525,0.293915,-0.336609,0.53891,-0.713989,-119.75,59.8417,-56.7667,-10322,-28501
318,906591,1.59824,-10.0345,1.37813,-78.9313,-9.47571,-127.766,-20.9351,-8.97217,-7.69043,0.292664,-0.336334,0.539856,-0.713928,-119.7,59.8167,-56.8167,-10322,-28501
324,906597,2.67012,-10.3024,0.775195,-79.0192,-9.49768,-127.892,-20.874,-8.23975,-6.7749,0.290314,-0.335846,0.541504,-0.713867,-119.683,59.8,-56.8583,-10330,-28500
330,906603,2.73711,-10.9389,0.258398,-79.1785,-9.51965,-128.156,-17.334,-6.40869,-2.80762,0.289154,-0.335541,0.542389,-0.713776,-119.65,59.8167,-56.9,-10330,-28500
336,906609,2.58398,-11.0968,-0.0143555,-79.2279,-9.50867,-128.287,-11.6577,-5.7373,-0.610352,0.288116,-0.335114,0.543213,-0.713776,-119.642,59.8083,-56.9417,-10330,-28500
342,906615,2.56484,-10.8623,0.186621,-79.2499,-9.49219,-128.419,-6.28662,-5.79834,1.40381,0.28717,-0.334564,0.543945,-0.713867,-119.658,59.8,-56.9583,-10330,-28500
348,906621,2.49785,-10.5178,0.406738,-79.2499,-9.47021,-128.557,-1.46484,-4.5166,2.99072,0.286377,-0.333893,0.544525,-0.71405,-119.692,59.8333,-56.9583,-10330,-28500
354,906627,2.00977,-10.1637,0.90918,-79.2444,-9.43176,-128.694,0.366211,-3.35693,4.76074,0.285004,-0.332245,0.545471,-0.714661,-119.717,59.8583,-56.925,-10330,-28500
360,906633,1.871,-10.0105,1.14844,-79.2059,-9.36035,-128.979,4.02832,-1.95313,5.49316,0.284332,-0.331299,0.545898,-0.715027,-119.717,59.875,-56.875,-10330,-28500
366,906639,1.75137,-9.84785,1.37334,-79.173,-9.3219,-129.122,5.61523,-2.01416,5.85938,0.283722,-0.330322,0.546295,-0.715424,-119.7,59.8917,-56.825,-10330,-28500
372,906645,1.83271,-9.73779,1.42598,-79.14,-9.28345,-129.265,6.16455,-2.19727,6.04248,0.283112,-0.329346,0.546631,-0.715851,-119.7,59.9083,-56.7917,-10330,-28500
378,906651,1.89492,-9.72822,1.45947,-79.1016,-9.245,-129.402,7.62939,-1.89209,6.28662,0.282532,-0.328369,0.546967,-0.716278,-119.692,59.8833,-56.7417,-10330,-28500
384,906657,1.75137,-9.55117,1.78486,-79.0576,-9.20105,-129.551,9.0332,-0.610352,6.40869,0.281403,-0.326324,0.547516,-0.717224,-119.675,59.8833,-56.6917,-10330,-28500
390,906663,1.67002,-9.3167,1.97627,-78.9642,-9.12415,-129.847,9.09424,0.427246,6.22559,0.280823,-0.325287,0.547791,-0.717743,-119.683,59.9417,-56.575,-10330,-28500
396,906669,1.52168,-9.09658,2.21074,-78.9203,-9.08569,-130.001,7.75146,0.610352,5.61523,0.280212,-0.324188,0.548035,-0.718262,-119.683,59.975,-56.575,-10330,-28500
402,906675,1.58389,-9.02002,2.37344,-78.8928,-9.05273,-130.155,5.67627,0.915527,5.18799,0.279572,-0.323151,0.54834,-0.71875,-119.692,59.9833,-56.625,-10330,-28500
408,906681,1.47383,-9.13008,2.25381,-78.8654,-9.02527,-130.309,4.08936,1.09863,4.39453,0.27887,-0.322144,0.548676,-0.719238,-119.692,60.0083,-56.625,-10330,-28500
414,906687,1.47383,-9.16836,2.27773,-78.8489,-8.9978,-130.463,1.64795,0.671387,2.86865,0.277313,-0.320251,0.549469,-0.720062,-119.692,60.025,-56.65,-10330,-28500
420,906693,1.52646,-9.20186,2.20596,-78.8324,-8.95935,-130.77,0.549316,0.366211,2.13623,0.276489,-0.319336,0.549896,-0.720459,-119.683,60.0083,-56.7083,-10330,-28500
426,906699,1.59346,-9.1875,2.18682,-78.8324,-8.94836,-130.924,-0.671387,0.610352,1.77002,0.275635,-0.318512,0.550354,-0.720825,-119.667,60.0333,-56.725,-10330,-28500
432,906705,1.56475,-9.30713,2.02891,-78.8379,-8.93738,-131.078,-1.83105,0.854492,1.0376,0.27475,-0.317688,0.550812,-0.721161,-119.633,60.075,-56.6917,-10330,-28500
438,906711,1.59824,-9.40762,1.91406,-78.8489,-8.92639,-131.232,-2.38037,0.244141,1.28174,0.273804,-0.316895,0.5513,-0.721497,-119.6,60.075,-56.6667,-10322,-28501
444,906717,1.71309,-9.58945,1.67959,-78.8599,-8.9209,-131.385,-2.99072,0.854492,0.671387,0.271912,-0.315369,0.552338,-0.722076,-119.575,60.0833,-56.6333,-10322,-28501
450,906723,1.70352,-9.63252,1.59346,-78.8818,-8.90442,-131.693,-2.19727,0.793457,0.854492,0.270935,-0.314606,0.552856,-0.722382,-119.533,60.1417,-56.6,-10322,-28501
456,906729,1.74658,-9.65166,1.62695,-78.8873,-8.89343,-131.847,-1.77002,0.671387,0.976563,0.269989,-0.313812,0.553375,-0.722687,-119.525,60.125,-56.6083,-10322,-28501
462,906735,1.79443,-9.69473,1.54082,-78.8873,-8.88245,-132.001,-1.0376,0.793457,1.28174,0.269073,-0.313049,0.553833,-0.722992,-119.533,60.125,-56.625,-10322,-28501
468,906741,1.78965,-9.76172,1.48818,-78.8873,-8.87146,-132.149,-0.183105,0.915527,1.58691,0.268158,-0.312256,0.554321,-0.723328,-119.525,60.1417,-56.6667,-10322,-28501
474,906747,1.80879,-9.73301,1.51689,-78.8873,-8.86047,-132.303,0.976563,1.09863,1.95313,0.266357,-0.310669,0.555206,-0.723999,-119.525,60.15,-56.675,-10322,-28501
480,906753,1.73223,-9.75215,1.49297,-78.8763,-8.83301,-132.605,1.40381,1.09863,2.31934,0.265472,-0.309845,0.555603,-0.724365,-119.558,60.125,-56.7833,-10322,-28501
486,906759,1.71309,-9.66602,1.56953,-78.8654,-8.82202,-132.753,1.89209,0.976563,2.31934,0.264618,-0.30899,0.55603,-0.724731,-119.567,60.1333,-56.7833,-10322,-28501
492,906765,1.6748,-9.68037,1.66045,-78.8544,-8.80554,-132.907,2.80762,1.2207,2.50244,0.263763,-0.308167,0.556396,-0.725098,-119.567,60.15,-56.7833,-10322,-28501
498,906771,1.64609,-9.58467,1.67959,-78.8379,-8.78906,-133.055,2.92969,1.15967,2.44141,0.262939,-0.307312,0.556763,-0.725464,-119.567,60.1417,-56.8,-10322,-28501
504,906777,1.66045,-9.50811,1.85186,-78.8159,-8.7616,-133.347,2.74658,0.610352,2.38037,0.261292,-0.305634,0.557495,-0.726227,-119.558,60.1417,-56.825,-10322,-28501
510,906783,1.6748,-9.45068,1.871,-78.8049,-8.75061,-133.495,2.38037,0.366211,2.2583,0.260437,-0.30481,0.557831,-0.726593,-119.575,60.175,-56.8333,-10322,-28501
516,906789,1.68438,-9.38369,1.95234,-78.7994,-8.73962,-133.638,1.40381,0.244141,2.19727,0.259613,-0.304016,0.558197,-0.726959,-119.575,60.15,-56.8417,-10322,-28501
522,906795,1.66523,-9.47939,1.91885,-78.7939,-8.72864,-133.781,0.976563,0.305176,1.83105,0.258789,-0.303223,0.558594,-0.727295,-119.575,60.1167,-56.85,-10322,-28501
528,906801,1.6126,-9.48897,1.90449,-78.7939,-8.71765,-133.923,0.305176,0.183105,2.01416,0.257935,-0.30246,0.55896,-0.7276,-119.575,60.1167,-56.8667,-10322,-28501
534,906807,1.65088,-9.53203,1.82314,-78.7994,-8.70117,-134.209,-0.0610352,0.12207,1.83105,0.256226,-0.300964,0.559784,-0.72821,-119.567,60.1333,-56.9,-10322,-28501
540,906813,1.59824,-9.53203,1.78965,-78.7994,-8.69019,-134.346,-0.0610352,-0.244141,1.95313,0.255371,-0.300232,0.560211,-0.728485,-119.583,60.1667,-57.025,-10322,-28501
546,906819,1.65088,-9.50332,1.82793,-78.8049,-8.68469,-134.489,-0.0610352,-0.183105,1.58691,0.254517,-0.2995,0.560608,-0.72879,-119.558,60.2,-57.0833,-10322,-28501
552,906825,1.63174,-9.52246,1.76572,-78.8049,-8.6792,-134.626,-0.366211,-0.305176,1.64795,0.253662,-0.298767,0.561005,-0.729065,-119.542,60.2333,-57.1167,-10322,-28501
558,906831,1.68916,-9.48897,1.69395,-78.8159,-8.66821,-134.764,-0.976563,-0.0610352,1.64795,0.252808,-0.298035,0.561432,-0.72934,-119.5,60.2417,-57.15,-10322,-28501
564,906837,1.69395,-9.68994,1.55039,-78.8214,-8.65173,-135.044,-0.0610352,0.183105,1.58691,0.251068,-0.2966,0.562286,-0.729889,-119.467,60.2333,-57.1667,-10322,-28501
570,906843,1.71787,-9.73301,1.53604,-78.8214,-8.64624,-135.187,0.854492,0.0610352,1.89209,0.250214,-0.295868,0.562683,-0.730164,-119.45,60.3083,-57.1333,-10322,-28501
576,906849,1.78008,-9.73301,1.55039,-78.8159,-8.63525,-135.324,1.70898,0.12207,2.13623,0.24939,-0.295135,0.563049,-0.730438,-119.433,60.3,-57.1333,-10322,-28501
582,906855,1.76094,-9.69473,1.53604,-78.8049,-8.62427,-135.461,2.2583,0.366211,2.31934,0.248566,-0.294373,0.563385,-0.730774,-119.417,60.3,-57.125,-10322,-28501
588,906861,1.84707,-9.72344,1.5791,-78.7994,-8.61328,-135.599,2.38037,0.183105,2.38037,0.247742,-0.29361,0.563751,-0.731079,-119.408,60.3167,-57.125,-10322,-28501
594,906867,1.79443,-9.71865,1.60781,-78.7775,-8.58032,-135.873,3.23486,0.183105,3.41797,0.246185,-0.292053,0.564392,-0.73172,-119.408,60.3667,-57.0667,-10322,-28501
600,906873,1.74658,-9.65645,1.70352,-78.761,-8.56384,-136.005,3.35693,-0.12207,3.84521,0.245422,-0.29126,0.564697,-0.732056,-119.408,60.3917,-57.05,-10322,-28501
606,906879,1.68438,-9.56553,1.75615,-78.75,-8.54736,-136.143,3.60107,-0.183105,3.78418,0.24472,-0.290466,0.565033,-0.732361,-119.4,60.4417,-57.0333,-10322,-28501
612,906885,1.6126,-9.50811,1.86621,-78.7335,-8.53088,-136.269,3.84521,-0.610352,3.90625,0.243988,-0.289703,0.565338,-0.732697,-119.408,60.475,-57.025,-10322,-28501
618,906891,1.5791,-9.42676,1.99541,-78.7225,-8.5144,-136.401,3.23486,-0.610352,3.72314,0.243286,-0.28891,0.565613,-0.733032,-119.408,60.5,-57.025,-10322,-28501
624,906897,1.53125,-9.33584,1.99541,-78.7115,-8.48694,-136.659,1.70898,-1.15967,3.23486,0.241821,-0.287384,0.566223,-0.733612,-119.408,60.5,-57.05,-10322,-28501
630,906903,1.51689,-9.29756,2.04326,-78.7115,-8.47595,-136.785,1.15967,-0.854492,2.86865,0.241089,-0.286682,0.566559,-0.733887,-119.375,60.5333,-57.0667,-10322,-28501
636,906909,1.46426,-9.34062,1.91885,-78.7115,-8.46497,-136.912,0.549316,-1.34277,2.50244,0.240326,-0.28598,0.566895,-0.734161,-119.342,60.5167,-57.1,-10322,-28501
642,906915,1.56953,-9.38369,1.91406,-78.717,-8.45947,-137.043,0,-1.09863,2.01416,0.239563,-0.285278,0.567261,-0.734406,-119.325,60.4917,-57.1417,-10322,-28501
648,906921,1.43555,-9.4459,1.87578,-78.7225,-8.45398,-137.17,-0.305176,-0.915527,1.46484,0.23877,-0.284637,0.567627,-0.734619,-119.342,60.4917,-57.1583,-10322,-28501
654,906927,1.60781,-9.40283,1.90928,-78.728,-8.44849,-137.422,-0.305176,-1.28174,0.854492,0.237152,-0.283325,0.568329,-0.735107,-119.358,60.4583,-57.1833,-10322,-28501
660,906933,1.52646,-9.47461,1.84707,-78.7335,-8.44849,-137.549,-0.549316,-0.976563,0.854492,0.236328,-0.282715,0.568665,-0.735321,-119.35,60.4167,-57.1833,-10322,-28501
666,906939,1.58867,-9.43633,1.80879,-78.7445,-8.44849,-137.681,-0.732422,-0.793457,0.610352,0.235504,-0.282074,0.569031,-0.735565,-119.35,60.425,-57.1583,-10322,-28501
672,906945,1.58867,-9.55117,1.75137,-78.75,-8.44849,-137.807,-1.0376,-0.671387,0.366211,0.23468,-0.281433,0.569397,-0.735809,-119.358,60.4417,-57.1667,-10322,-28501
678,906951,1.64609,-9.58467,1.74658,-78.761,-8.44849,-137.939,-1.0376,-0.610352,0.610352,0.233826,-0.280823,0.569763,-0.736023,-119.367,60.4333,-57.15,-10322,-28501
684,906957,1.71309,-9.64688,1.68438,-78.772,-8.44849,-138.197,-0.366211,-0.244141,0.610352,0.232117,-0.279541,0.570496,-0.736481,-119.4,60.4417,-57.1333,-10322,-28501
690,906963,1.70352,-9.64688,1.67002,-78.772,-8.44299,-138.329,-0.0610352,-0.12207,0.915527,0.231262,-0.2789,0.570831,-0.736725,-119.4,60.45,-57.1,-10322,-28501
696,906969,1.70352,-9.65645,1.66523,-78.772,-8.4375,-138.455,0.305176,-0.183105,1.2207,0.230438,-0.278259,0.571198,-0.736969,-119.392,60.4417,-57.1167,-10322,-28501
702,906975,1.66045,-9.59902,1.73701,-78.7775,-8.4375,-138.587,0.427246,0,1.2207,0.229614,-0.277588,0.571533,-0.737213,-119.358,60.4083,-57.1583,-10322,-28501
708,906981,1.65088,-9.55117,1.76094,-78.7775,-8.43201,-138.713,0.183105,-0.12207,0.854492,0.227997,-0.276276,0.572174,-0.737701,-119.325,60.4167,-57.1833,-10322,-28501
714,906987,1.53125,-9.53203,1.78486,-78.783,-8.42651,-138.972,0.183105,-0.427246,1.2207,0.227173,-0.275635,0.57251,-0.737915,-119.275,60.4083,-57.2083,-10322,-28501
720,906993,1.55518,-9.51768,1.84707,-78.783,-8.42651,-139.098,0.183105,-0.427246,0.793457,0.226379,-0.274963,0.572845,-0.738159,-119.267,60.4167,-57.2167,-10322,-28501
726,906999,1.57432,-9.48897,1.84707,-78.7885,-8.42651,-139.224,0.183105,-0.0610352,0.488281,0.225555,-0.274353,0.573151,-0.738403,-119.283,60.4417,-57.1917,-10322,-28501
732,907005,1.57432,-9.49375,1.81836,-78.7885,-8.42651,-139.351,0,0,0.793457,0.224731,-0.273712,0.573486,-0.738647,-119.275,60.4833,-57.175,-10322,-28501
738,907011,1.56953,-9.46504,1.82314,-78.7939,-8.42651,-139.477,0,-0.244141,0.244141,0.223083,-0.27243,0.574127,-0.739105,-119.275,60.4917,-57.2083,-10322,-28501
744,907017,1.56475,-9.49375,1.79443,-78.7994,-8.43201,-139.735,-0.610352,0.183105,-0.244141,0.222229,-0.27179,0.574432,-0.739349,-119.267,60.5,-57.3,-10322,-28501
750,907023,1.61738,-9.55596,1.76572,-78.8049,-8.43201,-139.861,-0.549316,0,0,0.221375,-0.271179,0.574768,-0.739563,-119.258,60.5333,-57.35,-10322,-28501
756,907029,1.64131,-9.58945,1.77051,-78.8104,-8.4375,-139.988,-0.488281,0,-0.244141,0.220551,-0.270569,0.575104,-0.739777,-119.25,60.5167,-57.4083,-10322,-28501
762,907035,1.67002,-9.59424,1.75615,-78.8159,-8.4375,-140.114,0,0,0.366211,0.219696,-0.269958,0.575439,-0.740021,-119.25,60.5,-57.4333,-10322,-28501
768,907041,1.67002,-9.58467,1.76572,-78.8159,-8.4375,-140.24,-0.12207,0.12207,0.183105,0.218048,-0.268707,0.57605,-0.740479,-119.25,60.5083,-57.3917,-10322,-28501
774,907047,1.58389,-9.58945,1.72266,-78.8214,-8.4375,-140.493,-0.12207,-0.183105,0.183105,0.217224,-0.268097,0.576355,-0.740692,-119.258,60.4667,-57.2,-10322,-28501
780,907053,1.61738,-9.54639,1.82314,-78.8269,-8.44299,-140.614,0,-0.244141,0.0610352,0.2164,-0.267487,0.576691,-0.740906,-119.267,60.4417,-57.0667,-10322,-28501
786,907059,1.7083,-9.51768,1.79922,-78.8324,-8.44299,-140.74,-0.427246,-0.183105,0.12207,0.215576,-0.266876,0.576965,-0.74115,-119.267,60.4417,-56.9417,-10322,-28501
792,907065,1.65566,-9.62295,1.78008,-78.8324,-8.44299,-140.861,-0.0610352,0,0.183105,0.214752,-0.266266,0.577301,-0.741333,-119.275,60.45,-56.8417,-10322,-28501
798,907071,1.65566,-9.60381,1.7418,-78.8379,-8.44299,-140.988,-0.0610352,-0.244141,0.366211,0.213135,-0.265045,0.577911,-0.741791,-119.275,60.4583,-56.8083,-10322,-28501
804,907077,1.62695,-9.54639,1.804,-78.8434,-8.44849,-141.229,0,-0.732422,0.488281,0.212341,-0.264465,0.578186,-0.742004,-119.25,60.4417,-56.8333,-10322,-28501
810,907083,1.66045,-9.49375,1.83271,-78.8489,-8.44849,-141.35,0,-0.366211,0.305176,0.211548,-0.263855,0.578491,-0.742188,-119.233,60.475,-56.875,-10322,-28501
816,907089,1.58389,-9.51289,1.76572,-78.8489,-8.44849,-141.471,-0.427246,-0.305176,0.305176,0.210754,-0.263275,0.578796,-0.742401,-119.25,60.475,-56.925,-10322,-28501
822,907095,1.60303,-9.52246,1.81357,-78.8599,-8.44849,-141.586,-0.671387,-0.244141,0.427246,0.209961,-0.262665,0.579102,-0.742615,-119.267,60.4667,-56.95,-10322,-28501
828,907101,1.57432,-9.49854,1.83271,-78.8654,-8.45398,-141.713,-0.671387,-0.183105,0.0610352,0.208344,-0.261505,0.579712,-0.742981,-119.283,60.5083,-56.9417,-10322,-28501
834,907107,1.56953,-9.46504,1.87578,-78.8763,-8.45398,-141.954,-0.915527,-0.12207,-0.0610352,0.20755,-0.260895,0.580017,-0.743164,-119.25,60.5417,-56.975,-10322,-28501
840,907113,1.54082,-9.48418,1.81836,-78.8873,-8.45947,-142.075,-1.2207,-0.0610352,-0.305176,0.206726,-0.260315,0.580353,-0.743347,-119.233,60.5333,-57.0417,-10322,-28501
846,907119,1.56475,-9.53682,1.78965,-78.8928,-8.46497,-142.191,-1.0376,-0.12207,-0.183105,0.205902,-0.259735,0.580658,-0.74353,-119.208,60.55,-57.1167,-10322,-28501
852,907125,1.62695,-9.52725,1.79443,-78.9038,-8.46497,-142.311,-1.34277,-0.0610352,-0.488281,0.205078,-0.259155,0.580963,-0.743713,-119.192,60.5583,-57.175,-10322,-28501
858,907131,1.61738,-9.53203,1.71787,-78.9093,-8.47046,-142.432,-1.34277,0,-0.610352,0.20343,-0.258026,0.581604,-0.74408,-119.167,60.5333,-57.1917,-10322,-28501
864,907137,1.59824,-9.52246,1.73701,-78.9258,-8.48145,-142.674,-1.34277,0.305176,-0.671387,0.202606,-0.257477,0.581909,-0.744263,-119.15,60.5167,-57.0917,-10322,-28501
870,907143,1.59346,-9.55596,1.72266,-78.9368,-8.48694,-142.8,-1.34277,0.427246,-1.2207,0.201782,-0.256897,0.582245,-0.744446,-119.15,60.5417,-57.0083,-10322,-28501
876,907149,1.56953,-9.56553,1.75615,-78.9423,-8.49792,-142.921,-1.15967,0.854492,-1.09863,0.200928,-0.256348,0.58255,-0.744598,-119.142,60.55,-56.9083,-10322,-28501
882,907155,1.5791,-9.49375,1.77529,-78.9478,-8.50342,-143.042,-0.976563,0.366211,-1.15967,0.200073,-0.255768,0.582855,-0.744812,-119.142,60.5333,-56.8833,-10322,-28501
888,907161,1.6126,-9.52725,1.75615,-78.9587,-8.50891,-143.163,-0.976563,0.488281,-1.09863,0.198364,-0.254639,0.583435,-0.745178,-119.133,60.5417,-56.8417,-10322,-28501
894,907167,1.64609,-9.52246,1.74658,-78.9697,-8.53088,-143.41,-1.15967,0.610352,-1.70898,0.19751,-0.254089,0.58374,-0.745361,-119.15,60.5167,-56.8667,-10322,-28501
900,907173,1.65088,-9.55117,1.76094,-78.9752,-8.53638,-143.531,-1.28174,0.976563,-1.64795,0.196655,-0.25354,0.584015,-0.745544,-119.175,60.5,-56.9083,-10322,-28501
906,907179,1.64609,-9.55596,1.73701,-78.9862,-8.54736,-143.657,-1.40381,1.09863,-1.46484,0.195801,-0.25296,0.58432,-0.745728,-119.183,60.4917,-56.9167,-10330,-28500
912,907185,1.6126,-9.62773,1.73701,-78.9917,-8.55286,-143.778,-0.915527,0.915527,-1.58691,0.194916,-0.252411,0.584625,-0.745911,-119.2,60.4917,-56.9,-10330,-28500
918,907191,1.63174,-9.55596,1.75615,-78.9972,-8.56384,-143.899,-0.976563,0.732422,-1.58691,0.193207,-0.251312,0.585205,-0.746277,-119.217,60.4833,-56.9333,-10322,-28501
924,907197,1.64609,-9.5416,1.76094,-79.0082,-8.58032,-144.141,-0.854492,0.671387,-1.46484,0.192352,-0.250763,0.58548,-0.74646,-119.267,60.4917,-56.8917,-10322,-28501
930,907203,1.65088,-9.53203,1.79443,-79.0192,-8.59131,-144.261,-1.15967,0.671387,-1.34277,0.191528,-0.250214,0.585754,-0.746643,-119.258,60.5167,-56.875,-10322,-28501
936,907209,1.63174,-9.51289,1.78965,-79.0247,-8.60229,-144.382,-1.28174,0.793457,-1.77002,0.190674,-0.249664,0.58606,-0.746826,-119.25,60.525,-56.8417,-10322,-28501
942,907215,1.6126,-9.52725,1.79443,-79.0356,-8.60779,-144.498,-1.34277,0.549316,-1.70898,0.189819,-0.249115,0.586334,-0.746979,-119.233,60.5167,-56.775,-10322,-28501
948,907221,1.62695,-9.55117,1.76094,-79.0411,-8.61877,-144.619,-1.58691,0.793457,-1.83105,0.188141,-0.248047,0.586914,-0.747314,-119.225,60.5333,-56.7167,-10322,-28501
954,907227,1.65088,-9.58467,1.72744,-79.0631,-8.64075,-144.855,-1.64795,0.549316,-1.58691,0.187286,-0.247528,0.587219,-0.747467,-119.225,60.5333,-56.65,-10322,-28501
960,907233,1.66523,-9.61816,1.7083,-79.0686,-8.65173,-144.97,-1.52588,0.915527,-1.77002,0.186432,-0.247009,0.587494,-0.74762,-119.225,60.5167,-56.7,-10322,-28501
966,907239,1.66045,-9.59424,1.71309,-79.0796,-8.65723,-145.091,-1.34277,0.549316,-1.64795,0.185608,-0.24646,0.587799,-0.747803,-119.233,60.525,-56.775,-10322,-28501
972,907245,1.65088,-9.57031,1.75137,-79.0851,-8.66821,-145.206,-1.2207,0.549316,-1.64795,0.184753,-0.245941,0.588074,-0.747955,-119.233,60.55,-56.8333,-10322,-28501
978,907251,1.59824,-9.5416,1.72266,-79.0906,-8.6792,-145.322,-1.70898,0.793457,-1.83105,0.183105,-0.244873,0.588623,-0.74826,-119.242,60.5583,-56.875,-10322,-28501
984,907257,1.63174,-9.53682,1.7418,-79.1125,-8.70117,-145.558,-1.58691,0.427246,-1.89209,0.182251,-0.244354,0.588928,-0.748413,-119.3,60.575,-56.9,-10322,-28501
990,907263,1.66045,-9.43633,1.78965,-79.1235,-8.71216,-145.673,-1.52588,0.305176,-1.83105,0.181427,-0.243835,0.589203,-0.748566,-119.325,60.575,-56.8833,-10322,-28501
996,907269,1.62217,-9.50332,1.81836,-79.129,-8.72314,-145.789,-1.83105,0.671387,-2.01416,0.180603,-0.243347,0.589478,-0.748718,-119.333,60.55,-56.8917,-10322,-28501
1002,907275,1.65088,-9.50811,1.81357,-79.14,-8.73413,-145.904,-1.83105,0.793457,-2.31934,0.179749,-0.242828,0.589752,-0.748871,-119.317,60.5333,-56.95,-10322,-28501
1008,907281,1.7418,-9.59902,1.68438,-79.151,-8.74512,-146.019,-1.83105,0.427246,-1.77002,0.17807,-0.241821,0.590332,-0.749146,-119.292,60.5333,-56.9833,-10322,-28501
1014,907287,1.76094,-9.65645,1.66045,-79.173,-8.76709,-146.245,-2.0752,0.488281,-1.95313,0.177246,-0.241333,0.590607,-0.749268,-119.283,60.575,-57.0917,-10322,-28501
1020,907293,1.72744,-9.67559,1.77051,-79.184,-8.77808,-146.36,-1.89209,0.488281,-1.34277,0.176422,-0.240814,0.590912,-0.74939,-119.275,60.5667,-57.125,-10322,-28501
1026,907299,1.72266,-9.65645,1.63174,-79.1949,-8.78357,-146.47,-1.46484,0.488281,-1.09863,0.175598,-0.240295,0.591187,-0.749542,-119.275,60.5583,-57.15,-10322,-28501
1032,907305,1.73223,-9.58945,1.69395,-79.2004,-8.78906,-146.58,-1.09863,0.183105,-1.2207,0.174805,-0.239777,0.591461,-0.749664,-119.258,60.5333,-57.1417,-10322,-28501
1038,907311,1.69395,-9.57988,1.73701,-79.2169,-8.80554,-146.805,-1.09863,0.366211,-1.15967,0.173248,-0.238739,0.59201,-0.749939,-119.258,60.4917,-57.1417,-10330,-28500
1044,907317,1.68916,-9.56553,1.73223,-79.2224,-8.81104,-146.915,-1.15967,0.12207,-0.915527,0.172485,-0.23822,0.592255,-0.750092,-119.275,60.4083,-57.2167,-10330,-28500
1050,907323,1.6748,-9.55596,1.70352,-79.2334,-8.81653,-147.025,-1.34277,0.366211,-0.976563,0.171692,-0.237732,0.592529,-0.750214,-119.3,60.425,-57.2667,-10330,-28500
1056,907329,1.67002,-9.54639,1.7083,-79.2389,-8.82202,-147.134,-1.28174,0.305176,-0.854492,0.170929,-0.237213,0.592773,-0.750336,-119.333,60.4167,-57.325,-10330,-28500
1062,907335,1.73223,-9.52725,1.71309,-79.2499,-8.82751,-147.239,-1.34277,0.12207,-0.854492,0.170166,-0.236694,0.593048,-0.750458,-119.358,60.4083,-57.375,-10330,-28500
1068,907341,1.59346,-9.52725,1.7418,-79.2664,-8.8385,-147.453,-1.15967,-0.427246,-0.793457,0.168671,-0.235657,0.593597,-0.750702,-119.392,60.4167,-57.375,-10330,-28500
1074,907347,1.62217,-9.45068,1.82793,-79.2719,-8.84399,-147.557,-1.34277,-0.12207,-0.854492,0.167938,-0.235168,0.593842,-0.750824,-119.483,60.45,-57.25,-10330,-28500
1080,907353,1.61738,-9.41719,1.79443,-79.2828,-8.85498,-147.662,-1.52588,-0.244141,-0.976563,0.167175,-0.23468,0.594086,-0.750946,-119.508,60.4333,-57.2083,-10330,-28500
1086,907359,1.56953,-9.46025,1.74658,-79.2938,-8.86047,-147.772,-1.77002,-0.183105,-1.28174,0.166412,-0.234192,0.59436,-0.751068,-119.542,60.4417,-57.1583,-10330,-28500
1092,907365,1.57432,-9.42197,1.79443,-79.3048,-8.87146,-147.876,-1.89209,0,-1.46484,0.16568,-0.233704,0.594635,-0.75116,-119.55,60.45,-57.125,-10330,-28500
1098,907371,1.60781,-9.47461,1.77529,-79.3268,-8.89893,-148.09,-2.50244,0.305176,-2.31934,0.164093,-0.232788,0.595154,-0.751373,-119.558,60.425,-57.1,-10330,-28500
1104,907377,1.63174,-9.5416,1.68916,-79.3433,-8.90991,-148.2,-2.56348,0.12207,-2.19727,0.1633,-0.23233,0.595428,-0.751465,-119.542,60.3667,-57.0083,-10330,-28500
1110,907383,1.67002,-9.61338,1.66523,-79.3542,-8.92639,-148.304,-2.38037,0.427246,-2.56348,0.162506,-0.231873,0.595703,-0.751556,-119.533,60.375,-56.9417,-10330,-28500
1116,907389,1.66523,-9.60859,1.56475,-79.3652,-8.93738,-148.414,-1.89209,0.366211,-2.31934,0.161682,-0.231415,0.595978,-0.751678,-119.533,60.3583,-56.8667,-10330,-28500
1122,907395,1.66523,-9.56074,1.62217,-79.3762,-8.95386,-148.519,-1.95313,0.366211,-2.68555,0.160889,-0.230927,0.596222,-0.75177,-119.517,60.35,-56.8167,-10330,-28500
1128,907401,1.70352,-9.51289,1.69395,-79.3927,-8.98132,-148.733,-1.64795,0.854492,-2.62451,0.159302,-0.230042,0.59671,-0.752014,-119.5,60.3333,-56.7583,-10330,-28500
1134,907407,1.68916,-9.49854,1.73223,-79.3982,-8.9978,-148.843,-1.58691,0.610352,-3.11279,0.158478,-0.229584,0.596954,-0.752136,-119.475,60.3333,-56.6833,-10330,-28500
1140,907413,1.7083,-9.49854,1.66523,-79.4092,-9.00879,-148.953,-1.89209,1.2207,-2.56348,0.157684,-0.229126,0.597198,-0.752258,-119.475,60.3,-56.7167,-10330,-28500
1146,907419,2.01455,-9.69951,1.13408,-79.4147,-9.02527,-149.073,-1.15967,3.05176,-3.11279,0.15686,-0.228638,0.597443,-0.75238,-119.5,60.3167,-56.7583,-10330,-28500
1152,907425,2.49307,-10.1972,0.736914,-79.4037,-9.03625,-149.222,1.89209,8.60596,-3.54004,0.155975,-0.228119,0.597687,-0.752533,-119.517,60.3333,-56.7833,-10330,-28500
1158,907431,1.44033,-9.46982,1.41162,-79.2883,-9.04724,-149.606,10.7422,18.7988,-4.45557,0.153809,-0.22641,0.5979,-0.753326,-119.567,60.3167,-56.7833,-10330,-28500
1164,907437,1.36377,-9.27842,1.98584,-79.2169,-9.05273,-149.81,11.7188,19.4092,-4.3335,0.152618,-0.225311,0.597839,-0.753937,-119.583,60.3167,-56.8,-10330,-28500
1170,907443,0.655566,-8.7377,2.6749,-79.151,-9.06372,-150.002,10.8643,17.5171,-5.7373,0.151398,-0.224213,0.597778,-0.754578,-119.617,60.325,-56.8,-10330,-28500
1176,907449,0.430664,-8.7042,2.61748,-79.1125,-9.09119,-150.167,5.7373,12.4512,-7.44629,0.150177,-0.223206,0.597687,-0.755188,-119.625,60.2917,-56.85,-10330,-28500
1182,907455,1.14365,-9.26885,2.18203,-79.0906,-9.12415,-150.326,2.50244,10.0098,-8.66699,0.149017,-0.222412,0.597717,-0.755615,-119.625,60.2583,-56.8917,-10330,-28500
1188,907461,1.12451,-9.47461,2.10068,-79.0466,-9.21204,-150.623,2.99072,5.67627,-11.1084,0.146637,-0.221191,0.59787,-0.756317,-119.608,60.225,-56.9167,-10330,-28500
1194,907467,1.73701,-9.32148,2.00977,-79.0356,-9.26147,-150.76,1.15967,6.10352,-11.5356,0.145508,-0.220764,0.5979,-0.756653,-119.592,60.1917,-56.975,-10330,-28500
1200,907473,1.79922,-9.52246,1.91406,-79.0356,-9.30542,-150.903,-0.793457,6.22559,-11.2915,0.144318,-0.220306,0.597992,-0.756927,-119.583,60.1417,-57.0083,-10330,-28500
1206,907479,1.73701,-9.73779,1.7418,-79.0356,-9.35486,-151.029,-1.09863,4.08936,-10.8643,0.143127,-0.219879,0.598145,-0.757172,-119.6,60.1083,-57.075,-10330,-28500
1212,907485,1.9667,-9.73779,1.71787,-79.0356,-9.4043,-151.15,-0.366211,2.19727,-10.1318,0.141998,-0.219543,0.598267,-0.757355,-119.617,60.0917,-57.125,-10330,-28500
1218,907491,2.11025,-9.81914,1.44033,-79.0356,-9.49219,-151.386,-0.671387,1.89209,-9.21631,0.139923,-0.218872,0.598541,-0.757721,-119.667,60.0083,-57.1917,-10330,-28500
1224,907497,1.95713,-9.74258,1.61738,-79.0356,-9.53064,-151.496,0.244141,1.40381,-8.42285,0.138916,-0.218536,0.598694,-0.757904,-119.692,59.9833,-57.2167,-10330,-28500
1230,907503,1.78965,-9.68994,1.64131,-79.0356,-9.57458,-151.606,0.12207,0.915527,-8.48389,0.13797,-0.218201,0.598816,-0.758057,-119.708,59.975,-57.1833,-10330,-28500
1236,907509,1.804,-9.56553,1.86621,-79.0356,-9.61304,-151.71,-0.305176,0.12207,-7.87354,0.137024,-0.217896,0.598907,-0.75824,-119.708,59.9333,-57.175,-10330,-28500
1242,907515,1.53125,-9.57988,1.87578,-79.0411,-9.65149,-151.815,-0.793457,-0.427246,-8.78906,0.136108,-0.21759,0.59906,-0.758392,-119.733,59.8833,-57.1667,-10330,-28500
1248,907521,1.77051,-9.50811,1.92363,-79.0576,-9.74487,-151.99,-1.40381,-3.78418,-8.66699,0.134308,-0.217163,0.599304,-0.758636,-119.783,59.8333,-57.125,-10330,-28500
1254,907527,1.81357,-9.42197,1.88535,-79.0686,-9.79431,-152.078,-1.70898,-3.72314,-9.21631,0.133484,-0.21701,0.599426,-0.758728,-119.825,59.8,-57.1167,-10330,-28500
1260,907533,0.904395,-4.7373,0.799121,-79.0796,-9.83826,-152.155,-2.56348,-4.57764,-8.78906,0.132629,-0.216888,0.599548,-0.758789,-119.858,59.775,-57.1583,-10322,-28501
1266,907539,1.9332,-9.39326,1.81357,-79.1016,-9.8877,-152.232,-2.99072,-5.18799,-8.97217,0.131805,-0.216797,0.599731,-0.75885,-119.9,59.7417,-57.1917,-10322,-28501
1272,907545,1.94756,-9.42197,1.89971,-79.1235,-9.93713,-152.314,-3.479,-4.45557,-8.8501,0.130157,-0.216614,0.600098,-0.758911,-119.933,59.7333,-57.1917,-10322,-28501
1278,907551,1.61738,-9.56553,1.871,-79.1675,-10.036,-152.479,-4.3335,-4.82178,-9.82666,0.129272,-0.216522,0.600281,-0.758911,-119.992,59.675,-57.2417,-10322,-28501
1284,907557,1.75615,-9.51768,1.84707,-79.1949,-10.0909,-152.556,-4.39453,-5.98145,-10.3149,0.128418,-0.216461,0.600494,-0.758911,-120.008,59.65,-57.2667,-10322,-28501
1290,907563,1.75137,-9.42676,1.9667,-79.2224,-10.1514,-152.628,-4.76074,-6.16455,-10.3149,0.127563,-0.216461,0.600708,-0.758911,-120.033,59.65,-57.25,-10322,-28501
1296,907569,1.71309,-9.39326,1.90928,-79.2554,-10.2063,-152.693,-5.98145,-7.62939,-10.8032,0.126709,-0.216461,0.600891,-0.758881,-120.058,59.6083,-57.225,-10322,-28501
1302,907575,1.89971,-9.48897,1.88535,-79.2938,-10.2667,-152.754,-6.16455,-8.48389,-10.6812,0.125092,-0.216644,0.601349,-0.758728,-120.092,59.5583,-57.1417,-10322,-28501
1308,907581,2.26338,-9.61816,1.58867,-79.3707,-10.3821,-152.869,-6.65283,-8.60596,-9.76563,0.124298,-0.216736,0.601593,-0.758636,-120.167,59.525,-56.9583,-10322,-28501
1314,907587,2.3208,-9.65166,1.36855,-79.4037,-10.437,-152.935,-6.28662,-7.56836,-9.27734,0.123535,-0.216827,0.601868,-0.758545,-120.192,59.5083,-56.9167,-10322,-28501
1320,907593,2.23467,-9.72344,1.44033,-79.4366,-10.481,-153.001,-5.43213,-6.65283,-8.60596,0.122742,-0.216858,0.602112,-0.758453,-120.217,59.4667,-56.9083,-10322,-28501
1326,907599,2.16768,-9.68037,1.49775,-79.4696,-10.5249,-153.067,-4.94385,-6.5918,-7.75146,0.121979,-0.216858,0.602356,-0.758392,-120.25,59.4417,-56.8833,-10322,-28501
1332,907605,2.15811,-9.59424,1.38291,-79.4971,-10.5688,-153.133,-4.45557,-6.65283,-7.56836,0.120514,-0.216797,0.602814,-0.75827,-120.308,59.4417,-56.8417,-10322,-28501
1338,907611,2.22031,-9.62295,1.33506,-79.541,-10.6458,-153.259,-3.23486,-6.34766,-5.98145,0.119843,-0.216736,0.602997,-0.75827,-120.417,59.3667,-56.7667,-10322,-28501
1344,907617,2.25859,-9.7043,1.33506,-79.5575,-10.6787,-153.331,-2.2583,-5.31006,-5.85938,0.119171,-0.216644,0.60318,-0.75824,-120.467,59.3333,-56.7083,-10322,-28501
1350,907623,2.16289,-9.66602,1.27285,-79.5685,-10.7117,-153.402,-1.46484,-4.5166,-5.24902,0.118469,-0.216522,0.603363,-0.75824,-120.533,59.3333,-56.725,-10322,-28501
1356,907629,2.15811,-9.68037,1.45469,-79.574,-10.7391,-153.474,-0.305176,-4.57764,-5.00488,0.117798,-0.216339,0.603516,-0.75827,-120.575,59.3083,-56.7417,-10322,-28501
1362,907635,2.46914,-9.54639,1.46904,-79.5795,-10.7666,-153.55,0.427246,-3.96729,-4.5166,0.116516,-0.215942,0.603729,-0.758392,-120.633,59.2833,-56.7583,-10330,-28500
1368,907641,2.55049,-9.59902,1.32549,-79.5795,-10.8051,-153.715,0.732422,-0.793457,-3.11279,0.115875,-0.215668,0.603851,-0.758484,-120.733,59.2667,-56.7083,-10330,-28500
1374,907647,2.22988,-9.71387,1.28242,-79.5795,-10.8215,-153.82,0.854492,1.89209,-2.99072,0.115173,-0.215302,0.604004,-0.758575,-120.775,59.2333,-56.6667,-10322,-28501
1380,907653,1.88535,-9.69951,1.63174,-79.5685,-10.838,-153.918,2.19727,2.31934,-3.11279,0.114441,-0.214874,0.604126,-0.758728,-120.792,59.1833,-56.6333,-10322,-28501
1386,907659,1.91885,-9.52246,1.64609,-79.5575,-10.8545,-154.023,2.31934,2.0752,-3.17383,0.113678,-0.214417,0.604218,-0.758881,-120.808,59.15,-56.6,-10322,-28501
1392,907665,2.04326,-9.47939,1.7418,-79.5465,-10.871,-154.122,1.95313,2.01416,-3.35693,0.112213,-0.213531,0.604401,-0.759216,-120.808,59.15,-56.575,-10322,-28501
1398,907671,2.08154,-9.4459,1.74658,-79.53,-10.8984,-154.33,1.58691,2.56348,-3.23486,0.11142,-0.213074,0.604492,-0.759369,-120.817,59.125,-56.625,-10322,-28501
1404,907677,2.2251,-9.38848,1.67959,-79.5245,-10.9149,-154.44,1.46484,2.92969,-3.41797,0.110657,-0.212616,0.604614,-0.759521,-120.808,59.1417,-56.6833,-10322,-28501
1410,907683,2.10547,-9.43154,1.69395,-79.519,-10.9314,-154.55,0.976563,4.02832,-3.41797,0.109894,-0.212158,0.604736,-0.759674,-120.8,59.1583,-56.7167,-10322,-28501
1416,907689,2.0002,-9.46025,1.7418,-79.5081,-10.9424,-154.66,1.15967,3.90625,-2.92969,0.1091,-0.211639,0.604858,-0.759827,-120.792,59.1333,-56.7333,-10322,-28501
1422,907695,2.12461,-9.45068,1.73701,-79.5026,-10.9589,-154.764,1.40381,3.78418,-2.92969,0.107544,-0.210663,0.605103,-0.760132,-120.792,59.075,-56.775,-10322,-28501
1428,907701,2.15811,-9.45547,1.67002,-79.4861,-10.9808,-154.984,1.09863,4.57764,-2.31934,0.10675,-0.210144,0.605225,-0.760284,-120.783,59.025,-56.7167,-10322,-28501
1434,907707,2.11982,-9.49375,1.65566,-79.4751,-10.9863,-155.099,1.70898,4.63867,-2.2583,0.105988,-0.209625,0.605347,-0.760437,-120.792,58.9833,-56.7,-10322,-28501
1440,907713,2.13896,-9.46982,1.67002,-79.4641,-10.9973,-155.209,2.01416,5.24902,-2.01416,0.105225,-0.209076,0.605469,-0.76059,-120.783,58.9333,-56.6917,-10322,-28501
1446,907719,2.20596,-9.49854,1.65566,-79.4476,-10.9973,-155.325,1.95313,5.24902,-1.34277,0.104431,-0.208496,0.605591,-0.760773,-120.775,58.8917,-56.675,-10322,-28501
1452,907725,2.29209,-9.63252,1.50732,-79.4366,-11.0028,-155.44,2.2583,5.79834,-1.15967,0.102936,-0.207336,0.605804,-0.761108,-120.783,58.8917,-56.675,-10322,-28501
1458,907731,2.19639,-9.68516,1.44033,-79.3982,-10.9973,-155.682,3.35693,7.38525,0,0.102173,-0.206665,0.605927,-0.761322,-120.8,58.85,-56.6667,-10322,-28501
1464,907737,2.16768,-9.65645,1.54561,-79.3762,-10.9918,-155.803,3.96729,7.56836,0,0.10141,-0.205994,0.606018,-0.761536,-120.842,58.8833,-56.6833,-10322,-28501
1470,907743,2.12461,-9.58945,1.59824,-79.3488,-10.9918,-155.929,4.3335,8.05664,-0.12207,0.100677,-0.205292,0.606079,-0.761749,-120.875,58.925,-56.6917,-10322,-28501
1476,907749,2.08633,-9.55596,1.68438,-79.3213,-10.9863,-156.05,4.39453,7.93457,0.12207,0.0999146,-0.20459,0.60614,-0.761993,-120.883,58.9417,-56.7083,-10322,-28501
1482,907755,2.19639,-9.49375,1.7083,-79.2993,-10.9753,-156.171,4.63867,7.69043,0.793457,0.0984497,-0.203156,0.606262,-0.762482,-120.917,58.9417,-56.7583,-10322,-28501
1488,907761,2.21553,-9.47461,1.67959,-79.2389,-10.9479,-156.412,5.24902,7.8125,2.19727,0.0977783,-0.202423,0.606293,-0.762726,-120.933,58.9583,-56.8417,-10322,-28501
1494,907767,2.17725,-9.47461,1.72744,-79.2114,-10.9314,-156.539,5.43213,8.42285,2.44141,0.0971069,-0.20166,0.606354,-0.76297,-120.958,58.9667,-56.8917,-10322,-28501
1500,907773,2.16289,-9.43154,1.7418,-79.1785,-10.9149,-156.66,5.37109,8.66699,2.99072,0.0964355,-0.200897,0.606384,-0.763245,-120.958,58.9417,-56.9417,-10322,-28501
1506,907779,2.03369,-9.51289,1.68916,-79.1455,-10.8929,-156.78,5.85938,8.30078,3.17383,0.0957642,-0.200073,0.606445,-0.763489,-120.942,58.9333,-56.9667,-10322,-28501
1512,907785,2.26816,-9.43154,1.71787,-79.1125,-10.871,-156.901,6.16455,8.8501,4.94385,0.0945129,-0.198456,0.606476,-0.764038,-120.942,58.9417,-56.9667,-10322,-28501
1518,907791,2.2251,-9.56074,1.68916,-79.0411,-10.8105,-157.143,6.5918,8.91113,5.43213,0.0939331,-0.197601,0.606537,-0.764282,-120.908,58.9167,-56.9583,-10322,-28501
1524,907797,2.1916,-9.58467,1.64131,-79.0027,-10.7776,-157.264,7.14111,9.27734,5.7373,0.0933533,-0.196747,0.606537,-0.764557,-120.908,58.9167,-56.95,-10322,-28501
1530,907803,2.10068,-9.55117,1.67002,-78.9587,-10.7446,-157.39,7.56836,9.58252,5.98145,0.092804,-0.195831,0.606567,-0.764862,-120.908,58.9417,-56.9417,-10322,-28501
1536,907809,2.08633,-9.51768,1.67959,-78.9203,-10.7062,-157.511,7.69043,9.64355,6.65283,0.0922241,-0.194946,0.606567,-0.765167,-120.908,58.9583,-56.95,-10322,-28501
1542,907815,1.97148,-9.53682,1.76572,-78.8763,-10.6677,-157.637,7.93457,10.498,6.40869,0.091156,-0.193054,0.606537,-0.765778,-120.9,58.9417,-56.9833,-10322,-28501
1548,907821,1.98105,-9.61816,1.71787,-78.7885,-10.5908,-157.885,8.11768,9.94873,6.40869,0.0905762,-0.192108,0.606537,-0.766083,-120.9,58.9417,-57.0333,-10322,-28501
1554,907827,1.96191,-9.60381,1.82314,-78.739,-10.5524,-158.011,8.97217,10.0098,6.95801,0.0900269,-0.191193,0.606506,-0.766418,-120.9,58.95,-57.0667,-10322,-28501
1560,907833,2.00977,-9.49375,1.871,-78.6896,-10.5139,-158.132,9.52148,9.76563,6.83594,0.0895081,-0.190247,0.606476,-0.766724,-120.908,58.9333,-57.1083,-10322,-28501
1566,907839,2.01455,-9.48418,1.92363,-78.6401,-10.47,-158.258,9.33838,10.7422,7.20215,0.0889893,-0.189301,0.606384,-0.76709,-120.9,58.95,-57.1833,-10322,-28501
1572,907845,1.88057,-9.49854,1.92842,-78.5852,-10.426,-158.384,10.0708,10.437,7.56836,0.0879517,-0.187347,0.606262,-0.767792,-120.892,58.975,-57.2333,-10322,-28501
1578,907851,1.97148,-9.57988,1.84707,-78.4753,-10.3381,-158.626,10.437,10.3149,8.17871,0.0874329,-0.186371,0.606201,-0.768158,-120.858,58.9667,-57.2917,-10322,-28501
1584,907857,2.03369,-9.62295,1.88057,-78.4204,-10.2942,-158.752,10.9253,10.437,7.8125,0.0869751,-0.185364,0.60611,-0.768524,-120.808,58.9583,-57.3,-10322,-28501
1590,907863,2.11982,-9.69473,1.86621,-78.36,-10.2448,-158.873,11.3525,10.6201,8.66699,0.0864868,-0.184387,0.605988,-0.76889,-120.758,58.9583,-57.3167,-10322,-28501
1596,907869,2.33994,-9.74258,1.67002,-78.2996,-10.1898,-158.994,12.085,10.7422,9.52148,0.0860291,-0.18338,0.605865,-0.769287,-120.717,58.9583,-57.4167,-10322,-28501
1602,907875,2.51699,-9.76172,1.6126,-78.1567,-10.069,-159.252,13.6108,13.1836,12.146,0.0851746,-0.181244,0.605591,-0.770111,-120.667,58.9417,-57.55,-10322,-28501
1608,907881,2.38779,-9.80479,1.60781,-78.0853,-9.99207,-159.384,14.1602,13.855,13.2446,0.0847778,-0.180054,0.605438,-0.770538,-120.6,58.9667,-57.7583,-10322,-28501
1614,907887,2.39258,-9.75215,1.77051,-78.0084,-9.91516,-159.516,14.8315,13.6719,14.5874,0.0844116,-0.178833,0.605255,-0.770996,-120.55,58.975,-57.8583,-10322,-28501
1620,907893,2.52656,-9.73301,1.72266,-77.937,-9.82727,-159.642,14.6484,13.1226,16.5405,0.0840759,-0.177551,0.605072,-0.771484,-120.483,58.9667,-57.9583,-10322,-28501
1626,907899,2.77061,-9.91006,1.48818,-77.8601,-9.72839,-159.758,14.7095,12.4512,18.6768,0.0838318,-0.17627,0.604919,-0.771912,-120.433,58.9833,-58.0833,-10322,-28501
1632,907905,2.64619,-10.379,1.29678,-77.7173,-9.50867,-159.977,15.564,10.1318,22.8882,0.0836182,-0.173584,0.604614,-0.772797,-120.375,59.0083,-58.2083,-10322,-28501
1638,907911,2.86631,-10.6518,1.17715,-77.6459,-9.38232,-160.049,16.1743,5.61523,26.8555,0.0836487,-0.172241,0.604462,-0.773193,-120.242,59.0333,-58.425,-10322,-28501
1644,907917,2.99551,-11.1733,0.92832,-77.5745,-9.2395,-160.098,17.5171,1.0376,30.6396,0.0839539,-0.170959,0.604309,-0.77356,-120.183,59.05,-58.5333,-10322,-28501
1650,907923,3.33047,-11.604,0.837402,-77.4976,-9.0802,-160.104,20.3247,-6.65283,36.0718,0.0845032,-0.169708,0.604126,-0.773926,-120.125,59.1083,-58.6167,-10322,-28501
1656,907929,4.7708,-13.0156,1.50732,-77.4371,-8.89343,-160.054,19.104,-15.7471,44.4336,0.0854492,-0.168579,0.603882,-0.774261,-120.075,59.1583,-58.7,-10322,-28501
1662,907935,5.07227,-15.3986,-0.229688,-77.2504,-8.37708,-159.846,32.1655,-24.4751,66.2842,0.0888672,-0.166412,0.603455,-0.774689,-120,59.1917,-58.7833,-10322,-28501
1668,907941,4.97656,-17.3605,1.2585,-77.0911,-8.05298,-159.659,43.335,-35.7666,77.7588,0.0913696,-0.1651,0.602966,-0.775055,-119.867,59.325,-58.9167,-10322,-28501
1674,907947,7.90986,-16.9442,2.69883,-76.8604,-7.67944,-159.417,59.2041,-43.5181,90.9424,0.094635,-0.163788,0.602142,-0.775604,-119.775,59.4083,-58.9833,-10322,-28501
1680,907953,10.9771,-15.6666,8.18262,-76.5472,-7.20154,-159.285,71.4722,-16.4795,107.3,0.0986328,-0.162384,0.6008,-0.776428,-119.667,59.4833,-59.05,-10322,-28501
1686,907959,4.5124,-8.26875,6.45996,-76.333,-6.61926,-159.351,47.3022,26.4893,119.263,0.102509,-0.159607,0.599274,-0.777679,-119.533,59.6083,-59.1333,-10322,-28501
1692,907965,6.51738,-18.3606,5.61777,-76.2122,-5.3833,-159.362,24.7192,22.0947,133.118,0.108826,-0.151276,0.599548,-0.778259,-119.35,59.7583,-59.2,-10322,-28501
1698,907971,6.46475,-16.3652,3.88076,-76.0913,-4.71313,-159.373,29.2969,21.6064,140.93,0.112213,-0.14679,0.599823,-0.778412,-118.9,60.025,-59.3833,-10322,-28501
1704,907977,6.87627,-15.6283,3.56494,-75.976,-3.98804,-159.417,26.7944,31.6162,149.963,0.115906,-0.14209,0.599976,-0.778656,-118.633,60.1917,-59.5583,-10322,-28501
1710,907983,5.33545,-15.6857,2.79932,-75.8771,-3.21899,-159.489,23.3154,38.7573,157.654,0.119598,-0.136841,0.600311,-0.778778,-118.333,60.4167,-59.7417,-10322,-28501
1716,907989,5.00049,-16.6188,1.92363,-75.7782,-2.41699,-159.532,24.0479,35.6445,165.344,0.123322,-0.131195,0.600769,-0.778809,-118,60.65,-59.9583,-10322,-28501
1722,907995,5.36416,-17.5472,1.22979,-75.5475,-0.714111,-159.598,28.9307,36.7432,179.199,0.131683,-0.119476,0.601624,-0.778656,-117.317,61.1583,-60.35,-10322,-28501
1728,908001,5.33066,-18.6669,0.660352,-75.3882,0.159302,-159.631,36.499,38.0859,182.434,0.136169,-0.113312,0.601959,-0.778564,-116.917,61.4583,-60.5,-10322,-28501
1734,908007,5.03877,-17.863,0.521582,-75.174,1.06567,-159.648,48.9502,37.0483,187.561,0.140747,-0.106995,0.60199,-0.778595,-116.483,61.7917,-60.6833,-10322,-28501
1740,908013,4.18223,-16.5901,0.382813,-74.9377,1.97754,-159.664,52.7344,38.3911,189.941,0.145538,-0.100494,0.601624,-0.77887,-116.008,62.125,-60.8583,-10322,-28501
1746,908019,3.42617,-16.0063,0.516797,-74.6851,2.8949,-159.664,56.5186,36.2549,192.078,0.150391,-0.0938416,0.601105,-0.779205,-115.492,62.5,-61.075,-10322,-28501
1752,908025,4.1248,-15.0445,0.631641,-74.1357,4.69116,-159.609,62.8662,30.0293,188.11,0.1604,-0.08078,0.599548,-0.779846,-114.333,63.3083,-61.5167,-10322,-28501
1758,908031,4.92871,-13.7047,0.746484,-73.8116,5.5426,-159.571,70.6787,27.4048,182.373,0.165375,-0.0744324,0.598511,-0.780243,-113.742,63.675,-61.7667,-10322,-28501
1764,908037,4.67031,-12.6328,1.0958,-73.4875,6.37207,-159.543,71.3501,29.48,176.514,0.170197,-0.0682678,0.597137,-0.780823,-113.133,64.0583,-62.05,-10322,-28501
1770,908043,4.79473,-11.0202,1.36855,-73.1525,7.14661,-159.516,72.998,28.0151,167.908,0.174774,-0.0622253,0.595703,-0.781403,-112.467,64.4917,-62.325,-10322,-28501
1776,908049,7.08682,-5.08184,0.234473,-72.7899,7.81677,-159.467,78.186,18.5547,149.048,0.179047,-0.056427,0.594147,-0.782074,-111.783,64.9083,-62.6333,-10322,-28501
1782,908055,12.762,-0.880469,0.579004,-72.4329,8.90991,-159.532,32.0435,34.9121,114.868,0.185974,-0.0471191,0.591095,-0.783386,-110.383,65.625,-63.3417,-10322,-28501
1788,908061,14.2071,-0.358887,-1.41162,-72.4274,9.36035,-159.692,15.2588,47.6074,100.037,0.188049,-0.0429688,0.59082,-0.783325,-109.717,65.9667,-63.6667,-10322,-28501
1794,908067,12.4223,0.00957031,-0.133984,-72.5098,9.7998,-159.988,1.34277,71.7773,90.5762,0.189178,-0.0389404,0.591187,-0.78299,-109.05,66.275,-64.0083,-10322,-28501
1800,908073,8.42666,-0.29668,-1.66045,-72.713,10.1459,-160.351,-18.7988,79.5288,70.4956,0.189331,-0.0345154,0.592224,-0.78241,-108.408,66.55,-64.3333,-10322,-28501
1806,908079,9.45547,-2.08633,-2.88066,-72.9382,10.3711,-160.686,-24.353,65.918,49.9878,0.188507,-0.0305176,0.593964,-0.781433,-107.758,66.825,-64.6417,-10322,-28501
1812,908085,10.1397,-1.45947,-2.46914,-73.4436,10.5853,-161.4,-30.5176,65.0635,23.2544,0.185577,-0.0252686,0.597534,-0.779602,-106.508,67.3417,-65.175,-10322,-28501
1818,908091,8.52715,-1.19629,-2.52656,-73.7238,10.6018,-161.752,-32.1655,57.373,13.1836,0.18338,-0.0231934,0.599518,-0.778656,-105.942,67.5333,-65.4,-10322,-28501
1824,908097,7.74238,-0.789551,-2.27295,-74.0094,10.5469,-162.07,-34.1187,46.2646,2.2583,0.18103,-0.0216675,0.601471,-0.77774,-105.392,67.7417,-65.5583,-10322,-28501
1830,908103,7.19209,-0.794336,-2.00977,-74.3005,10.4205,-162.35,-36.8652,36.0718,-9.09424,0.178558,-0.0208435,0.603424,-0.776825,-104.892,67.975,-65.6833,-10314,-28502
1836,908109,6.63701,-1.34941,-1.77529,-74.5917,10.2063,-162.587,-38.147,23.3154,-22.1558,0.173187,-0.0213623,0.607269,-0.775024,-104.417,68.1833,-65.8083,-10314,-28502
1842,908115,6.85234,-2.03369,-1.08145,-75.1245,9.54712,-162.933,-34.3018,-0.0610352,-46.7529,0.170349,-0.0227966,0.609009,-0.774261,-103.65,68.5583,-66.0667,-10314,-28502
1848,908121,6.54131,-2.07676,-0.775195,-75.3607,9.10767,-163.048,-31.311,-10.3149,-58.4717,0.167358,-0.0248718,0.610565,-0.773621,-103.333,68.7417,-66.2083,-10314,-28502
1854,908127,6.62744,-1.871,-0.378027,-75.5859,8.60229,-163.13,-29.7852,-19.2871,-70.0073,0.164276,-0.0276184,0.611938,-0.773102,-103.058,68.875,-66.3083,-10314,-28502
1860,908133,6.68965,-1.4499,0.0574219,-75.8112,8.02551,-163.202,-30.1514,-24.8413,-82.0923,0.161011,-0.0309448,0.613159,-0.772675,-102.858,68.975,-66.3833,-10314,-28502
1866,908139,6.91455,-1.21543,0.459375,-76.0419,7.38831,-163.273,-32.3486,-26.9165,-94.4214,0.153564,-0.0391235,0.615509,-0.771973,-102.708,69.05,-66.4,-10314,-28502
1872,908145,7.08203,-1.36377,1.05273,-76.5802,5.93811,-163.504,-42.2974,-18.4326,-119.019,0.14917,-0.0437317,0.616791,-0.771545,-102.567,69.2,-66.3167,-10314,-28502
1878,908151,6.82842,-1.81357,1.21064,-76.8933,5.14709,-163.685,-47.5464,-10.0708,-129.089,0.144196,-0.0484924,0.618256,-0.771057,-102.583,69.2083,-66.275,-10314,-28502
1884,908157,6.43125,-2.17246,1.30156,-77.2339,4.31763,-163.916,-53.2227,-0.793457,-138.245,0.138641,-0.0532837,0.619873,-0.770447,-102.617,69.2,-66.225,-10314,-28502
1890,908163,6.05322,-2.45,1.53125,-77.6129,3.46069,-164.207,-60.9131,11.8408,-146.79,0.132507,-0.0580444,0.621643,-0.769745,-102.7,69.2083,-66.175,-10314,-28502
1896,908169,5.52686,-3.05771,1.58389,-78.0304,2.58179,-164.57,-68.9697,24.9023,-153.809,0.118347,-0.0671082,0.626007,-0.767792,-102.867,69.175,-66.1083,-10314,-28502
1902,908175,3.71328,-5.24453,1.49297,-78.9423,0.752563,-165.46,-82.2144,48.1567,-168.945,0.110352,-0.0712891,0.62854,-0.766541,-103.408,69.0667,-65.9917,-10314,-28502
1908,908181,2.84238,-6.3834,1.44033,-79.4147,-0.192261,-165.97,-85.3882,56.0913,-176.086,0.101807,-0.0753479,0.631195,-0.765137,-103.775,69.0167,-65.9167,-10314,-28502
1914,908187,1.52646,-7.39785,1.46426,-79.8816,-1.17004,-166.509,-86.6699,63.1104,-181.824,0.0928345,-0.0793152,0.633911,-0.763641,-104.15,68.9583,-65.8,-10314,-28502
1920,908193,-0.311035,-8.575,1.44512,-80.332,-2.15332,-167.064,-85.7544,65.7349,-186.157,0.0834961,-0.0831299,0.636597,-0.762085,-104.558,68.8167,-65.675,-10314,-28502
1926,908199,-4.16787,-10.6422,1.83271,-80.755,-3.14758,-167.602,-82.3975,64.3921,-188.721,0.0644836,-0.0906982,0.641541,-0.758911,-104.992,68.65,-65.5333,-10314,-28502
1932,908205,-5.48379,-11.5083,2.33516,-81.4801,-5.11963,-168.58,-69.458,51.5137,-188.843,0.0552063,-0.094574,0.643616,-0.757416,-105.95,68.2333,-65.15,-10314,-28502
1938,908211,-6.46953,-11.9581,3.029,-81.7657,-6.07544,-168.997,-61.1572,43.8843,-185.486,0.0462646,-0.0985413,0.645355,-0.756012,-106.483,67.9667,-64.9917,-10314,-28502
1944,908217,-6.90977,-11.939,3.87119,-82.0129,-7.00378,-169.387,-55.1147,38.9404,-181.274,0.0377808,-0.102509,0.646729,-0.754791,-107.05,67.6833,-64.8167,-10305,-28503
1950,908223,-7.30215,-12.0586,4.43105,-82.2272,-7.88818,-169.766,-49.9268,37.8418,-175.598,0.0296936,-0.106415,0.647827,-0.753662,-107.592,67.4083,-64.6333,-10305,-28503
1956,908229,-7.85244,-12.1974,5.06748,-82.4084,-8.72314,-170.145,-46.7529,38.7573,-169.189,0.0144958,-0.113434,0.649475,-0.751648,-108.167,67.1083,-64.475,-10305,-28503
1962,908235,-8.23047,-12.9678,4.9,-82.7161,-10.2612,-170.958,-44.2505,49.7437,-156.86,0.00717163,-0.116333,0.650146,-0.750732,-109.392,66.4,-64.2167,-10305,-28503
1968,908241,-8.66592,-13.8722,4.34014,-82.8314,-10.9589,-171.409,-41.1377,55.7861,-150.085,0,-0.118774,0.650757,-0.749847,-110.033,66.05,-64.1083,-10305,-28503
1974,908247,-9.07266,-14.3028,3.79463,-82.9138,-11.6016,-171.881,-36.499,61.1572,-142.639,-0.00708008,-0.120697,0.651276,-0.749084,-110.683,65.675,-63.9917,-10305,-28503
1980,908253,-9.56553,-14.2741,3.21084,-82.9578,-12.1893,-172.37,-32.0435,66.1011,-134.399,-0.0139771,-0.122162,0.651611,-0.748444,-111.283,65.2833,-63.8833,-10305,-28503
1986,908259,-10.2067,-14.0827,2.67012,-82.9852,-12.7222,-172.881,-29.7241,69.7021,-125.671,-0.0206299,-0.123169,0.651825,-0.747925,-111.875,64.8833,-63.7917,-10305,-28503
1992,908265,-10.7092,-13.8626,1.75137,-83.0127,-13.6121,-173.941,-30.2124,78.7354,-106.262,-0.0332336,-0.12381,0.652161,-0.74707,-113.042,64.1167,-63.6417,-10305,-28503
1998,908271,-10.7188,-13.7621,1.34463,-83.0182,-13.9636,-174.507,-30.5786,84.3506,-95.9473,-0.0391541,-0.123383,0.652405,-0.746674,-113.617,63.6917,-63.6167,-10305,-28503
2004,908277,-10.4938,-13.2645,1.08623,-83.0127,-14.2438,-175.106,-30.4565,91.5527,-84.4727,-0.0448608,-0.122406,0.652679,-0.746246,-114.175,63.2917,-63.6083,-10305,-28503
2010,908283,-9.96748,-12.0442,0.90918,-82.9962,-14.4525,-175.737,-30.9448,100.037,-71.3501,-0.0503845,-0.12085,0.652985,-0.74588,-114.683,62.9333,-63.5833,-10305,-28503
2016,908289,-9.34541,-10.3407,0.846973,-82.9852,-14.5679,-176.413,-34.3628,111.267,-55.542,-0.0556641,-0.118591,0.653351,-0.745575,-115.158,62.5917,-63.575,-10305,-28503
2022,908295,-8.70898,-6.22549,1.00967,-83.0237,-14.5074,-177.924,-48.7061,134.338,-21.4233,-0.0655823,-0.111359,0.654602,-0.744751,-115.975,61.925,-63.7167,-10305,-28503
2028,908301,-8.48887,-4.33057,0.913965,-83.0951,-14.3427,-178.731,-57.6172,142.883,-6.34766,-0.0702209,-0.106415,0.65564,-0.744171,-116.333,61.6583,-63.8,-10305,-28503
2034,908307,-8.13477,-3.15342,0.985742,-83.194,-14.1119,-179.561,-63.7207,148.132,7.38525,-0.0746155,-0.100708,0.656952,-0.743378,-116.642,61.3583,-63.9,-10305,-28503
2040,908313,-39.1952,39.1474,-12.116,-83.7488,-13.678,179.203,-174.622,229.431,29.2969,-0.0787048,-0.0943604,0.658478,-0.742432,-116.892,61.1,-64.0083,-10305,-28503
2046,908319,-78.3952,78.3521,53.5698,-84.3201,-12.8595,177.627,-215.515,289.429,100.891,-0.0903931,-0.0692139,0.668549,-0.734833,-117.092,60.8833,-64.1083,-10305,-28503
2052,908325,6.67529,-3.71807,22.6386,-81.4636,-12.7551,-178.5,293.091,-488.403,-11.5356,-0.0784302,-0.0768738,0.655029,-0.747498,-117.3,60.6333,-64.4333,-10305,-28503
2058,908331,47.3635,9.68037,36.1327,-80.5682,-12.6837,-178.22,189.331,-64.8193,-18.7378,-0.0626221,-0.0926514,0.647278,-0.753937,-117.358,60.5083,-64.6417,-10305,-28503
2064,908337,11.1303,7.19209,1.4499,-80.3485,-12.3102,-179.33,-6.71387,211.609,-4.27246,-0.0596313,-0.0942078,0.641235,-0.759125,-117.442,60.375,-64.8583,-10330,-28500
2070,908343,-3.47402,-14.2406,-7.47441,-80.4803,-11.9147,-179.357,-26.4282,5.67627,37.4146,-0.0647583,-0.0856628,0.6409,-0.76001,-117.542,60.2417,-65.05,-10330,-28500
2076,908349,13.5516,-16.4562,2.68926,-80.2002,-11.4752,-178.753,80.8716,-115.906,69.7021,-0.0561218,-0.0834351,0.640015,-0.761658,-117.65,60.1167,-65.2083,-10330,-28500
2082,908355,-4.96221,-5.29238,8.02949,-80.0903,-10.3217,-178.687,-42.8467,13.1836,74.5239,-0.0518494,-0.0802612,0.638306,-0.763763,-117.792,59.8333,-65.55,-10322,-28501
2088,908361,-4.77559,-14.3985,7.00068,-80.2222,-9.8822,-178.506,-24.4751,-36.8042,61.0962,-0.0491943,-0.0761719,0.639923,-0.763,-117.858,59.775,-65.6833,-10322,-28501
2094,908367,0.555078,-6.32119,3.57451,-80.2112,-9.49768,-178.165,8.8501,-69.2139,57.0679,-0.0455627,-0.0742188,0.64093,-0.762573,-117.892,59.7333,-65.7917,-10322,-28501
2100,908373,3.99561,-6.14414,1.93799,-80.321,-9.08569,-177.946,-20.4468,-44.3726,59.4482,-0.0411377,-0.0735779,0.640869,-0.762939,-117.908,59.7,-65.9167,-10322,-28501
2106,908379,0.392383,-10.8575,0.0382813,-80.4913,-8.66272,-177.83,-33.9966,-24.5361,58.8379,-0.0343933,-0.0698547,0.643005,-0.761841,-117.917,59.6833,-66.025,-10322,-28501
2112,908385,-0.14834,-11.1638,2.52656,-80.6287,-7.9541,-177.33,-0.0610352,-59.8145,50.293,-0.0309448,-0.0684814,0.643829,-0.761414,-117.875,59.7667,-66.1667,-10322,-28501
2118,908391,2.00498,-8.68506,2.77061,-80.6671,-7.6355,-177.072,-3.84521,-55.1758,47.4243,-0.0271606,-0.0678711,0.644012,-0.761444,-117.842,59.8,-66.2417,-10322,-28501
2124,908397,2.4165,-9.17793,1.98105,-80.766,-7.31689,-176.902,-19.5313,-36.5601,46.3257,-0.0236511,-0.0672302,0.644257,-0.761414,-117.8,59.875,-66.2583,-10322,-28501
2130,908403,2.03369,-11.604,0.937891,-80.8759,-7.00928,-176.781,-21.7896,-27.771,44.6777,-0.020813,-0.06604,0.64502,-0.760956,-117.758,59.9917,-66.2167,-10322,-28501
2136,908409,1.55039,-12.5371,-1.31592,-80.9418,-6.71265,-176.655,-12.6343,-28.0762,44.1895,-0.0158386,-0.0634155,0.646362,-0.760132,-117.7,60.1,-66.1,-10322,-28501
2142,908415,1.9332,-12.0299,-1.11494,-80.9692,-6.1084,-176.451,2.44141,-18.7988,46.9971,-0.0133362,-0.0621033,0.646637,-0.760071,-117.558,60.3333,-65.8833,-10322,-28501
2148,908421,0.870898,-11.092,1.0623,-80.9308,-5.81177,-176.391,8.11768,-14.5264,45.2271,-0.0110779,-0.0605469,0.646729,-0.760162,-117.475,60.5083,-65.8167,-10322,-28501
2154,908427,0.846973,-10.0728,2.2873,-80.8923,-5.5426,-176.325,9.52148,-16.1133,41.4429,-0.00897217,-0.05896,0.646606,-0.760406,-117.358,60.6667,-65.7,-10322,-28501
2160,908433,0.870898,-9.52246,3.21084,-80.8484,-5.29541,-176.292,8.72803,-10.8643,37.2314,-0.00701904,-0.0575256,0.646454,-0.760681,-117.225,60.775,-65.6333,-10322,-28501
2166,908439,2.22031,-10.3312,3.07686,-80.8374,-5.0647,-176.287,1.83105,-5.5542,34.5459,-0.0039978,-0.0545959,0.646271,-0.761047,-117.1,60.9167,-65.575,-10322,-28501
