TimeSinceCollection,Timestamp,AccX,AccY,AccZ,AngleRoll,AnglePitch,AngleYaw,AngularVelX,AngularVelY,AngularVelZ,Q1,Q2,Q3,Q4,MagX,MagY,MagZ,Height,Airpressure
0,495288,0.655566,-9.60859,2.0624,-78.0139,-3.88367,171.953,0.427246,-0.12207,-0.0610352,-0.0757446,0.0178223,0.629333,-0.773163,-113.5,63.0583,-62.6083,-10396,-28492
6,495294,0.674707,-9.61816,2.04805,-78.0084,-3.88367,171.953,0.183105,0.12207,-0.0610352,-0.0757446,0.0178223,0.629303,-0.773193,-113.492,63.0167,-62.6083,-10396,-28492
12,495300,0.660352,-9.61816,2.04326,-78.0084,-3.88367,171.953,0.305176,0.0610352,-0.12207,-0.0757446,0.0178223,0.629303,-0.773193,-113.483,63.0167,-62.5333,-10396,-28492
18,495306,0.674707,-9.61338,2.02412,-78.0084,-3.88367,171.953,0.183105,0,-0.12207,-0.0757446,0.0178223,0.629303,-0.773193,-113.467,63.0167,-62.5167,-10396,-28492
24,495312,0.674707,-9.61816,2.06719,-78.0084,-3.88367,171.953,0,0.183105,0,-0.0757446,0.0178223,0.629303,-0.773193,-113.475,63.025,-62.55,-10396,-28492
30,495318,0.636426,-9.60859,2.03369,-78.0084,-3.88367,171.953,-0.305176,0,0.244141,-0.0757751,0.0178528,0.629303,-0.773193,-113.5,63.0667,-62.575,-10396,-28492
36,495324,0.660352,-9.59902,2.04805,-78.0084,-3.88367,171.953,0.0610352,-0.12207,0,-0.0757446,0.0178528,0.629303,-0.773193,-113.517,63.1,-62.6,-10396,-28492
42,495330,0.669922,-9.58467,2.0624,-78.0139,-3.87817,171.953,-0.305176,-0.12207,0.366211,-0.0757446,0.0178528,0.629333,-0.773163,-113.508,63.1083,-62.6167,-10396,-28492
48,495336,0.636426,-9.61338,2.03369,-78.0139,-3.87817,171.953,-0.366211,-0.549316,0.12207,-0.0757446,0.0178528,0.629333,-0.773163,-113.5,63.125,-62.6167,-10396,-28492
54,495342,0.674707,-9.61816,2.04326,-78.0139,-3.87817,171.953,-0.488281,-0.305176,-0.0610352,-0.0757141,0.0178528,0.629333,-0.773163,-113.475,63.1667,-62.6167,-10396,-28492
60,495348,0.617285,-9.62773,2.02891,-78.0194,-3.87817,171.953,-0.488281,-0.183105,-0.0610352,-0.0757141,0.0178528,0.629364,-0.773132,-113.467,63.1667,-62.55,-10396,-28492
66,495354,0.703418,-9.61338,1.95234,-78.0194,-3.87817,171.958,-0.488281,-0.976563,-0.0610352,-0.0757141,0.0178223,0.629395,-0.773132,-113.475,63.1667,-62.525,-10396,-28492
72,495360,0.679492,-9.60859,1.90928,-78.0249,-3.88367,171.958,-0.488281,0.12207,0,-0.0756836,0.0178223,0.629425,-0.773102,-113.483,63.2,-62.5,-10396,-28492
78,495366,0.674707,-9.65645,2.0002,-78.0304,-3.87817,171.964,-0.488281,-0.0610352,-0.427246,-0.0756531,0.0177917,0.629456,-0.773071,-113.492,63.1917,-62.5333,-10396,-28492
84,495372,0.598145,-9.61338,1.97627,-78.0359,-3.88367,171.964,-0.244141,-0.12207,-0.366211,-0.0756836,0.0177917,0.629456,-0.773071,-113.5,63.1667,-62.5833,-10396,-28492
90,495378,0.660352,-9.63252,2.03848,-78.0359,-3.88367,171.964,-0.12207,0.0610352,0,-0.0756836,0.0177917,0.629486,-0.773041,-113.5,63.1667,-62.5833,-10396,-28492
96,495384,0.679492,-9.62295,1.99063,-78.0359,-3.88367,171.964,-0.12207,0.12207,-0.427246,-0.0756836,0.0177917,0.629486,-0.773041,-113.492,63.175,-62.575,-10396,-28492
102,495390,0.674707,-9.63252,2.0002,-78.0359,-3.88367,171.958,-0.244141,0.12207,0,-0.0757141,0.0177917,0.629486,-0.773041,-113.467,63.1333,-62.5833,-10396,-28492
108,495396,0.645996,-9.61338,2.05762,-78.0414,-3.88916,171.958,0.0610352,0,-0.12207,-0.0757446,0.0177917,0.629517,-0.77301,-113.467,63.1417,-62.5583,-10396,-28492
114,495402,0.684277,-9.59424,1.99541,-78.0414,-3.88916,171.958,-0.305176,0.0610352,-0.0610352,-0.0757446,0.0177917,0.629517,-0.77301,-113.458,63.1667,-62.525,-10396,-28492
120,495408,0.655566,-9.64209,1.99541,-78.0414,-3.88916,171.958,-0.305176,0.244141,0.0610352,-0.0757446,0.0177917,0.629517,-0.77301,-113.45,63.1583,-62.4833,-10396,-28492
126,495414,0.626855,-9.58467,2.03848,-78.0414,-3.88916,171.958,-0.12207,0,0.0610352,-0.0757446,0.0178223,0.629517,-0.77301,-113.458,63.1417,-62.4583,-10396,-28492
132,495420,0.617285,-9.60381,2.0624,-78.0469,-3.88916,171.953,-0.427246,-0.0610352,-0.12207,-0.0757446,0.0178223,0.629547,-0.77298,-113.433,63.1667,-62.35,-10396,-28492
138,495426,0.655566,-9.64209,1.99063,-78.0469,-3.88916,171.953,-0.488281,-0.12207,0,-0.0757446,0.0178223,0.629578,-0.77298,-113.425,63.1583,-62.3,-10396,-28492
144,495432,0.669922,-9.61338,1.98584,-78.0524,-3.88916,171.953,-0.549316,0,-0.0610352,-0.0757446,0.0178223,0.629578,-0.772949,-113.433,63.1417,-62.275,-10396,-28492
150,495438,0.684277,-9.65645,2.02891,-78.0524,-3.88916,171.953,-0.427246,-0.12207,0,-0.0757446,0.0178223,0.629608,-0.772949,-113.433,63.15,-62.2417,-10396,-28492
156,495444,0.636426,-9.61338,1.97148,-78.0579,-3.88916,171.953,-0.183105,-0.244141,-0.183105,-0.0757446,0.0178223,0.629639,-0.772919,-113.458,63.175,-62.2417,-10396,-28492
162,495450,0.641211,-9.57988,2.0624,-78.0579,-3.88916,171.958,-0.305176,-0.244141,-0.244141,-0.0757446,0.0177917,0.629639,-0.772919,-113.508,63.1583,-62.325,-10396,-28492
168,495456,0.607715,-9.57031,2.05283,-78.0634,-3.88916,171.958,-0.488281,-0.366211,-0.305176,-0.0757446,0.0177917,0.629669,-0.772888,-113.517,63.1667,-62.3667,-10396,-28492
174,495462,0.665137,-9.55596,2.06719,-78.0634,-3.88916,171.958,-0.488281,-0.488281,-0.12207,-0.0757446,0.0177917,0.629669,-0.772888,-113.542,63.2,-62.3833,-10396,-28492
180,495468,0.645996,-9.60859,2.04326,-78.0688,-3.88916,171.964,-0.610352,-0.244141,0,-0.0757141,0.0177612,0.6297,-0.772858,-113.525,63.1833,-62.3833,-10396,-28492
186,495474,0.645996,-9.62773,2.00977,-78.0743,-3.89465,171.964,-0.671387,-0.427246,-0.244141,-0.0757141,0.0177612,0.62973,-0.772858,-113.517,63.1833,-62.375,-10396,-28492
192,495480,0.665137,-9.64688,1.99541,-78.0798,-3.89465,171.969,-0.671387,-0.610352,-0.244141,-0.0756836,0.0177307,0.629761,-0.772827,-113.492,63.2583,-62.35,-10396,-28492
198,495486,0.641211,-9.60859,2.0002,-78.0798,-3.89465,171.969,-0.671387,-0.488281,0,-0.0756836,0.0177002,0.629791,-0.772797,-113.467,63.275,-62.3583,-10396,-28492
204,495492,0.655566,-9.60381,2.02891,-78.0853,-3.89465,171.969,-1.09863,-0.610352,0,-0.0756836,0.0177002,0.629822,-0.772766,-113.442,63.275,-62.3833,-10396,-28492
210,495498,0.631641,-9.62773,2.00498,-78.0908,-3.89465,171.974,-1.0376,-0.671387,0.0610352,-0.0756531,0.0176697,0.629852,-0.772736,-113.442,63.2833,-62.3583,-10396,-28492
216,495504,0.650781,-9.64688,2.01455,-78.1018,-3.89465,171.98,-1.15967,-0.610352,0,-0.0756226,0.0176697,0.629883,-0.772705,-113.433,63.2917,-62.3583,-10396,-28492
222,495510,0.684277,-9.65166,1.98584,-78.1073,-3.90015,171.98,-0.915527,-0.732422,0.366211,-0.0756226,0.0176086,0.629974,-0.772644,-113.433,63.2167,-62.3,-10396,-28492
228,495516,0.674707,-9.66602,1.97627,-78.1128,-3.90015,171.985,-0.732422,-0.915527,-0.0610352,-0.075592,0.0176086,0.630005,-0.772644,-113.442,63.2,-62.25,-10396,-28492
234,495522,0.660352,-9.63731,1.97627,-78.1183,-3.90015,171.991,-1.0376,-1.0376,0,-0.0755615,0.0175781,0.630035,-0.772614,-113.45,63.2083,-62.2,-10396,-28492
240,495528,0.626855,-9.65166,1.98584,-78.1238,-3.90015,171.996,-0.854492,-1.2207,0,-0.075531,0.0175476,0.630066,-0.772583,-113.442,63.1917,-62.2,-10396,-28492
246,495534,0.645996,-9.62773,1.9667,-78.1293,-3.90015,172.007,-0.915527,-1.2207,0.183105,-0.0755005,0.0175171,0.630096,-0.772552,-113.433,63.1667,-62.2167,-10396,-28492
252,495540,0.641211,-9.62773,2.01455,-78.1348,-3.90015,172.013,-0.915527,-1.28174,-0.0610352,-0.0754395,0.0174561,0.630188,-0.772522,-113.4,63.1583,-62.2917,-10396,-28492
258,495546,0.655566,-9.60381,2.00498,-78.1403,-3.90564,172.018,-1.09863,-1.52588,0,-0.0754089,0.0174255,0.630219,-0.772491,-113.417,63.125,-62.3167,-10396,-28492
264,495552,0.655566,-9.61816,2.01455,-78.1458,-3.90564,172.024,-0.793457,-1.40381,-0.0610352,-0.0753479,0.0173645,0.630249,-0.772461,-113.417,63.0833,-62.35,-10396,-28492
270,495558,0.645996,-9.61816,1.99541,-78.1512,-3.90564,172.035,-1.15967,-1.77002,0.12207,-0.0753174,0.017334,0.63028,-0.77243,-113.433,63.075,-62.35,-10396,-28492
276,495564,0.636426,-9.59424,2.0002,-78.1622,-3.91113,172.051,-1.0376,-1.83105,-0.305176,-0.0752563,0.0172729,0.630341,-0.7724,-113.442,63.025,-62.275,-10396,-28492
282,495570,0.631641,-9.60859,2.03848,-78.1732,-3.91113,172.057,-1.40381,-2.0752,-0.366211,-0.0751648,0.0171509,0.630432,-0.772339,-113.45,63.025,-62.275,-10396,-28492
288,495576,0.631641,-9.58945,2.04326,-78.1787,-3.91663,172.068,-1.64795,-2.19727,-0.244141,-0.0751343,0.0170898,0.630493,-0.772308,-113.467,63.0583,-62.2667,-10396,-28492
294,495582,0.650781,-9.61338,2.02412,-78.1897,-3.92212,172.079,-1.64795,-2.0752,-0.0610352,-0.0750732,0.0169983,0.630554,-0.772247,-113.483,63.0917,-62.2667,-10396,-28492
300,495588,0.665137,-9.64209,2.01934,-78.1952,-3.92212,172.09,-1.83105,-2.56348,-0.183105,-0.0750122,0.0169373,0.630615,-0.772217,-113.492,63.125,-62.275,-10396,-28492
306,495594,0.655566,-9.61816,1.98105,-78.2172,-3.92761,172.112,-2.01416,-2.0752,-0.244141,-0.0749512,0.0168762,0.630676,-0.772156,-113.517,63.1,-62.25,-10396,-28492
312,495600,0.684277,-9.64688,1.95234,-78.2281,-3.92761,172.123,-2.19727,-2.2583,-0.183105,-0.0748291,0.0167236,0.630829,-0.772064,-113.533,63.0833,-62.225,-10396,-28492
318,495606,0.669922,-9.63731,1.97148,-78.2391,-3.93311,172.134,-2.13623,-2.38037,-0.183105,-0.0747681,0.0166626,0.63092,-0.772003,-113.55,63.05,-62.2167,-10396,-28492
324,495612,0.684277,-9.62295,1.97627,-78.2556,-3.9386,172.145,-2.13623,-2.50244,0.12207,-0.074707,0.016571,0.630981,-0.771942,-113.567,63.0167,-62.2083,-10396,-28492
330,495618,0.693848,-9.64209,1.94756,-78.2666,-3.9386,172.156,-2.13623,-2.44141,0,-0.074646,0.01651,0.631073,-0.771881,-113.558,63.0083,-62.2167,-10396,-28492
336,495624,0.712988,-9.65645,1.94756,-78.2886,-3.94409,172.178,-2.13623,-2.62451,-0.0610352,-0.0745544,0.016449,0.631165,-0.77182,-113.525,62.9833,-62.125,-10396,-28492
342,495630,0.703418,-9.64688,1.90928,-78.2996,-3.94409,172.194,-2.01416,-2.2583,0,-0.0744324,0.0162659,0.631317,-0.771698,-113.5,62.95,-62.0833,-10396,-28492
348,495636,0.684277,-9.64209,1.95713,-78.3105,-3.94958,172.205,-1.95313,-2.2583,-0.183105,-0.0743713,0.0162048,0.631378,-0.771667,-113.5,62.9583,-62.025,-10396,-28492
354,495642,0.679492,-9.63252,1.99063,-78.3215,-3.94958,172.216,-1.95313,-2.19727,-0.12207,-0.0743103,0.0161438,0.63147,-0.771606,-113.492,62.9833,-62,-10396,-28492
360,495648,0.679492,-9.61338,1.99541,-78.3325,-3.95508,172.222,-1.89209,-2.13623,-0.0610352,-0.0742493,0.0160522,0.631531,-0.771545,-113.483,62.9833,-61.9667,-10396,-28492
366,495654,0.636426,-9.62773,1.95234,-78.349,-3.96057,172.244,-1.95313,-2.2583,-0.0610352,-0.0741882,0.0159912,0.631592,-0.771515,-113.492,62.9917,-61.9417,-10396,-28492
372,495660,0.684277,-9.65166,1.93799,-78.36,-3.96057,172.255,-1.64795,-2.0752,0.0610352,-0.0740662,0.0158691,0.631744,-0.771393,-113.5,63.0083,-61.925,-10396,-28492
378,495666,0.665137,-9.66123,1.91885,-78.371,-3.96057,172.266,-1.58691,-2.0752,0.244141,-0.0740051,0.0158081,0.631805,-0.771362,-113.533,63.0167,-61.925,-10396,-28492
384,495672,0.703418,-9.64209,1.92842,-78.3765,-3.96057,172.277,-1.40381,-2.0752,0.0610352,-0.0739441,0.0157471,0.631866,-0.771301,-113.558,63.0167,-61.9667,-10396,-28492
390,495678,0.679492,-9.65166,1.9332,-78.3875,-3.96606,172.288,-1.15967,-1.77002,-0.0610352,-0.0738831,0.015686,0.631927,-0.771271,-113.575,63.0333,-62,-10396,-28492
396,495684,0.693848,-9.65166,1.89971,-78.3984,-3.96606,172.304,-1.15967,-1.77002,0.427246,-0.0738525,0.015625,0.631958,-0.77124,-113.633,63.1333,-62.0833,-10396,-28492
402,495690,0.655566,-9.64688,1.96191,-78.4039,-3.96606,172.31,-0.671387,-1.64795,0.183105,-0.0737305,0.0155334,0.63205,-0.771179,-113.633,63.15,-62.1417,-10396,-28492
408,495696,0.684277,-9.62773,1.9667,-78.4094,-3.96606,172.321,-0.671387,-1.52588,0,-0.0736694,0.0155029,0.63208,-0.771179,-113.625,63.2,-62.175,-10396,-28492
414,495702,0.669922,-9.62773,1.95713,-78.4149,-3.97156,172.326,-0.793457,-1.58691,0.366211,-0.0736389,0.0154419,0.632111,-0.771149,-113.608,63.2417,-62.1667,-10396,-28492
420,495708,0.693848,-9.65645,1.94277,-78.4149,-3.97156,172.337,-0.671387,-1.34277,0.244141,-0.0735779,0.0154114,0.632141,-0.771149,-113.592,63.2583,-62.1833,-10396,-28492
426,495714,0.655566,-9.63731,1.95234,-78.4259,-3.97156,172.348,-0.610352,-1.34277,-0.183105,-0.0735474,0.0153809,0.632172,-0.771118,-113.6,63.2667,-62.1917,-10396,-28492
432,495720,0.684277,-9.61816,1.93799,-78.4259,-3.97156,172.354,-0.427246,-1.0376,-0.183105,-0.0734558,0.0152893,0.632202,-0.771088,-113.625,63.3,-62.175,-10396,-28492
438,495726,0.727344,-9.6708,1.85186,-78.4314,-3.97156,172.359,-0.183105,-0.610352,-0.366211,-0.0734558,0.0152588,0.632233,-0.771088,-113.633,63.3,-62.125,-10396,-28492
444,495732,0.765625,-9.74258,1.80879,-78.4314,-3.97705,172.359,0.427246,0.244141,-0.366211,-0.0734558,0.0152283,0.632233,-0.771057,-113.633,63.2833,-62.0833,-10396,-28492
450,495738,0.712988,-9.7665,1.77529,-78.4314,-3.97705,172.359,1.46484,1.58691,-0.366211,-0.0734558,0.0152283,0.632233,-0.771088,-113.617,63.2917,-62,-10396,-28492
456,495744,0.674707,-9.73779,1.83271,-78.4094,-3.97705,172.337,2.2583,2.0752,-0.793457,-0.0735168,0.0152588,0.632172,-0.771118,-113.608,63.3083,-61.9,-10396,-28492
462,495750,0.727344,-9.65645,1.89971,-78.3984,-3.97705,172.326,2.50244,2.68555,-1.0376,-0.0736694,0.0153809,0.632019,-0.77124,-113.592,63.3,-61.9333,-10396,-28492
468,495756,0.693848,-9.6708,1.97148,-78.3875,-3.98254,172.315,3.17383,3.35693,-0.488281,-0.0737915,0.0154114,0.631927,-0.771271,-113.583,63.3083,-61.925,-10396,-28492
474,495762,0.650781,-9.57031,1.98584,-78.371,-3.97705,172.299,3.17383,3.35693,-0.976563,-0.0739136,0.0155029,0.631805,-0.771362,-113.567,63.325,-61.9167,-10396,-28492
480,495768,0.665137,-9.58467,1.95234,-78.3545,-3.98254,172.277,2.31934,2.56348,-0.488281,-0.0740356,0.0155945,0.631714,-0.771454,-113.558,63.325,-61.9,-10396,-28492
486,495774,0.655566,-9.60381,1.99541,-78.327,-3.98254,172.255,2.62451,2.31934,-0.915527,-0.0742188,0.0157166,0.631531,-0.771545,-113.55,63.3167,-61.8333,-10396,-28492
492,495780,0.650781,-9.54639,2.0624,-78.3215,-3.98804,172.244,1.58691,1.46484,-0.610352,-0.0743103,0.0157471,0.63147,-0.771606,-113.558,63.325,-61.8,-10396,-28492
498,495786,0.645996,-9.57988,2.0624,-78.3105,-3.98804,172.233,1.15967,1.09863,-0.671387,-0.0743713,0.0157776,0.631409,-0.771637,-113.567,63.3,-61.775,-10396,-28492
504,495792,0.669922,-9.61816,2.00977,-78.3051,-3.98804,172.227,0.976563,0.793457,-0.366211,-0.0744324,0.0157776,0.631378,-0.771667,-113.592,63.275,-61.7917,-10396,-28492
510,495798,0.665137,-9.61338,1.98584,-78.2996,-3.98804,172.222,0.854492,0.305176,-0.488281,-0.0744629,0.0158081,0.631348,-0.771698,-113.617,63.2583,-61.775,-10396,-28492
516,495804,0.712988,-9.64688,1.90449,-78.2941,-3.99353,172.216,0.854492,0.976563,-0.610352,-0.0745239,0.0158081,0.631287,-0.771729,-113.633,63.2667,-61.7583,-10396,-28492
522,495810,0.669922,-9.63252,1.95713,-78.2886,-3.99353,172.211,1.52588,1.64795,-0.854492,-0.074585,0.0158386,0.631256,-0.771759,-113.658,63.2417,-61.7667,-10396,-28492
528,495816,0.641211,-9.61338,1.93799,-78.2776,-3.99902,172.2,1.70898,1.58691,-0.366211,-0.0746765,0.0158691,0.631195,-0.77179,-113.692,63.2667,-61.7667,-10396,-28492
534,495822,0.693848,-9.63252,1.91406,-78.2721,-3.99902,172.189,1.77002,1.70898,-0.732422,-0.0747375,0.0159302,0.631134,-0.77182,-113.708,63.275,-61.7583,-10396,-28492
540,495828,0.679492,-9.64209,1.96191,-78.2611,-3.99902,172.183,1.89209,1.64795,-0.427246,-0.0747986,0.0159607,0.631073,-0.771881,-113.725,63.2583,-61.7917,-10396,-28492
546,495834,0.617285,-9.61338,2.02891,-78.2446,-3.99902,172.161,1.89209,1.58691,-0.793457,-0.0749207,0.0160217,0.630951,-0.771942,-113.708,63.225,-61.8333,-10396,-28492
552,495840,0.641211,-9.61338,1.98105,-78.2391,-4.00452,172.156,1.52588,0.915527,-0.671387,-0.0749817,0.0160217,0.63092,-0.772003,-113.692,63.25,-61.825,-10396,-28492
558,495846,0.636426,-9.58467,2.02412,-78.2281,-4.00452,172.15,1.40381,0.976563,-0.305176,-0.0750427,0.0160522,0.630859,-0.772034,-113.683,63.2583,-61.8083,-10396,-28492
564,495852,0.698633,-9.60381,2.00498,-78.2227,-4.00452,172.145,1.09863,0.915527,-0.610352,-0.0750732,0.0160522,0.630829,-0.772064,-113.675,63.2417,-61.8,-10396,-28492
570,495858,0.684277,-9.6708,1.99541,-78.2172,-4.01001,172.139,1.0376,0.915527,-0.549316,-0.0751343,0.0160828,0.630768,-0.772095,-113.675,63.2417,-61.7583,-10396,-28492
576,495864,0.708203,-9.64209,1.98105,-78.2117,-4.01001,172.134,1.0376,0.793457,-0.549316,-0.0751953,0.0161133,0.630707,-0.772125,-113.675,63.25,-61.675,-10396,-28492
582,495870,0.689063,-9.58945,1.99541,-78.2062,-4.0155,172.128,1.0376,0.671387,-0.244141,-0.0752563,0.0161133,0.630676,-0.772156,-113.7,63.2333,-61.6583,-10396,-28492
588,495876,0.703418,-9.59424,1.99541,-78.2007,-4.0155,172.123,0.793457,0.488281,-0.244141,-0.0752869,0.0161438,0.630646,-0.772156,-113.725,63.2333,-61.625,-10396,-28492
594,495882,0.698633,-9.65166,2.0002,-78.1952,-4.0155,172.123,0.854492,0.854492,-0.488281,-0.0752869,0.0161438,0.630615,-0.772186,-113.742,63.2333,-61.6417,-10396,-28492
600,495888,0.679492,-9.61816,2.01455,-78.1897,-4.0155,172.117,0.427246,0.12207,-0.244141,-0.0753479,0.0161438,0.630585,-0.772217,-113.733,63.1917,-61.6833,-10396,-28492
606,495894,0.736914,-9.61816,2.00977,-78.1897,-4.0155,172.112,0.366211,0.0610352,-0.12207,-0.0753479,0.0161438,0.630585,-0.772217,-113.7,63.1,-61.8167,-10396,-28492
612,495900,0.712988,-9.61816,1.9667,-78.1897,-4.0155,172.112,-0.12207,0.0610352,-0.183105,-0.0753784,0.0161438,0.630585,-0.772217,-113.7,63.0833,-61.8833,-10396,-28492
618,495906,0.693848,-9.63731,1.97148,-78.1897,-4.0155,172.112,-0.183105,0,0.244141,-0.0753784,0.0161438,0.630585,-0.772217,-113.717,63.075,-61.9333,-10396,-28492
624,495912,0.669922,-9.63731,1.98105,-78.1897,-4.0155,172.112,0,0.0610352,0.12207,-0.0753784,0.0161743,0.630585,-0.772217,-113.725,63.0583,-62,-10396,-28492
630,495918,0.636426,-9.59424,1.99063,-78.1952,-4.0155,172.112,0.12207,0,0.0610352,-0.0753784,0.0161743,0.630615,-0.772186,-113.733,63.0667,-62.0417,-10396,-28492
636,495924,0.665137,-9.61816,2.00498,-78.1952,-4.0155,172.112,0,-0.366211,-0.366211,-0.0753784,0.0161438,0.630615,-0.772186,-113.75,63.0833,-62.0583,-10396,-28492
642,495930,0.669922,-9.60381,2.00498,-78.1952,-4.021,172.112,0.0610352,0.0610352,-0.305176,-0.0753784,0.0161438,0.630615,-0.772186,-113.733,63.05,-62.075,-10396,-28492
648,495936,0.655566,-9.62773,1.97627,-78.1952,-4.021,172.112,0.183105,-0.0610352,-0.183105,-0.0753784,0.0161438,0.630615,-0.772186,-113.733,63.0333,-62.0833,-10396,-28492
654,495942,0.679492,-9.63252,1.98584,-78.1952,-4.021,172.112,0.0610352,0,0,-0.0753784,0.0161438,0.630615,-0.772186,-113.708,63.0417,-62.1,-10396,-28492
660,495948,0.684277,-9.61338,2.02412,-78.1952,-4.021,172.112,0.183105,-0.0610352,-0.488281,-0.0753784,0.0161438,0.630615,-0.772186,-113.692,63.0417,-62.1,-10396,-28492
666,495954,0.650781,-9.71865,1.89971,-78.1952,-4.02649,172.112,0,0.0610352,-0.366211,-0.0754089,0.0161133,0.630615,-0.772186,-113.683,63.0333,-62.1333,-10396,-28492
672,495960,0.62207,-9.58467,2.01455,-78.1897,-4.02649,172.106,1.34277,0.488281,-0.610352,-0.07547,0.0161133,0.630585,-0.772217,-113.708,63.05,-62.1417,-10396,-28492
678,495966,0.736914,-9.57988,2.00498,-78.1842,-4.02649,172.106,0.610352,0.305176,-0.549316,-0.0755005,0.0161133,0.630554,-0.772247,-113.725,63.05,-62.175,-10396,-28492
684,495972,0.703418,-9.66602,1.91885,-78.1842,-4.03198,172.101,0.549316,0.732422,-0.427246,-0.075531,0.0161133,0.630524,-0.772247,-113.733,63.025,-62.2,-10396,-28492
690,495978,0.689063,-9.6708,1.91406,-78.1787,-4.03198,172.095,1.0376,0.549316,-0.549316,-0.0755615,0.0161438,0.630524,-0.772247,-113.733,63.0333,-62.225,-10396,-28492
696,495984,0.693848,-9.56553,2.04326,-78.1677,-4.03198,172.09,0.976563,0.244141,-0.244141,-0.075592,0.0161438,0.630463,-0.772308,-113.75,63.0583,-62.15,-10396,-28492
702,495990,0.669922,-9.55117,2.07197,-78.1677,-4.03198,172.09,0.427246,0.305176,-0.244141,-0.0756226,0.0161438,0.630432,-0.772308,-113.742,63.0333,-62.1083,-10396,-28492
708,495996,0.712988,-9.5751,1.99063,-78.1677,-4.03748,172.09,0.244141,0.305176,0,-0.0756531,0.0161743,0.630432,-0.772308,-113.742,63.0333,-62.0167,-10396,-28492
714,496002,0.76084,-9.61816,1.94756,-78.1677,-4.03748,172.084,0.183105,0.244141,-0.12207,-0.0756531,0.0161743,0.630432,-0.772308,-113.742,63.075,-61.9667,-10396,-28492
720,496008,0.717773,-9.69951,1.91885,-78.1622,-4.03748,172.079,0.671387,0.915527,-0.366211,-0.0756531,0.0161743,0.630402,-0.772339,-113.742,63.0917,-61.9167,-10396,-28492
726,496014,0.617285,-9.59902,1.99063,-78.1567,-4.03748,172.068,1.34277,2.19727,-0.427246,-0.0757751,0.0162659,0.630371,-0.772369,-113.742,63.0667,-61.8583,-10396,-28492
732,496020,0.641211,-9.64688,1.90928,-78.1512,-4.03748,172.057,1.40381,2.19727,-1.0376,-0.0758667,0.0163269,0.63031,-0.7724,-113.75,63.0583,-61.7833,-10396,-28492
738,496026,0.689063,-9.61816,1.90928,-78.1403,-4.03748,172.046,2.31934,2.74658,-0.854492,-0.0759583,0.0163574,0.630249,-0.77243,-113.758,63.0417,-61.725,-10396,-28492
744,496032,0.6125,-9.62773,1.91406,-78.1293,-4.03748,172.029,2.56348,3.54004,-1.34277,-0.0760498,0.0164185,0.630188,-0.772461,-113.775,63.0083,-61.7,-10396,-28492
750,496038,0.588574,-9.59424,1.94277,-78.1018,-4.04297,171.991,2.99072,3.479,-1.34277,-0.0762024,0.01651,0.630096,-0.772522,-113.8,63.0167,-61.6917,-10396,-28492
756,496044,0.488086,-9.51289,2.12939,-78.0853,-4.04846,171.969,2.68555,3.41797,-2.13623,-0.0765076,0.0166626,0.629883,-0.772675,-113.817,63.05,-61.7667,-10396,-28492
762,496050,0.574219,-9.47461,2.14375,-78.0743,-4.05396,171.953,2.19727,2.31934,-2.31934,-0.0766907,0.0166931,0.629791,-0.772736,-113.817,63.05,-61.8083,-10396,-28492
768,496056,0.679492,-9.53682,2.05762,-78.0634,-4.06494,171.936,1.64795,2.19727,-2.80762,-0.0768127,0.0167236,0.6297,-0.772766,-113.808,63.075,-61.825,-10396,-28492
774,496062,0.669922,-9.59424,2.00977,-78.0524,-4.07593,171.925,1.46484,2.0752,-2.56348,-0.0769653,0.0167236,0.629669,-0.772797,-113.8,63.1,-61.825,-10396,-28492
780,496068,0.559863,-9.57988,2.0959,-78.0359,-4.09241,171.898,1.58691,1.95313,-2.56348,-0.0771179,0.0167236,0.629608,-0.772827,-113.783,63.1,-61.8417,-10396,-28492
786,496074,0.712988,-9.53682,2.11982,-78.0304,-4.10889,171.892,1.0376,0.976563,-2.86865,-0.0773621,0.0166626,0.629517,-0.772888,-113.725,63.0333,-61.9583,-10396,-28492
792,496080,0.712988,-9.62773,2.0002,-78.0304,-4.11987,171.887,-0.0610352,1.2207,-2.80762,-0.0774841,0.0166321,0.629517,-0.772858,-113.7,63.025,-62.0167,-10396,-28492
798,496086,0.645996,-9.64688,1.9332,-78.0304,-4.13086,171.876,0.12207,0.976563,-3.05176,-0.0776062,0.0166016,0.629517,-0.772858,-113.675,63.0083,-62.0833,-10396,-28492
804,496092,0.674707,-9.53203,2.05762,-78.0304,-4.14185,171.865,0.610352,0.671387,-3.23486,-0.0777283,0.016571,0.629517,-0.772858,-113.667,63,-62.1583,-10396,-28492
810,496098,0.593359,-9.43154,2.14375,-78.0249,-4.16931,171.854,0.0610352,0.976563,-3.41797,-0.0778503,0.01651,0.629486,-0.772858,-113.658,63.0083,-62.2417,-10396,-28492
816,496104,0.378027,-9.4459,2.18682,-78.0304,-4.19128,171.843,-0.793457,0.488281,-5.18799,-0.078186,0.0163879,0.629486,-0.772827,-113.7,63.0333,-62.35,-10396,-28492
822,496110,0.593359,-9.51768,2.17246,-78.0304,-4.21326,171.832,-1.34277,0.12207,-5.43213,-0.0783386,0.0162659,0.629517,-0.772766,-113.717,63,-62.4,-10396,-28492
828,496116,0.765625,-9.62773,2.07197,-78.0359,-4.23523,171.826,-1.70898,0.244141,-5.49316,-0.0785217,0.0161438,0.629578,-0.772736,-113.75,62.9917,-62.4167,-10396,-28492
834,496122,0.880469,-9.72344,1.89971,-78.0469,-4.2627,171.821,-1.70898,0.183105,-5.49316,-0.0787048,0.0160217,0.629639,-0.772675,-113.775,62.9917,-62.4167,-10396,-28492
840,496128,0.942676,-9.72344,1.90928,-78.0579,-4.31213,171.804,-1.15967,0.183105,-5.06592,-0.0788879,0.0158997,0.6297,-0.772583,-113.8,62.95,-62.4417,-10396,-28492
846,496134,0.636426,-9.63731,1.98105,-78.0634,-4.33411,171.793,-1.2207,2.19727,-5.67627,-0.0792542,0.015686,0.629761,-0.772491,-113.808,62.9417,-62.4917,-10396,-28492
852,496140,0.397168,-9.46982,2.0959,-78.0688,-4.35608,171.777,-2.19727,0.244141,-5.79834,-0.0794983,0.015625,0.629822,-0.77243,-113.825,62.9667,-62.5583,-10396,-28492
858,496146,0.497656,-9.60381,2.20117,-78.0798,-4.38354,171.771,-1.95313,1.09863,-7.26318,-0.0796814,0.0154724,0.629883,-0.772369,-113.833,62.9667,-62.5667,-10396,-28492
864,496152,0.583789,-9.55117,2.04326,-78.0853,-4.4165,171.76,-2.19727,0.976563,-7.56836,-0.0799561,0.0153503,0.629944,-0.772278,-113.833,62.9417,-62.55,-10396,-28492
870,496158,0.823047,-9.64688,1.94756,-78.1073,-4.48792,171.733,-2.56348,0.366211,-7.75146,-0.0802307,0.0151978,0.630035,-0.772217,-113.833,62.925,-62.4333,-10396,-28492
876,496164,0.966602,-9.71865,1.94277,-78.1238,-4.52087,171.727,-2.56348,0.12207,-7.14111,-0.080719,0.0148315,0.630219,-0.772003,-113.833,62.9083,-62.375,-10396,-28492
882,496170,0.90918,-9.69951,1.94756,-78.1348,-4.55383,171.716,-2.01416,0.366211,-6.53076,-0.0809631,0.014679,0.63028,-0.771912,-113.842,62.85,-62.3583,-10396,-28492
888,496176,0.933105,-9.70908,1.98105,-78.1403,-4.5813,171.711,-2.0752,0.488281,-6.28662,-0.0811768,0.0145264,0.630371,-0.771851,-113.842,62.825,-62.3833,-10396,-28492
894,496182,0.856543,-9.63252,1.97627,-78.1512,-4.60876,171.7,-2.19727,0.549316,-6.04248,-0.0813904,0.0143738,0.630432,-0.771759,-113.842,62.8167,-62.4083,-10396,-28492
900,496188,0.866113,-9.64688,2.03848,-78.1732,-4.6637,171.683,-2.13623,0.244141,-5.7373,-0.081604,0.0142517,0.630524,-0.771667,-113.833,62.7667,-62.4667,-10396,-28492
906,496194,0.851758,-9.61816,1.9667,-78.1842,-4.69116,171.678,-2.56348,0.183105,-4.88281,-0.0819702,0.0139771,0.630646,-0.771515,-113.85,62.7583,-62.475,-10396,-28492
912,496200,0.904395,-9.66123,1.92842,-78.1952,-4.71313,171.672,-2.2583,0.12207,-5.24902,-0.0821533,0.0138855,0.630737,-0.771423,-113.867,62.7833,-62.4583,-10396,-28492
918,496206,0.76084,-9.65166,1.99541,-78.2062,-4.73511,171.667,-1.89209,0.305176,-5.00488,-0.0823059,0.0137634,0.630829,-0.771362,-113.883,62.7833,-62.4333,-10396,-28492
924,496212,0.77041,-9.59424,2.07197,-78.2117,-4.76257,171.661,-1.64795,0.488281,-5.37109,-0.082489,0.0136414,0.63089,-0.771301,-113.917,62.7583,-62.4417,-10396,-28492
930,496218,0.856543,-9.56074,2.03369,-78.2281,-4.80652,171.645,-1.89209,0.549316,-5.18799,-0.0826721,0.0135193,0.630951,-0.77121,-114.017,62.7583,-62.4333,-10396,-28492
936,496224,0.990527,-9.71387,1.89014,-78.2391,-4.83398,171.634,-1.15967,0.671387,-4.45557,-0.0830383,0.0133057,0.631073,-0.771088,-114.067,62.725,-62.4167,-10396,-28492
942,496230,1.10059,-9.69951,1.81357,-78.2446,-4.85046,171.628,-0.549316,0.854492,-3.90625,-0.0831909,0.0132446,0.631104,-0.771057,-114.092,62.65,-62.3833,-10396,-28492
948,496236,1.11016,-9.69951,1.77051,-78.2446,-4.86694,171.617,-0.183105,1.46484,-2.86865,-0.0833435,0.0131531,0.631134,-0.771027,-114.117,62.6167,-62.35,-10396,-28492
954,496242,0.808691,-9.69951,1.91406,-78.2446,-4.88342,171.606,-0.183105,1.89209,-2.86865,-0.0834961,0.0131531,0.631134,-0.770996,-114.142,62.6,-62.3,-10396,-28492
960,496248,0.550293,-9.64688,2.03848,-78.2446,-4.9054,171.579,-0.183105,2.0752,-3.35693,-0.0836487,0.0131226,0.631134,-0.770966,-114.225,62.55,-62.2,-10396,-28492
966,496254,0.550293,-9.66123,2.08633,-78.2446,-4.92188,171.568,-0.244141,1.28174,-5.00488,-0.0839844,0.0130615,0.631134,-0.770935,-114.233,62.525,-62.2,-10396,-28492
972,496260,0.813477,-9.66602,2.03369,-78.2501,-4.94385,171.557,-0.427246,0.793457,-5.12695,-0.084198,0.01297,0.631134,-0.770905,-114.242,62.525,-62.1667,-10396,-28492
978,496266,1.00967,-9.75215,1.90928,-78.2501,-4.97131,171.546,-0.671387,1.34277,-4.88281,-0.0843811,0.0128784,0.631165,-0.770874,-114.258,62.525,-62.1667,-10396,-28492
984,496272,1.04316,-9.79043,1.84229,-78.2501,-4.98779,171.535,-0.244141,1.58691,-4.82178,-0.0845642,0.0128174,0.631195,-0.770844,-114.267,62.5,-62.175,-10396,-28492
990,496278,1.09102,-9.75215,1.81357,-78.2501,-5.02625,171.513,0.183105,1.28174,-3.90625,-0.0847778,0.0127258,0.631195,-0.770813,-114.35,62.5083,-62.1667,-10396,-28492
996,496284,1.30156,-9.71865,1.79922,-78.2501,-5.04272,171.502,0.915527,1.34277,-2.01416,-0.085083,0.0126343,0.631165,-0.770782,-114.383,62.5167,-62.2083,-10396,-28492
1002,496290,1.33027,-9.67559,1.85186,-78.2446,-5.05371,171.491,1.34277,1.58691,-0.732422,-0.0852051,0.0126343,0.631134,-0.770813,-114.408,62.4917,-62.2667,-10396,-28492
1008,496296,1.28721,-9.63252,1.84229,-78.2391,-5.05371,171.486,1.52588,1.89209,0.488281,-0.0852661,0.0126343,0.631104,-0.770844,-114.425,62.475,-62.2833,-10396,-28492
1014,496302,1.34463,-9.6708,1.83271,-78.2281,-5.04822,171.475,2.2583,1.89209,2.01416,-0.0852966,0.0127258,0.631042,-0.770874,-114.433,62.4833,-62.3083,-10396,-28492
1020,496308,1.56475,-9.7665,1.86621,-78.2007,-5.01526,171.458,3.90625,2.62451,3.90625,-0.0852966,0.0128174,0.630981,-0.770935,-114.408,62.4333,-62.3333,-10396,-28492
1026,496314,1.35898,-9.85742,1.91885,-78.1842,-4.99329,171.453,3.72314,1.89209,7.14111,-0.085144,0.0131836,0.630707,-0.771149,-114.392,62.4083,-62.375,-10396,-28492
1032,496320,1.27285,-9.73779,1.69873,-78.1677,-4.95483,171.453,5.06592,2.92969,7.93457,-0.0849915,0.0134277,0.630585,-0.771271,-114.375,62.4167,-62.3917,-10396,-28492
1038,496326,0.803906,-9.77129,1.86621,-78.1403,-4.91638,171.442,4.94385,3.54004,8.72803,-0.0848083,0.0137024,0.630432,-0.771423,-114.358,62.4,-62.3917,-10396,-28492
1044,496332,0.564648,-9.75693,2.0002,-78.1183,-4.87244,171.436,5.67627,3.72314,7.75146,-0.0846252,0.0140381,0.630249,-0.771576,-114.35,62.375,-62.4167,-10396,-28492
1050,496338,0.583789,-9.65166,1.99541,-78.0634,-4.80103,171.414,5.92041,3.41797,6.95801,-0.0843506,0.0146179,0.629852,-0.771912,-114.342,62.4083,-62.3667,-10396,-28492
1056,496344,0.459375,-9.63252,2.01455,-78.0359,-4.76807,171.403,5.12695,3.72314,5.06592,-0.0842896,0.0148926,0.629669,-0.772064,-114.325,62.4167,-62.3667,-10396,-28492
1062,496350,0.693848,-9.74736,1.95713,-78.0139,-4.7406,171.387,5.37109,3.479,4.57764,-0.0842285,0.0151367,0.629486,-0.772217,-114.333,62.3917,-62.3917,-10396,-28492
1068,496356,0.77998,-9.66123,1.98105,-77.9865,-4.71313,171.376,5.7373,3.54004,4.57764,-0.0841675,0.0153503,0.629303,-0.772369,-114.308,62.375,-62.4167,-10396,-28492
1074,496362,0.842188,-9.63731,2.01934,-77.959,-4.69116,171.365,5.5542,3.78418,4.88281,-0.084137,0.015564,0.62912,-0.772522,-114.308,62.4083,-62.4167,-10396,-28492
1080,496368,0.890039,-9.69951,2.01934,-77.9041,-4.63623,171.332,5.49316,3.90625,4.94385,-0.0840454,0.0160522,0.628723,-0.772827,-114.325,62.4583,-62.4667,-10396,-28492
1086,496374,0.990527,-9.63252,2.13896,-77.8766,-4.60876,171.321,5.67627,3.41797,6.16455,-0.0839539,0.0162964,0.62854,-0.77301,-114.342,62.5,-62.475,-10396,-28492
1092,496380,1.02881,-9.64209,2.12461,-77.8491,-4.57581,171.31,5.18799,2.68555,7.50732,-0.0838623,0.0165405,0.628326,-0.773163,-114.367,62.55,-62.475,-10396,-28492
1098,496386,1.10537,-9.70908,2.05283,-77.8271,-4.53735,171.304,5.00488,2.19727,8.48389,-0.0836792,0.0168152,0.628174,-0.773315,-114.358,62.5583,-62.5,-10396,-28492
1104,496392,1.17715,-9.79043,2.04805,-77.8052,-4.49341,171.304,4.88281,1.70898,10.1318,-0.0834961,0.0170898,0.627991,-0.773468,-114.342,62.525,-62.525,-10396,-28492
1110,496398,1.30635,-9.8335,1.97148,-77.7557,-4.38904,171.315,5.06592,0.915527,12.2681,-0.0828552,0.0177307,0.627655,-0.773804,-114.3,62.5167,-62.5833,-10396,-28492
1116,496404,1.66045,-9.97227,1.68916,-77.7338,-4.32312,171.326,5.79834,1.2207,17.0288,-0.0823975,0.0180969,0.627472,-0.773987,-114.267,62.5167,-62.6,-10396,-28492
1122,496410,1.10537,-9.99141,1.46904,-77.7063,-4.24072,171.343,5.37109,3.78418,17.4561,-0.0818787,0.0185547,0.627289,-0.77417,-114.225,62.5083,-62.6333,-10396,-28492
1128,496416,0.382813,-9.87656,1.82793,-77.6843,-4.15833,171.343,6.16455,2.80762,16.1743,-0.0814209,0.019104,0.627106,-0.774384,-114.217,62.5167,-62.6667,-10396,-28492
1134,496422,0.186621,-9.4459,2.40215,-77.6569,-4.08142,171.343,5.61523,1.09863,14.7705,-0.0809937,0.0195923,0.626892,-0.774567,-114.192,62.5417,-62.7083,-10396,-28492
1140,496428,0.373242,-9.14922,2.58398,-77.6184,-3.94958,171.37,3.11279,0.12207,13.6719,-0.0801086,0.0203247,0.626617,-0.774872,-114.142,62.5833,-62.7833,-10396,-28492
1146,496434,0.200977,-9.51289,2.1916,-77.6239,-3.88916,171.376,-0.183105,-0.793457,11.6577,-0.0797424,0.0206604,0.626587,-0.774902,-114.092,62.6083,-62.825,-10396,-28492
1152,496440,0.387598,-9.48897,2.12939,-77.6239,-3.83972,171.392,-0.366211,-2.13623,10.6812,-0.0793457,0.0209351,0.626587,-0.774933,-114.042,62.65,-62.8583,-10396,-28492
1158,496446,0.468945,-9.4459,2.32559,-77.6294,-3.79028,171.414,-0.976563,-1.70898,10.0098,-0.0789185,0.0211487,0.626617,-0.774963,-113.975,62.6833,-62.9083,-10396,-28492
1164,496452,0.253613,-9.43633,2.24424,-77.6349,-3.74634,171.436,-2.01416,-1.46484,9.33838,-0.0785522,0.0213318,0.626648,-0.774963,-113.917,62.6833,-62.95,-10396,-28492
1170,496458,0.31582,-9.40283,2.23467,-77.6624,-3.66943,171.475,-2.44141,-3.05176,8.78906,-0.0778503,0.0216675,0.626831,-0.774902,-113.85,62.75,-63.0167,-10396,-28492
1176,496464,0.29668,-9.39805,2.20596,-77.6788,-3.63647,171.502,-3.90625,-4.27246,7.50732,-0.0774841,0.021759,0.626923,-0.774841,-113.825,62.775,-63.025,-10396,-28492
1182,496470,0.334961,-9.54639,2.16768,-77.7008,-3.60352,171.53,-4.5166,-5.43213,6.83594,-0.0771179,0.0218201,0.627075,-0.77475,-113.817,62.7917,-63.05,-10396,-28492
1188,496476,0.478516,-9.58467,2.09111,-77.7283,-3.57605,171.563,-4.63867,-5.79834,6.5918,-0.0767517,0.0218201,0.627228,-0.774658,-113.808,62.8,-63.0333,-10396,-28492
1194,496482,0.46416,-9.63252,2.02412,-77.7502,-3.55408,171.601,-4.76074,-6.16455,6.34766,-0.076355,0.0218201,0.627411,-0.774567,-113.792,62.8333,-63.025,-10396,-28492
1200,496488,0.579004,-9.80479,1.81836,-77.8052,-3.50464,171.678,-4.3335,-6.83594,6.34766,-0.075592,0.021759,0.627747,-0.774353,-113.7,62.85,-63.0333,-10396,-28492
1206,496494,0.535937,-9.79521,1.94277,-77.8217,-3.48267,171.716,-2.68555,-6.71387,6.28662,-0.0752258,0.021698,0.627899,-0.774292,-113.625,62.875,-63.0333,-10396,-28492
1212,496500,0.574219,-9.69951,1.98105,-77.8381,-3.46069,171.755,-2.31934,-6.65283,6.10352,-0.0748291,0.021637,0.627991,-0.774231,-113.55,62.925,-63.0167,-10396,-28492
1218,496506,0.521582,-9.68994,1.97627,-77.8546,-3.43872,171.793,-1.95313,-6.5918,6.10352,-0.0744324,0.0216064,0.628082,-0.7742,-113.492,62.9667,-62.975,-10396,-28492
1224,496512,0.492871,-9.6708,1.99541,-77.8656,-3.41675,171.832,-1.64795,-6.71387,6.16455,-0.0740662,0.0215454,0.628174,-0.77417,-113.458,62.9833,-62.9417,-10396,-28492
1230,496518,0.684277,-9.68037,2.01934,-77.8876,-3.3783,171.909,-1.15967,-6.89697,5.5542,-0.0733032,0.0213928,0.628326,-0.774139,-113.417,63.0667,-62.85,-10396,-28492
1236,496524,0.736914,-9.79043,1.91406,-77.8931,-3.35632,171.953,-0.732422,-7.20215,6.16455,-0.0729065,0.0213013,0.628357,-0.774139,-113.4,63.1333,-62.7917,-10396,-28492
1242,496530,0.684277,-9.85742,1.78486,-77.8986,-3.33435,171.996,-0.183105,-6.53076,6.46973,-0.0724792,0.0212402,0.628418,-0.774139,-113.367,63.1833,-62.7417,-10396,-28492
1248,496536,0.746484,-9.90049,1.71787,-77.9041,-3.31238,172.035,1.0376,-6.65283,6.95801,-0.072113,0.0211792,0.628448,-0.774139,-113.325,63.2333,-62.6583,-10396,-28492
1254,496542,0.732129,-9.84785,1.81836,-77.9041,-3.28491,172.073,2.31934,-5.79834,7.20215,-0.0716858,0.0211182,0.628418,-0.7742,-113.292,63.3,-62.6,-10396,-28492
1260,496548,0.588574,-9.55596,2.0959,-77.8821,-3.22998,172.145,3.05176,-5.31006,7.38525,-0.0709229,0.0211182,0.628296,-0.774384,-113.258,63.3667,-62.5417,-10396,-28492
1266,496554,0.416309,-9.42676,2.05283,-77.8711,-3.20251,172.172,3.78418,-3.90625,6.89697,-0.0705566,0.0211487,0.628204,-0.774506,-113.225,63.4,-62.525,-10396,-28492
1272,496560,0.334961,-9.42676,2.10547,-77.8546,-3.17505,172.2,3.35693,-3.84521,6.71387,-0.0702209,0.0211792,0.628082,-0.774628,-113.192,63.4417,-62.55,-10396,-28492
1278,496566,0.387598,-9.40283,2.0959,-77.8381,-3.14758,172.227,3.72314,-3.72314,6.28662,-0.0699158,0.0212402,0.627991,-0.774719,-113.142,63.4667,-62.5833,-10396,-28492
1284,496572,0.392383,-9.43154,2.19639,-77.8052,-3.09814,172.277,3.66211,-3.84521,6.10352,-0.0696106,0.0212402,0.627869,-0.774841,-113.092,63.475,-62.625,-10396,-28492
1290,496578,0.368457,-9.37891,2.22988,-77.7887,-3.07068,172.293,3.11279,-2.80762,5.18799,-0.0690613,0.0213013,0.627625,-0.775085,-112.992,63.5,-62.725,-10396,-28492
1296,496584,0.416309,-9.45068,2.21553,-77.7777,-3.04871,172.315,2.68555,-2.92969,4.76074,-0.0688171,0.0213318,0.627533,-0.775177,-112.967,63.5167,-62.7,-10396,-28492
1302,496590,0.516797,-9.57988,2.1916,-77.7612,-3.03223,172.332,2.01416,-2.62451,5.00488,-0.068573,0.0213623,0.627441,-0.775269,-112.942,63.525,-62.7167,-10396,-28492
1308,496596,0.555078,-9.68037,2.04805,-77.7557,-3.01025,172.354,2.01416,-2.31934,4.63867,-0.0683289,0.0213928,0.62738,-0.77533,-112.933,63.5583,-62.725,-10396,-28492
1314,496602,0.569434,-9.78564,1.98584,-77.7338,-2.9718,172.381,2.2583,-2.13623,4.94385,-0.0681152,0.0214233,0.627319,-0.775391,-112.925,63.6,-62.6917,-10396,-28492
1320,496608,0.47373,-9.68994,2.00498,-77.7228,-2.94983,172.397,2.99072,-1.95313,5.06592,-0.067688,0.0215454,0.627167,-0.775574,-112.9,63.6583,-62.65,-10396,-28492
1326,496614,0.46416,-9.62295,2.06719,-77.7118,-2.92786,172.414,3.41797,-2.19727,4.69971,-0.0674744,0.0216064,0.627075,-0.775665,-112.867,63.6583,-62.6333,-10396,-28492
1332,496620,0.430664,-9.49375,2.18203,-77.6953,-2.90588,172.43,3.17383,-2.13623,4.76074,-0.0672607,0.021637,0.626984,-0.775757,-112.825,63.6667,-62.5917,-10396,-28492
1338,496626,0.416309,-9.43633,2.22031,-77.6788,-2.8894,172.441,2.80762,-1.64795,4.15039,-0.0670471,0.0216675,0.626862,-0.775848,-112.792,63.6667,-62.5583,-10396,-28492
1344,496632,0.44502,-9.53203,2.17725,-77.6569,-2.85095,172.469,2.19727,-1.77002,4.45557,-0.0668945,0.0217285,0.62677,-0.77594,-112.758,63.65,-62.5583,-10396,-28492
1350,496638,0.440234,-9.58467,2.05283,-77.6514,-2.83447,172.48,2.74658,-1.40381,4.5166,-0.0665283,0.0218201,0.626648,-0.776093,-112.733,63.6667,-62.5917,-10396,-28492
1356,496644,0.45459,-9.59424,2.08633,-77.6349,-2.8125,172.491,2.99072,-1.34277,4.15039,-0.0663452,0.0218811,0.626556,-0.776184,-112.733,63.6917,-62.625,-10396,-28492
1362,496650,0.459375,-9.52246,2.15332,-77.6239,-2.79602,172.502,2.99072,-1.40381,4.27246,-0.0661621,0.0219421,0.626465,-0.776276,-112.717,63.7,-62.675,-10396,-28492
1368,496656,0.378027,-9.51768,2.17246,-77.6074,-2.77954,172.513,2.99072,-1.0376,4.02832,-0.065979,0.0220032,0.626373,-0.776367,-112.708,63.725,-62.675,-10396,-28492
1374,496662,0.378027,-9.50332,2.13896,-77.58,-2.74109,172.535,2.80762,-1.09863,3.84521,-0.0658264,0.0220642,0.626251,-0.776459,-112.683,63.8417,-62.675,-10396,-28492
1380,496668,0.363672,-9.61338,2.01934,-77.569,-2.72461,172.54,3.05176,-0.915527,3.60107,-0.0655518,0.0221863,0.626068,-0.776611,-112.658,63.85,-62.6667,-10396,-28492
1386,496674,0.339746,-9.59424,2.04326,-77.5525,-2.71362,172.551,3.05176,-1.0376,3.41797,-0.0653992,0.0222168,0.625977,-0.776703,-112.658,63.875,-62.675,-10396,-28492
1392,496680,0.363672,-9.53682,2.0959,-77.5415,-2.69714,172.557,3.479,-0.976563,3.2959,-0.0652771,0.0222778,0.625885,-0.776794,-112.65,63.9083,-62.6833,-10396,-28492
1398,496686,0.421094,-9.52246,2.18203,-77.525,-2.68066,172.568,3.17383,-0.793457,2.80762,-0.0651245,0.0223083,0.625763,-0.776886,-112.65,63.9333,-62.7167,-10396,-28492
1404,496692,0.468945,-9.46982,2.16289,-77.4976,-2.6532,172.579,2.99072,-0.732422,3.11279,-0.065033,0.0223694,0.625671,-0.776978,-112.625,63.975,-62.8333,-10396,-28492
1410,496698,0.516797,-9.74258,2.02412,-77.4811,-2.64221,172.584,2.62451,-0.427246,3.41797,-0.0648193,0.0224915,0.625488,-0.777161,-112.617,64.0083,-62.8667,-10396,-28492
1416,496704,0.564648,-9.82393,2.03369,-77.4701,-2.62573,172.59,2.99072,-0.366211,3.66211,-0.0646973,0.0225525,0.625397,-0.777222,-112.608,64.025,-62.875,-10396,-28492
1422,496710,0.507227,-9.81914,2.05283,-77.4591,-2.60925,172.595,3.2959,-0.244141,3.78418,-0.0645447,0.0226135,0.625305,-0.777313,-112.6,63.9833,-62.9083,-10396,-28492
1428,496716,0.449805,-9.74258,2.12939,-77.4426,-2.59277,172.601,3.84521,-0.244141,3.90625,-0.0644226,0.0227051,0.625183,-0.777405,-112.617,63.9417,-62.9333,-10396,-28492
1434,496722,0.421094,-9.65166,2.16289,-77.4097,-2.55432,172.612,3.60107,-0.671387,4.02832,-0.0643005,0.0227966,0.625061,-0.777527,-112.617,63.9333,-62.975,-10396,-28492
1440,496728,0.521582,-9.78564,2.11982,-77.3932,-2.53784,172.623,2.99072,-0.732422,4.5166,-0.0639954,0.0229187,0.624847,-0.77771,-112.617,63.925,-63,-10396,-28492
1446,496734,0.421094,-9.80957,2.07197,-77.3767,-2.51587,172.628,3.17383,-1.09863,4.57764,-0.0638428,0.0230103,0.624756,-0.777802,-112.608,63.925,-62.9917,-10396,-28492
1452,496740,0.378027,-9.73779,2.05762,-77.3657,-2.49939,172.639,3.479,-1.34277,4.63867,-0.0636597,0.0230713,0.624634,-0.777893,-112.592,63.9667,-62.9917,-10396,-28492
1458,496746,0.373242,-9.64209,2.11504,-77.3492,-2.47742,172.65,3.54004,-2.01416,4.45557,-0.0634766,0.0231628,0.624542,-0.778015,-112.55,63.9917,-63.0083,-10396,-28492
1464,496752,0.358887,-9.5751,2.20117,-77.3163,-2.43896,172.678,3.41797,-1.64795,4.63867,-0.0632935,0.0231934,0.62442,-0.778107,-112.533,64.0333,-63.0417,-10396,-28492
1470,496758,0.339746,-9.53203,2.2251,-77.3053,-2.41699,172.694,3.05176,-2.0752,4.15039,-0.0628967,0.0233154,0.624207,-0.77829,-112.525,64.0917,-63.0417,-10396,-28492
1476,496764,0.330176,-9.53682,2.16768,-77.2888,-2.40051,172.705,2.80762,-2.13623,3.84521,-0.0627136,0.0233459,0.624115,-0.778381,-112.508,64.1,-63.025,-10396,-28492
1482,496770,0.311035,-9.5751,2.15332,-77.2778,-2.38403,172.722,2.38037,-2.0752,3.84521,-0.0625305,0.0233459,0.624023,-0.778473,-112.5,64.0833,-63.0083,-10396,-28492
1488,496776,0.244043,-9.52725,2.10547,-77.2668,-2.36755,172.733,2.74658,-2.0752,3.66211,-0.0623474,0.0233765,0.623962,-0.778534,-112.475,64.05,-62.975,-10396,-28492
1494,496782,0.31582,-9.53203,2.16289,-77.2449,-2.34009,172.766,2.62451,-2.31934,3.35693,-0.0621643,0.023407,0.623871,-0.778625,-112.458,64.0333,-62.9667,-10396,-28492
1500,496788,0.272754,-9.43154,2.1916,-77.2339,-2.3291,172.776,2.62451,-1.58691,3.11279,-0.0618286,0.023407,0.623718,-0.778778,-112.417,63.9917,-62.9667,-10396,-28492
1506,496794,0.354102,-9.46025,2.18682,-77.2229,-2.31262,172.787,2.62451,-1.64795,2.92969,-0.061676,0.0234375,0.623627,-0.77887,-112.375,63.95,-62.9667,-10396,-28492
1512,496800,0.325391,-9.49375,2.13418,-77.2064,-2.30164,172.798,2.44141,-1.70898,3.17383,-0.061554,0.023468,0.623566,-0.778931,-112.333,63.9333,-62.9583,-10396,-28492
1518,496806,0.339746,-9.50811,2.1916,-77.1954,-2.29065,172.809,2.62451,-1.52588,2.80762,-0.0614014,0.023468,0.623474,-0.778992,-112.292,63.9083,-62.95,-10396,-28492
1524,496812,0.253613,-9.43633,2.11504,-77.1735,-2.26318,172.826,2.92969,-0.915527,2.50244,-0.0612793,0.0234985,0.623383,-0.779083,-112.267,63.85,-63.0417,-10396,-28492
1530,496818,0.358887,-9.39805,2.27773,-77.1625,-2.25769,172.837,2.19727,-0.610352,2.2583,-0.0610657,0.0235291,0.62323,-0.779236,-112.258,63.8583,-63.075,-10396,-28492
1536,496824,0.330176,-9.47461,2.26338,-77.1515,-2.2467,172.842,1.77002,-0.610352,1.89209,-0.0609741,0.0235596,0.623169,-0.779297,-112.25,63.8833,-63.1083,-10396,-28492
1542,496830,0.392383,-9.60381,2.23467,-77.1405,-2.23572,172.848,1.64795,-0.427246,1.83105,-0.0608826,0.0235901,0.623108,-0.779358,-112.242,63.9,-63.15,-10396,-28492
1548,496836,0.421094,-9.6708,2.18203,-77.135,-2.23022,172.853,1.58691,-0.244141,2.01416,-0.0608215,0.0236206,0.623047,-0.779388,-112.242,63.9,-63.1833,-10396,-28492
1554,496842,0.401953,-9.6708,2.18203,-77.1185,-2.20825,172.859,1.77002,-0.12207,2.44141,-0.06073,0.0236511,0.622986,-0.779449,-112.258,63.95,-63.2,-10396,-28492
1560,496848,0.339746,-9.52725,2.18682,-77.1075,-2.19727,172.859,1.89209,-0.671387,2.38037,-0.0606079,0.0237732,0.622864,-0.779541,-112.267,63.9167,-63.2,-10396,-28492
1566,496854,0.392383,-9.55596,2.31123,-77.1021,-2.19177,172.87,1.83105,-0.610352,2.31934,-0.0604858,0.0238037,0.622803,-0.779602,-112.283,63.9,-63.175,-10396,-28492
1572,496860,0.382813,-9.46982,2.2873,-77.0911,-2.18079,172.87,1.46484,0.0610352,2.44141,-0.0604248,0.0238342,0.622742,-0.779663,-112.283,63.8917,-63.125,-10396,-28492
1578,496866,0.205762,-9.42676,2.26816,-77.0856,-2.1698,172.875,1.0376,0.0610352,2.01416,-0.0603333,0.0238953,0.622681,-0.779694,-112.275,63.9083,-63.1167,-10396,-28492
1584,496872,0.191406,-9.40283,2.24902,-77.0746,-2.14783,172.881,0.854492,0,1.77002,-0.0602722,0.0239563,0.62265,-0.779724,-112.267,63.9083,-63.1,-10396,-28492
1590,496878,0.15791,-9.3502,2.3208,-77.0746,-2.14233,172.881,0.610352,-0.366211,0.488281,-0.0601807,0.0240173,0.622589,-0.779785,-112.275,63.9667,-63.0583,-10396,-28492
1596,496884,0.196191,-9.32627,2.28252,-77.0691,-2.14233,172.881,0.183105,-0.0610352,0.0610352,-0.0601501,0.0240173,0.622559,-0.779816,-112.283,63.9917,-63.0083,-10396,-28492
1602,496890,0.210547,-9.40762,2.21553,-77.0691,-2.14233,172.881,-0.183105,0.12207,-0.305176,-0.0601501,0.0240173,0.622559,-0.779816,-112.283,64,-62.975,-10396,-28492
1608,496896,0.15791,-9.43154,2.11982,-77.0691,-2.14233,172.881,0,0.0610352,-0.366211,-0.0601501,0.0240173,0.622559,-0.779816,-112.275,64.0083,-62.9583,-10396,-28492
1614,496902,0.224902,-9.49854,2.15332,-77.0691,-2.14783,172.881,0.0610352,0.0610352,-0.854492,-0.0602112,0.0240173,0.622559,-0.779816,-112.208,64.0417,-62.9583,-10396,-28492
1620,496908,0.311035,-9.54639,2.16289,-77.0636,-2.15332,172.881,0.305176,-0.427246,-1.0376,-0.0602112,0.0239868,0.622559,-0.779816,-112.167,64.0167,-62.975,-10396,-28492
1626,496914,0.363672,-9.60381,2.14854,-77.0636,-2.15332,172.881,0.427246,0,-1.2207,-0.0602417,0.0239563,0.622528,-0.779816,-112.125,64,-62.975,-10396,-28492
1632,496920,0.382813,-9.71387,2.03848,-77.0636,-2.15881,172.875,0.488281,0.183105,-1.40381,-0.0602722,0.0239258,0.622528,-0.779846,-112.108,63.9917,-62.95,-10396,-28492
1638,496926,0.349316,-9.77607,2.05283,-77.0581,-2.16431,172.875,1.0376,0.793457,-1.34277,-0.0603333,0.0238953,0.622498,-0.779846,-112.092,64,-62.9417,-10396,-28492
1644,496932,0.272754,-9.74736,2.0959,-77.0471,-2.17529,172.864,1.70898,0.610352,-1.52588,-0.0604553,0.0238647,0.622437,-0.779907,-112.083,63.9583,-62.9167,-10396,-28492
1650,496938,0.330176,-9.61816,2.23467,-77.0361,-2.18079,172.864,2.0752,0.244141,-1.0376,-0.0604858,0.0238342,0.622375,-0.779968,-112.075,63.975,-62.9583,-10396,-28492
1656,496944,0.325391,-9.59424,2.20596,-77.0251,-2.18628,172.859,2.01416,0.427246,-1.28174,-0.0605469,0.0238342,0.622284,-0.779999,-112.067,63.9583,-63,-10396,-28492
1662,496950,0.291895,-9.49854,2.24424,-77.0197,-2.19177,172.859,1.95313,0.549316,-1.58691,-0.0605774,0.0238037,0.622223,-0.78006,-112.058,63.9417,-63.0417,-10396,-28492
1668,496956,0.29668,-9.45068,2.25859,-77.0087,-2.19727,172.853,1.95313,0.488281,-1.34277,-0.0606689,0.0237732,0.622162,-0.78009,-112.05,63.9167,-63.0917,-10396,-28492
1674,496962,0.363672,-9.57031,2.25381,-76.9922,-2.20276,172.848,1.64795,0.244141,-0.976563,-0.0607605,0.0237427,0.62204,-0.780182,-112.075,63.9083,-63.1417,-10396,-28492
1680,496968,0.832617,-10.1972,1.86143,-76.9812,-2.20825,172.842,1.83105,1.40381,-0.305176,-0.060791,0.0237427,0.622009,-0.780212,-112.092,63.8917,-63.1417,-10396,-28492
1686,496974,1.05752,-10.714,1.53604,-76.9757,-2.20825,172.837,3.78418,3.66211,0.976563,-0.0608215,0.0237732,0.621948,-0.780273,-112.117,63.8917,-63.125,-10396,-28492
1692,496980,0.90918,-10.9484,1.49297,-76.9592,-2.19727,172.82,7.87354,5.67627,1.77002,-0.0609131,0.0239258,0.621796,-0.780365,-112.117,63.9167,-63.1,-10396,-28492
1698,496986,0.636426,-10.7522,1.58389,-76.9208,-2.18628,172.793,11.2305,5.06592,3.23486,-0.0610046,0.0241394,0.621552,-0.780548,-112.117,63.9417,-63.075,-10396,-28492
1704,496992,0.851758,-10.3886,2.11982,-76.7999,-2.13684,172.76,13.1836,3.23486,5.12695,-0.0610046,0.0245667,0.620728,-0.781189,-112.075,63.9167,-63.05,-10396,-28492
1710,496998,1.05273,-10.4604,2.25381,-76.7395,-2.10388,172.76,13.916,2.86865,8.17871,-0.0608521,0.0247803,0.62027,-0.781555,-112.067,63.9417,-63.0333,-10396,-28492
1716,497004,1.13887,-10.6374,2.01934,-76.6736,-2.05994,172.755,14.7705,4.63867,10.376,-0.0606689,0.0250549,0.619812,-0.781921,-112.05,63.9583,-63.05,-10396,-28492
1722,497010,1.0001,-10.7905,2.0959,-76.6022,-2.0105,172.744,16.2354,5.31006,11.6577,-0.0604858,0.0254517,0.619324,-0.782318,-112.05,63.9417,-63.1083,-10396,-28492
1728,497016,0.952246,-10.8288,2.34951,-76.5253,-1.95007,172.733,17.5171,3.96729,14.4653,-0.0602417,0.0258789,0.618774,-0.782745,-112.058,63.9333,-63.175,-10396,-28492
1734,497022,1.46426,-10.9149,2.41172,-76.3605,-1.79626,172.733,18.1885,3.2959,16.6626,-0.0594788,0.026825,0.617584,-0.783722,-112.083,63.9917,-63.35,-10404,-28491
1740,497028,1.31113,-11.159,2.21074,-76.2781,-1.70288,172.722,17.334,8.05664,23.3154,-0.059021,0.0274658,0.616974,-0.78421,-112.075,63.9833,-63.4167,-10404,-28491
1746,497034,1.15801,-11.4078,2.3208,-76.1957,-1.58752,172.711,18.3105,7.8125,26.6724,-0.0585022,0.0282898,0.616394,-0.784698,-112.05,63.9667,-63.4917,-10404,-28491
1752,497040,1.1915,-11.4222,2.68447,-76.1078,-1.45569,172.705,18.0054,6.5918,30.4565,-0.0578613,0.0291748,0.615753,-0.785217,-112.025,63.9667,-63.525,-10396,-28492
1758,497046,1.31113,-11.3456,2.79453,-76.0254,-1.30737,172.711,18.1274,5.31006,34.3018,-0.0570679,0.0301208,0.615112,-0.785736,-111.983,63.9667,-63.5917,-10396,-28492
1764,497052,1.76094,-11.6614,3.06729,-75.8661,-0.961304,172.749,16.7236,5.12695,37.7197,-0.0550232,0.0322266,0.613892,-0.786743,-111.892,63.9583,-63.8083,-10396,-28492
1770,497058,1.86143,-11.9533,3.20127,-75.7947,-0.76355,172.771,13.4277,6.10352,47.1802,-0.0538025,0.0334167,0.613342,-0.787201,-111.825,63.9833,-63.8833,-10396,-28492
1776,497064,1.91885,-12.3074,3.16777,-75.7343,-0.53833,172.798,11.5967,6.10352,52.2461,-0.0524292,0.03479,0.612854,-0.787628,-111.75,64.025,-63.9417,-10396,-28492
1782,497070,1.9667,-12.6472,3.13906,-75.6848,-0.291138,172.831,10.1318,6.53076,57.9834,-0.0509033,0.0362854,0.612396,-0.788025,-111.633,64.0333,-64,-10396,-28492
1788,497076,1.98105,-12.7812,3.20127,-75.6354,-0.0219727,172.875,8.8501,6.46973,63.2324,-0.0491943,0.0379333,0.611969,-0.788361,-111.525,64.05,-64.0417,-10396,-28492
1794,497082,2.16289,-12.7907,3.28262,-75.564,0.598755,172.969,7.38525,7.14111,69.1528,-0.0452271,0.0416565,0.611237,-0.788971,-111.292,64.1667,-64.1583,-10396,-28492
1800,497088,2.03369,-12.6663,3.43096,-75.5365,0.944824,173.029,4.76074,8.91113,80.3833,-0.0429688,0.0437317,0.610901,-0.789246,-111.142,64.225,-64.2667,-10396,-28492
1806,497094,2.04326,-12.8481,3.2874,-75.5145,1.32385,173.084,2.68555,10.1318,84.8999,-0.0405884,0.0460205,0.610596,-0.78949,-110.975,64.2917,-64.3583,-10396,-28492
1812,497100,1.98105,-12.9965,3.01943,-75.5035,1.72485,173.139,1.40381,11.5356,89.3555,-0.0380554,0.0484924,0.610352,-0.789642,-110.792,64.425,-64.4167,-10396,-28492
1818,497106,1.64609,-13.1975,2.78975,-75.498,2.58728,173.249,0.854492,12.8174,93.5059,-0.0354309,0.0510864,0.610138,-0.789764,-110.6,64.5833,-64.45,-10396,-28492
1824,497112,1.1293,-13.6186,2.1916,-75.4926,3.03772,173.298,5.49316,14.2822,98.0835,-0.0299377,0.0567017,0.60968,-0.789978,-110.225,64.85,-64.55,-10396,-28492
1830,497118,0.775195,-13.1496,2.19639,-75.4706,3.50464,173.353,6.7749,12.9395,100.464,-0.0270996,0.0596008,0.609283,-0.790192,-110.017,65,-64.6,-10396,-28492
1836,497124,0.368457,-13.3649,1.86621,-75.4376,3.97705,173.414,6.46973,12.9395,100.952,-0.0241699,0.0625,0.608826,-0.790405,-109.767,65.125,-64.675,-10396,-28492
1842,497130,0.263184,-13.7908,1.64131,-75.4047,4.44946,173.474,9.82666,9.82666,100.708,-0.0212402,0.0654297,0.608368,-0.790619,-109.533,65.2583,-64.8,-10396,-28492
1848,497136,0.583789,-13.9631,1.43076,-75.2838,5.3833,173.644,15.0146,7.44629,101.44,-0.018219,0.0682068,0.607788,-0.790894,-109.258,65.3833,-64.9167,-10396,-28492
1854,497142,0.349316,-12.3074,1.4499,-75.1849,5.85571,173.738,23.1323,6.7749,101.929,-0.0120544,0.0736694,0.60611,-0.791809,-108.683,65.725,-65.05,-10396,-28492
1860,497148,0.344531,-11.3743,1.10537,-75.0696,6.32263,173.837,24.353,4.39453,97.229,-0.00897217,0.076355,0.605072,-0.792358,-108.367,65.875,-65.1167,-10396,-28492
1866,497154,1.03838,-11.0968,0.277539,-74.9487,6.76208,173.936,27.0386,-4.5166,88.8672,-0.00601196,0.0788574,0.604034,-0.792969,-108.008,66.0333,-65.1333,-10396,-28492
1872,497160,1.78486,-11.1877,0.512012,-74.8114,7.1521,174.073,28.6865,-11.6577,80.9937,-0.00311279,0.08078,0.602905,-0.79364,-107.617,66.225,-65.175,-10396,-28492
1878,497166,1.98584,-10.9102,1.0623,-74.5038,7.7948,174.413,30.6396,-15.9912,76.1108,-0.000305176,0.0822754,0.601746,-0.794373,-107.2,66.4167,-65.2417,-10396,-28492
1884,497172,2.40215,-7.76631,1.60781,-74.3555,8.05298,174.573,17.0898,-15.1367,54.6265,0.00476074,0.0844116,0.599457,-0.795868,-106.417,66.7417,-65.5167,-10396,-28492
1890,497178,3.34004,-8.2209,0.756055,-74.2621,8.25073,174.716,9.09424,-16.2964,44.6167,0.00674438,0.0850525,0.598785,-0.796265,-106.033,66.9333,-65.6667,-10396,-28492
1896,497184,4.6751,-9.6708,0.794336,-74.2181,8.39905,174.853,6.34766,-14.5874,38.6963,0.00842285,0.0853577,0.59845,-0.796478,-105.642,67.1167,-65.825,-10396,-28492
1902,497190,5.37852,-9.97227,0.741699,-74.1852,8.5199,174.974,8.60596,-10.6812,35.8276,0.00985718,0.0855408,0.598267,-0.7966,-105.258,67.2583,-65.9667,-10396,-28492
1908,497196,5.40244,-9.04395,0.574219,-74.1083,8.72864,175.133,10.2539,-4.08936,34.668,0.0110779,0.0857849,0.597992,-0.796753,-104.575,67.5583,-66.1667,-10396,-28492
1914,497202,4.34971,-6.71357,0.645996,-74.0753,8.82751,175.166,9.8877,0.244141,31.9214,0.0127869,0.0866699,0.597412,-0.797089,-104.275,67.6917,-66.2417,-10396,-28492
1920,497208,4.19658,-6.45996,0.392383,-74.0643,8.90442,175.188,-0.793457,6.7749,23.4985,0.0133057,0.0870972,0.597321,-0.797089,-104,67.8,-66.3167,-10396,-28492
1926,497214,3.66543,-6.18242,0.282324,-74.0918,8.96484,175.182,-5.79834,7.8125,18.3716,0.0136108,0.0875549,0.597443,-0.796936,-103.733,67.9083,-66.4,-10396,-28492
1932,497220,3.62715,-6.2542,0.172266,-74.1467,8.9978,175.166,-10.0098,7.08008,13.916,0.0137024,0.0878906,0.597778,-0.796631,-103.475,68.0333,-66.4583,-10396,-28492
1938,497226,3.48838,-6.24941,0.234473,-74.3115,8.9978,175.111,-13.1226,7.56836,9.27734,0.0136719,0.0880432,0.598297,-0.796234,-103.017,68.225,-66.5583,-10396,-28492
1944,497232,2.76582,-6.30684,0,-74.4159,8.95386,175.073,-16.4795,6.89697,-1.0376,0.0130615,0.0880127,0.59964,-0.795258,-102.825,68.2917,-66.6083,-10396,-28492
1950,497238,2.72275,-6.05801,0.133984,-74.5313,8.88794,175.029,-17.0898,1.89209,-6.5918,0.0125122,0.0877686,0.600433,-0.794678,-102.658,68.3583,-66.6333,-10396,-28492
1956,497244,2.53613,-5.83789,0.143555,-74.6411,8.78906,175.007,-16.7236,-0.671387,-11.5967,0.0119019,0.0872192,0.601257,-0.794128,-102.5,68.4333,-66.65,-10396,-28492
1962,497250,2.55527,-5.62734,0.373242,-74.751,8.66272,174.985,-17.9443,-5.37109,-16.9067,0.0111694,0.0864258,0.602112,-0.793579,-102.358,68.4833,-66.6917,-10396,-28492
1968,497256,2.72754,-5.39766,0.526367,-74.9817,8.32214,174.985,-18.3716,-7.56836,-20.5078,0.010376,0.0853271,0.602997,-0.79303,-102.108,68.6167,-66.775,-10396,-28492
1974,497262,2.58398,-5.01006,0.569434,-75.097,8.1189,174.99,-18.9209,-12.3901,-29.1748,0.00854492,0.0826111,0.604858,-0.791901,-102,68.6917,-66.8083,-10388,-28493
1980,497268,2.69883,-4.74209,0.545508,-75.2124,7.88818,175.007,-19.4092,-13.4888,-33.5693,0.00753784,0.0809326,0.605835,-0.791351,-101.9,68.7333,-66.8083,-10388,-28493
1986,497274,2.75625,-4.5459,0.684277,-75.3333,7.6355,175.023,-20.752,-14.2822,-37.8418,0.00637817,0.0791016,0.606812,-0.790802,-101.842,68.7667,-66.7917,-10388,-28493
1992,497280,2.79932,-4.22529,0.655566,-75.4541,7.36084,175.04,-22.3389,-12.7563,-42.1753,0.00509644,0.0771484,0.60788,-0.790192,-101.783,68.8,-66.7667,-10388,-28493
1998,497286,2.75146,-4.01953,0.703418,-75.7343,6.74561,175.034,-24.6582,-11.2915,-47.3022,0.00363159,0.0751038,0.608978,-0.789551,-101.783,68.875,-66.65,-10388,-28493
2004,497292,2.80889,-3.88555,0.76084,-75.899,6.40503,175.007,-30.4565,-5.31006,-58.2275,6.10352e-05,0.0707703,0.611481,-0.788025,-101.833,68.8833,-66.6,-10388,-28493
2010,497298,2.75625,-3.90469,0.894824,-76.0748,6.04248,174.957,-33.9355,-2.2583,-63.6597,-0.00210571,0.0685425,0.612885,-0.78714,-101.908,68.925,-66.525,-10388,-28493
2016,497304,2.5792,-3.91426,0.808691,-76.2726,5.65247,174.886,-37.1094,3.78418,-68.5425,-0.00457764,0.0662537,0.61441,-0.786133,-101.992,68.9417,-66.4333,-10388,-28493
2022,497310,2.12461,-4.03389,0.746484,-76.4813,5.25146,174.781,-40.4663,6.71387,-72.998,-0.00735474,0.0640564,0.616028,-0.785004,-102.108,68.9417,-66.35,-10388,-28493
2028,497316,1.871,-4.18701,0.818262,-76.9592,4.38904,174.523,-43.5181,9.52148,-77.0264,-0.0103455,0.0618591,0.617767,-0.783783,-102.4,68.9083,-66.1,-10388,-28493
2034,497322,1.28721,-4.76123,0.966602,-77.2119,3.94409,174.37,-47.6685,13.4888,-80.9326,-0.0168457,0.0574646,0.621521,-0.781036,-102.55,68.8833,-65.9667,-10388,-28493
2040,497328,0.952246,-4.99092,1.07666,-77.4756,3.49365,174.216,-48.8892,13.916,-82.0923,-0.0202637,0.0552979,0.623444,-0.779572,-102.725,68.825,-65.85,-10388,-28493
2046,497334,0.660352,-5.37373,1.26328,-77.7393,3.03772,174.056,-49.8657,13.9771,-83.5571,-0.0237122,0.0531311,0.625397,-0.778076,-102.883,68.75,-65.7417,-10388,-28493
2052,497340,0.401953,-5.6082,1.56953,-78.0084,2.57629,173.897,-49.8657,13.0615,-86.5479,-0.0271912,0.0509338,0.62738,-0.77652,-103.083,68.6833,-65.6,-10388,-28493
2058,497346,0.373242,-5.82354,1.77529,-78.5303,1.61499,173.589,-49.0112,12.3901,-91.0034,-0.0307007,0.0486755,0.629333,-0.774933,-103.533,68.5333,-65.3167,-10388,-28493
2064,497352,0.373242,-6.19678,2.38779,-78.7775,1.09863,173.436,-45.9595,12.4512,-101.135,-0.038147,0.0437012,0.633057,-0.771851,-103.792,68.4417,-65.2167,-10388,-28493
2070,497358,0.062207,-6.23984,2.77539,-79.0137,0.560303,173.276,-45.4102,12.146,-103.882,-0.0420837,0.0410767,0.634827,-0.770355,-104.058,68.3833,-65.125,-10388,-28493
2076,497364,-0.397168,-6.45996,3.15342,-79.2389,0.0164795,173.117,-44.3115,13.916,-105.896,-0.0461121,0.0383606,0.636505,-0.76886,-104.333,68.3,-65.0083,-10388,-28493
2082,497370,-1.15801,-6.82363,3.25869,-79.4586,-0.532837,172.952,-42.4805,15.2588,-107.361,-0.0502014,0.035675,0.638123,-0.767395,-104.6,68.2,-64.9,-10388,-28493
2088,497376,-1.77529,-7.42656,3.54102,-79.8486,-1.63147,172.612,-40.2222,15.2588,-107.422,-0.0543823,0.0330505,0.639648,-0.765961,-105.208,67.9417,-64.5917,-10388,-28493
2094,497382,-2.95244,-8.02471,3.78027,-80.0134,-2.1698,172.447,-33.6304,13.7329,-106.384,-0.062561,0.027832,0.642303,-0.763306,-105.525,67.8083,-64.4083,-10388,-28493
2100,497388,-3.49795,-8.25918,3.8999,-80.1617,-2.69714,172.288,-30.3345,13.3057,-104.126,-0.0665588,0.0252991,0.643433,-0.762115,-105.875,67.6333,-64.2583,-10388,-28493
2106,497394,-4.03867,-8.42188,4.01953,-80.2881,-3.20801,172.134,-26.8555,11.6577,-102.173,-0.0704041,0.0228271,0.644379,-0.761047,-106.25,67.45,-64.15,-10388,-28493
2112,497400,-4.34014,-8.4793,4.09131,-80.3925,-3.70239,171.985,-23.4985,9.8877,-99.8535,-0.0741272,0.0203857,0.645203,-0.760071,-106.625,67.2917,-64.025,-10388,-28493
2118,497406,-4.48369,-8.56543,4.2875,-80.5463,-4.64722,171.733,-20.6299,8.30078,-97.5342,-0.0810852,0.015686,0.646454,-0.758392,-107.408,66.95,-63.7333,-10388,-28493
2124,497412,-4.52197,-8.39795,4.50762,-80.6012,-5.09216,171.612,-13.855,6.5918,-92.7734,-0.0843506,0.0134277,0.646881,-0.757721,-107.817,66.7583,-63.6083,-10388,-28493
2130,497418,-4.0626,-8.01035,4.58896,-80.6287,-5.51514,171.502,-10.6201,6.28662,-88.8062,-0.0874634,0.011261,0.647186,-0.757141,-108.225,66.5917,-63.5,-10388,-28493
2136,497424,-3.52666,-7.37393,4.62246,-80.6451,-5.91614,171.392,-7.69043,7.62939,-84.2896,-0.0904236,0.00918579,0.647339,-0.756683,-108.642,66.4,-63.3833,-10388,-28493
2142,497430,-3.21563,-6.47432,4.72773,-80.6396,-6.29517,171.282,-6.5918,9.27734,-79.3457,-0.0932617,0.00732422,0.647369,-0.756348,-109.033,66.2167,-63.2917,-10388,-28493
2148,497436,-2.79453,-5.52686,5.00527,-80.5957,-6.95435,171.03,-5.7373,12.6343,-74.5239,-0.0986023,0.00430298,0.647217,-0.755829,-109.825,65.775,-63.075,-10388,-28493
2154,497442,-2.15332,-3.97646,5.63213,-80.5737,-7.24548,170.887,-7.08008,20.9961,-67.5049,-0.101196,0.00317383,0.647095,-0.755585,-110.208,65.5583,-62.9583,-10388,-28493
