TimeSinceCollection,Timestamp,AccX,AccY,AccZ,AngleRoll,AnglePitch,AngleYaw,AngularVelX,AngularVelY,             AngularVelZ,Q1,Q2,Q3,Q4,MagX,MagY,MagZ,Height,Airpressure
0,46426,0.607715,-9.44111,2.91416,-74.7565,-2.43896,-46.5985,-3.66211,-1.52588,-0.12207,-0.724579,0.563995,-0.224518,0.326172,63287,5920,66,3602,-30179
6,46432,0.550293,-9.42676,2.88066,-74.7675,-2.44446,-46.593,-4.02832,-1.58691,0,-0.724518,0.564117,-0.224487,0.326111,63288,5921,69,3602,-30179
12,46438,0.631641,-9.48897,2.87109,-74.8004,-2.44995,-46.5765,-4.08936,-1.34277,0,-0.724396,0.564331,-0.224457,0.326019,63292,5921,77,3602,-30179
18,46444,0.6125,-9.49375,2.84717,-74.8114,-2.45544,-46.5765,-3.60107,-0.671387,0.488281,-0.724335,0.564453,-0.224457,0.325958,63295,5921,81,3602,-30179
24,46450,0.526367,-9.46982,2.80889,-74.8224,-2.45544,-46.571,-3.54004,-0.976563,0.427246,-0.724274,0.564545,-0.224457,0.325928,63295,5921,86,3602,-30179
30,46456,0.588574,-9.47461,2.78975,-74.8334,-2.45544,-46.5656,-3.35693,-0.854492,0.610352,-0.724213,0.564636,-0.224457,0.325867,63297,5923,89,3602,-30179
36,46462,0.512012,-9.47939,2.79453,-74.8444,-2.45544,-46.5656,-3.05176,-0.244141,0.488281,-0.724182,0.564697,-0.224457,0.325806,63298,5927,92,3602,-30179
42,46468,0.325391,-9.49854,2.75146,-74.8608,-2.46094,-46.5546,-2.80762,-1.15967,-0.488281,-0.724091,0.56485,-0.224487,0.325775,63300,5933,102,3602,-30179
48,46474,0.358887,-9.53682,2.7084,-74.8718,-2.47192,-46.5491,-2.80762,-1.64795,-1.15967,-0.72406,0.564911,-0.224457,0.325745,63302,5937,106,3602,-30179
54,46480,0.440234,-9.53203,2.71797,-74.8773,-2.48291,-46.5436,-2.50244,-2.19727,-1.40381,-0.723999,0.565002,-0.224396,0.325745,63302,5940,112,3602,-30179
60,46486,0.497656,-9.45547,2.78496,-74.8828,-2.4939,-46.5326,-2.13623,-2.62451,-1.40381,-0.723969,0.565094,-0.224304,0.325714,63300,5940,115,3602,-30179
66,46492,0.569434,-9.40762,2.89502,-74.8883,-2.50488,-46.5216,-2.13623,-2.50244,-1.52588,-0.723938,0.565186,-0.224182,0.325684,63298,5940,116,3602,-30179
72,46498,0.607715,-9.32627,2.97158,-74.8993,-2.52686,-46.5051,-2.50244,-2.2583,-1.0376,-0.723907,0.565369,-0.223999,0.325653,63297,5941,116,3602,-30179
78,46504,0.598145,-9.32627,2.95723,-74.9103,-2.53235,-46.4941,-2.86865,-2.19727,-1.0376,-0.723877,0.56546,-0.223907,0.325623,63299,5940,117,3602,-30179
84,46510,0.60293,-9.34062,2.91416,-74.9213,-2.54333,-46.4832,-3.23486,-2.56348,-0.732422,-0.723816,0.565552,-0.223816,0.325592,63300,5939,121,3602,-30179
90,46516,0.60293,-9.38369,2.89502,-74.9323,-2.54883,-46.4667,-3.41797,-2.38037,-0.488281,-0.723785,0.565674,-0.223724,0.325531,63301,5938,124,3602,-30179
96,46522,0.641211,-9.37412,2.90937,-74.9487,-2.55432,-46.4557,-3.84521,-2.50244,-0.305176,-0.723755,0.565796,-0.223663,0.32547,63302,5938,127,3602,-30179
102,46528,0.669922,-9.44111,2.86631,-74.9762,-2.56531,-46.4337,-4.21143,-1.89209,0.427246,-0.723663,0.56604,-0.223541,0.325317,63302,5937,133,3602,-30179
108,46534,0.665137,-9.48897,2.79453,-74.9927,-2.56531,-46.4227,-4.08936,-1.64795,0.610352,-0.723602,0.566162,-0.223541,0.325226,63302,5937,135,3602,-30179
114,46540,0.660352,-9.52246,2.84717,-75.0037,-2.56531,-46.4117,-3.72314,-1.58691,0.793457,-0.723572,0.566284,-0.223511,0.325134,63303,5936,137,3602,-30179
120,46546,0.665137,-9.51768,2.78975,-75.0201,-2.55981,-46.4008,-3.41797,-0.915527,1.09863,-0.723511,0.566406,-0.22348,0.325043,63303,5934,139,3602,-30179
126,46552,0.60293,-9.56553,2.71797,-75.0256,-2.55981,-46.3953,-2.92969,-0.488281,1.0376,-0.72348,0.566467,-0.223511,0.324951,63304,5934,142,3602,-30179
132,46558,0.559863,-9.5416,2.6749,-75.0366,-2.55432,-46.3843,-1.83105,-0.305176,1.09863,-0.72345,0.566589,-0.223511,0.324829,63305,5933,148,3602,-30179
137,46563,-3.85205,-8.8334,2.12939,-78.0139,23.335,-166.97,-1.09863,0.0610352,0.610352,-0.212799,-0.0861816,-0.630219,0.741608,1287,4189,60788,3978,-30224
138,46564,0.583789,-9.5416,2.7084,-75.0421,-2.54883,-46.3843,-1.70898,-0.0610352,1.28174,-0.72345,0.56662,-0.223511,0.324768,63305,5934,147,3602,-30179
143,46569,-3.85205,-8.81426,2.14375,-78.0139,23.335,-166.97,-1.09863,0,0.488281,-0.212799,-0.0862122,-0.630219,0.741608,1289,4189,60788,3978,-30224
144,46570,0.559863,-9.52246,2.78496,-75.0421,-2.54883,-46.3788,-1.09863,0.0610352,1.09863,-0.72345,0.56662,-0.223541,0.324738,63304,5936,150,3602,-30179
149,46575,-3.8377,-8.82861,2.12939,-78.0139,23.335,-166.97,-1.2207,-0.0610352,0.427246,-0.212799,-0.0862122,-0.630219,0.741608,1290,4187,60790,3978,-30224
150,46576,0.483301,-9.45547,2.78018,-75.0421,-2.54333,-46.3788,-0.793457,0.427246,1.0376,-0.72348,0.56662,-0.223541,0.324677,63303,5937,151,3602,-30179
155,46581,-3.83291,-8.8334,2.15332,-78.0139,23.335,-166.97,-1.0376,-0.12207,0.366211,-0.212799,-0.0862122,-0.630219,0.741608,1289,4186,60790,3978,-30224
156,46582,0.406738,-9.44111,2.77061,-75.0421,-2.54333,-46.3788,-1.0376,0.0610352,0.732422,-0.72348,0.56662,-0.223572,0.324677,63305,5938,151,3602,-30179
161,46587,-3.8042,-8.8334,2.15811,-78.0139,23.335,-166.97,-1.2207,-0.0610352,0.183105,-0.212799,-0.0862122,-0.630249,0.741608,1288,4185,60788,3978,-30224
162,46588,0.607715,-9.43154,2.87109,-75.0421,-2.54333,-46.3678,-1.28174,-0.244141,0.427246,-0.723511,0.56662,-0.223541,0.324615,63307,5939,154,3602,-30179
167,46593,-3.81377,-8.8334,2.17246,-78.0139,23.335,-166.965,-1.2207,-0.305176,0.366211,-0.212799,-0.0861816,-0.630249,0.741608,1287,4183,60782,3978,-30224
168,46594,0.540723,-9.36934,2.89502,-75.0421,-2.54333,-46.3678,-1.28174,0.183105,0.549316,-0.723511,0.56665,-0.223541,0.324615,63308,5938,157,3602,-30179
173,46599,-3.81377,-8.81426,2.18203,-78.0139,23.335,-166.965,-1.15967,-0.12207,0.244141,-0.21283,-0.0861816,-0.630249,0.741608,1286,4182,60779,3978,-30224
174,46600,0.459375,-9.35498,2.82803,-75.0476,-2.54333,-46.3678,-1.77002,0.12207,0.305176,-0.723511,0.56665,-0.223541,0.324585,63308,5939,162,3602,-30179
179,46605,-3.8042,-8.85254,2.14375,-78.0139,23.335,-166.965,-1.2207,0,0.305176,-0.212799,-0.0861816,-0.630249,0.741608,1284,4182,60773,3978,-30224
180,46606,0.492871,-9.40762,2.85195,-75.0531,-2.54333,-46.3623,-2.31934,-0.366211,0.305176,-0.72348,0.566681,-0.223541,0.324585,63308,5939,168,3602,-30179
185,46611,-3.79941,-8.84775,2.13896,-78.0139,23.335,-166.965,-1.40381,-0.0610352,0.366211,-0.21283,-0.0861816,-0.630249,0.741577,1283,4183,60772,3978,-30224
186,46612,0.569434,-9.39805,2.94287,-75.0641,-2.54333,-46.3568,-2.56348,-0.671387,0.305176,-0.72348,0.566742,-0.223511,0.324524,63307,5939,170,3602,-30179
191,46617,-3.79463,-8.81426,2.17246,-78.0139,23.335,-166.965,-1.09863,-0.0610352,0.427246,-0.21283,-0.0861816,-0.630249,0.741577,1283,4185,60774,3978,-30224
192,46618,0.641211,-9.55117,2.79453,-75.0806,-2.54333,-46.3513,-2.74658,0.610352,0.610352,-0.723419,0.566864,-0.223511,0.324432,63304,5943,173,3602,-30179
197,46623,-0.947461,-9.65645,1.72266,-81.5295,5.80078,-161.439,-1.34277,0.488281,0.549316,-0.154602,0.0673218,-0.64975,0.74115,64733,3929,61013,3978,-30224
198,46624,0.588574,-9.56553,2.77061,-75.0861,-2.53784,-46.3513,-2.31934,1.0376,0.732422,-0.723389,0.566895,-0.223541,0.324402,63304,5946,174,3602,-30179
203,46629,-0.937891,-9.6708,1.68916,-81.5295,5.80078,-161.439,-1.40381,0.183105,0.427246,-0.154602,0.0673218,-0.64975,0.74115,64733,3947,61015,3978,-30224
204,46630,0.535937,-9.56553,2.74189,-75.0916,-2.53784,-46.3513,-2.01416,0.976563,0.915527,-0.723358,0.566925,-0.223572,0.324402,63302,5948,175,3602,-30179
209,46635,-0.913965,-9.73779,1.68438,-81.535,5.80078,-161.439,-1.2207,0.183105,0.366211,-0.154572,0.0672913,-0.64975,0.741119,64732,3962,61015,3978,-30224
210,46636,0.583789,-9.60381,2.68926,-75.0916,-2.53235,-46.3568,-1.83105,1.0376,0.854492,-0.723328,0.566956,-0.223633,0.324371,63303,5950,174,3602,-30179
215,46641,-0.890039,-9.68516,1.71309,-81.5295,5.80078,-161.444,-0.854492,0.183105,0.305176,-0.154572,0.0672913,-0.64978,0.741119,64730,3936,61017,3978,-30224
216,46642,0.607715,-9.65645,2.71797,-75.0916,-2.53235,-46.3568,-1.28174,1.52588,0.671387,-0.723328,0.566956,-0.223663,0.324371,63304,5951,173,3602,-30179
221,46647,-0.90918,-9.66602,1.72266,-81.5295,5.80078,-161.444,-0.671387,0.12207,0.183105,-0.154541,0.0672607,-0.64975,0.74115,64729,3913,61018,3978,-30224
222,46648,0.521582,-9.65166,2.66533,-75.0861,-2.52136,-46.3733,0.0610352,1.95313,0.671387,-0.723328,0.566925,-0.223755,0.324402,63306,5950,170,3602,-30179
227,46653,-0.894824,-9.58945,1.76094,-81.5295,5.80078,-161.45,-1.09863,0.305176,0.183105,-0.154541,0.0672607,-0.64975,0.74115,64725,3877,61021,3978,-30224
228,46654,0.512012,-9.57031,2.73232,-75.0806,-2.52136,-46.3788,0.488281,2.0752,0.732422,-0.723328,0.566864,-0.223785,0.324432,63305,5948,169,3602,-30179
233,46659,-0.880469,-9.64209,1.75615,-81.5295,5.80078,-161.45,-1.15967,0.0610352,0.244141,-0.15451,0.0672607,-0.64975,0.74115,64725,3861,61023,3978,-30224
234,46660,0.521582,-9.52725,2.77061,-75.0696,-2.51587,-46.3898,0.793457,2.31934,0.427246,-0.723358,0.566803,-0.223846,0.324493,63305,5948,169,3602,-30179
239,46665,-0.856543,-9.63252,1.75137,-81.5295,5.80078,-161.45,-1.09863,0.12207,0.244141,-0.15451,0.0672302,-0.64975,0.74115,64726,3843,61020,3978,-30224
240,46666,0.521582,-9.46504,2.82324,-75.0586,-2.51587,-46.4008,0.671387,2.44141,0.427246,-0.723389,0.566711,-0.223877,0.324554,63304,5948,170,3602,-30179
245,46671,-0.880469,-9.61338,1.71787,-81.5295,5.80078,-161.455,-1.2207,0.305176,0.305176,-0.15448,0.0672302,-0.64975,0.74115,64727,3870,61020,3978,-30224
246,46672,0.483301,-9.46982,2.81367,-75.0531,-2.51038,-46.4063,0.488281,2.13623,0.244141,-0.723389,0.56662,-0.223907,0.324615,63304,5948,170,3602,-30179
251,46677,-0.885254,-9.61816,1.77051,-81.5295,5.80078,-161.455,-1.15967,0.12207,0.366211,-0.154449,0.0671997,-0.64978,0.74115,64728,3892,61021,3978,-30224
252,46678,0.44502,-9.46025,2.81367,-75.0421,-2.51038,-46.4227,0.0610352,1.83105,0,-0.723419,0.566498,-0.223969,0.324738,63302,5945,172,3602,-30179
257,46683,-0.875684,-9.61816,1.7418,-81.535,5.80078,-161.461,-1.28174,0.366211,0.610352,-0.154449,0.0671997,-0.64978,0.74115,64729,3933,61023,3978,-30224
258,46684,0.44502,-9.39326,2.85674,-75.0366,-2.51038,-46.4282,-0.12207,1.28174,-0.183105,-0.723419,0.566467,-0.223999,0.324799,63299,5945,172,3602,-30179
263,46689,-0.875684,-9.64688,1.72744,-81.535,5.80078,-161.461,-1.2207,0.305176,0.732422,-0.154419,0.0671692,-0.64978,0.74115,64730,3908,61025,3978,-30224
264,46690,0.521582,-9.34541,2.87588,-75.0366,-2.51038,-46.4337,-0.610352,0.915527,-0.183105,-0.723419,0.566406,-0.22403,0.324829,63296,5943,173,3602,-30179
269,46695,-0.899609,-9.62773,1.73701,-81.535,5.80627,-161.466,-1.0376,0.305176,0.610352,-0.154419,0.0671387,-0.64978,0.74115,64731,3886,61024,3978,-30224
270,46696,0.574219,-9.35498,2.88545,-75.0366,-2.51587,-46.4337,-0.915527,0.610352,-0.244141,-0.723419,0.566406,-0.22403,0.32486,63295,5942,170,3602,-30179
275,46701,-0.894824,-9.63731,1.71309,-81.535,5.80627,-161.466,-0.976563,0.366211,0.854492,-0.154419,0.0671387,-0.64978,0.74115,64731,3867,61022,3978,-30224
276,46702,0.555078,-9.37891,2.87109,-75.0366,-2.51587,-46.4392,-1.34277,0.854492,-0.244141,-0.723419,0.566406,-0.22403,0.32489,63295,5943,167,3602,-30179
281,46707,-0.894824,-9.64688,1.73701,-81.535,5.80627,-161.472,-0.976563,0.366211,0.610352,-0.154388,0.0670776,-0.649811,0.74115,64730,3850,61021,3978,-30224
282,46708,0.531152,-9.40762,2.86631,-75.0421,-2.52136,-46.4447,-1.70898,0.671387,-0.0610352,-0.723389,0.566406,-0.22403,0.324951,63294,5943,161,3602,-30179
287,46713,-0.913965,-9.6708,1.75137,-81.535,5.81177,-161.477,-1.09863,0.183105,0.549316,-0.154388,0.0670471,-0.649811,0.74115,64726,3819,61021,3978,-30224
288,46714,0.526367,-9.42676,2.8041,-75.0476,-2.52136,-46.4447,-1.77002,0.366211,0,-0.723358,0.566437,-0.22403,0.324951,63294,5944,160,3602,-30179
293,46719,-0.937891,-9.65166,1.73223,-81.535,5.81177,-161.477,-1.2207,0.305176,0.671387,-0.154388,0.0670166,-0.649811,0.74115,64723,3847,61022,3978,-30224
294,46720,0.574219,-9.43154,2.82803,-75.0476,-2.52136,-46.4447,-1.64795,0.366211,0.0610352,-0.723328,0.566467,-0.22406,0.324951,63294,5946,160,3602,-30179
299,46725,-0.937891,-9.65166,1.70352,-81.535,5.81177,-161.477,-1.09863,0.0610352,0.610352,-0.154388,0.0669861,-0.649811,0.74115,64721,3871,61025,3978,-30224
300,46726,0.574219,-9.44111,2.85195,-75.0531,-2.52136,-46.4447,-1.46484,0.610352,0.12207,-0.723297,0.566498,-0.22406,0.324951,63295,5946,162,3602,-30179
305,46731,-0.913965,-9.65166,1.77051,-81.535,5.81726,-161.483,-0.915527,0.0610352,0.549316,-0.154388,0.0669861,-0.649811,0.74115,64720,3892,61028,3978,-30224
306,46732,0.239258,-4.75166,1.37813,-75.0531,-2.52136,-46.4502,-1.28174,1.0376,0.12207,-0.723297,0.566498,-0.22406,0.324982,63297,5946,163,3602,-30179
311,46737,-0.904395,-9.63252,1.73223,-81.535,5.81726,-161.483,-0.976563,0.244141,0.427246,-0.154388,0.0669556,-0.649811,0.74115,64720,3911,61028,3978,-30224
312,46738,0.47373,-9.52246,2.70361,-75.0531,-2.52686,-46.4502,-1.28174,0.12207,-0.427246,-0.723267,0.566498,-0.224091,0.325012,63301,5947,161,3602,-30179
317,46743,-0.923535,-9.66123,1.73701,-81.535,5.81726,-161.483,-1.15967,-0.12207,0.244141,-0.154388,0.0669556,-0.649811,0.74115,64724,3945,61027,3978,-30224
318,46744,0.583789,-9.49375,2.75625,-75.0531,-2.53235,-46.4502,-0.915527,0.0610352,-0.488281,-0.723236,0.566528,-0.22406,0.325012,63303,5946,157,3602,-30179
323,46749,-0.861328,-9.63731,1.75615,-81.535,5.81177,-161.483,-1.15967,0,0.244141,-0.154388,0.0669861,-0.649811,0.74115,64727,3920,61025,3978,-30224
324,46750,0.717773,-9.4124,2.84717,-75.0531,-2.53784,-46.4557,-0.610352,0.427246,-0.427246,-0.723236,0.566528,-0.22406,0.325043,63303,5945,152,3602,-30179
329,46755,-0.904395,-9.61338,1.76094,-81.535,5.81177,-161.483,-1.40381,0.12207,0.305176,-0.154358,0.0669861,-0.649811,0.74115,64727,3897,61025,3978,-30224
330,46756,0.712988,-9.38848,2.90937,-75.0476,-2.53784,-46.4612,-0.0610352,1.40381,-0.0610352,-0.723236,0.566528,-0.22403,0.325073,63305,5944,150,3602,-30179
335,46761,-0.90918,-9.62295,1.73701,-81.535,5.81177,-161.483,-1.34277,-0.12207,0.12207,-0.154358,0.0669556,-0.649841,0.74115,64726,3876,61023,3978,-30224
336,46762,0.535937,-9.39805,2.86152,-75.0476,-2.53235,-46.4667,-0.305176,1.52588,0.305176,-0.723236,0.566498,-0.22403,0.325134,63305,5943,149,3602,-30179
341,46767,-0.880469,-9.66123,1.70352,-81.5405,5.81177,-161.483,-1.52588,-0.0610352,0.12207,-0.154327,0.0669861,-0.649841,0.741119,64725,3899,61025,3978,-30224
342,46768,0.564648,-9.4459,2.77539,-75.0366,-2.53235,-46.4777,0,1.34277,0.305176,-0.723236,0.566406,-0.224091,0.325195,63304,5946,151,3602,-30179
347,46773,-0.870898,-9.64209,1.77529,-81.5405,5.81177,-161.483,-1.09863,-0.0610352,0.305176,-0.154327,0.0669861,-0.649872,0.741119,64723,3896,61026,3978,-30224
348,46774,0.545508,-9.48418,2.78496,-75.0311,-2.53235,-46.4832,0.244141,1.28174,0.305176,-0.723267,0.566376,-0.224091,0.325226,63305,5949,154,3602,-30179
353,46779,-0.875684,-9.61816,1.76094,-81.5405,5.81177,-161.488,-1.28174,-0.12207,0.366211,-0.154327,0.0669861,-0.649872,0.741119,64723,3876,61026,3978,-30224
354,46780,0.559863,-9.44111,2.83281,-75.0201,-2.53235,-46.4832,0.427246,1.0376,0.427246,-0.723297,0.566315,-0.224121,0.325256,63306,5952,155,3602,-30179
359,46785,-0.885254,-9.66602,1.71787,-81.5405,5.81177,-161.488,-1.15967,-0.0610352,0.366211,-0.154327,0.0669861,-0.649872,0.741119,64725,3859,61028,3978,-30224
360,46786,0.574219,-9.46982,2.84238,-75.0146,-2.52686,-46.4886,0.488281,1.0376,0.549316,-0.723328,0.566254,-0.224121,0.325287,63307,5953,157,3602,-30179
365,46791,-0.894824,-9.64209,1.72266,-81.5405,5.81177,-161.488,-1.15967,0,0.427246,-0.154327,0.0669861,-0.649872,0.741119,64725,3844,61030,3978,-30224
366,46792,0.579004,-9.42197,2.82803,-75.0092,-2.52686,-46.4886,0.610352,1.2207,0.549316,-0.723358,0.566193,-0.224121,0.325317,63308,5954,160,3602,-30179
371,46797,-0.870898,-9.63731,1.7418,-81.5405,5.81177,-161.488,-0.915527,0,0.427246,-0.154297,0.0669556,-0.649872,0.741119,64725,3830,61030,3978,-30224
372,46798,0.516797,-9.45068,2.80889,-74.9927,-2.52136,-46.4941,0.610352,0.976563,0.915527,-0.723419,0.566071,-0.224152,0.325378,63305,5954,158,3602,-30179
377,46803,-0.875684,-9.61816,1.73701,-81.5405,5.81177,-161.488,-1.2207,0.0610352,0.671387,-0.154297,0.0669556,-0.649872,0.741119,64728,3806,61027,3978,-30224
378,46804,0.569434,-9.47939,2.83281,-74.9817,-2.51587,-46.4941,0.488281,1.09863,0.793457,-0.72348,0.56601,-0.224152,0.325378,63304,5954,154,3602,-30179
383,46809,-0.894824,-9.65645,1.7418,-81.5405,5.81726,-161.494,-1.15967,0.12207,0.732422,-0.154297,0.066925,-0.649872,0.741119,64730,3795,61027,3978,-30224
384,46810,0.531152,-9.46982,2.79932,-74.9762,-2.51038,-46.4996,0.671387,0.976563,0.976563,-0.723511,0.565948,-0.224152,0.325378,63303,5954,151,3602,-30179
389,46815,-0.885254,-9.65166,1.73223,-81.5405,5.81726,-161.494,-0.915527,0.12207,0.549316,-0.154297,0.066925,-0.649872,0.741119,64731,3785,61025,3978,-30224
390,46816,0.574219,-9.4459,2.8376,-74.9652,-2.51038,-46.4996,0.732422,1.0376,0.915527,-0.723541,0.565887,-0.224182,0.325409,63304,5955,147,3602,-30179
395,46821,-0.913965,-9.62295,1.73701,-81.5405,5.81726,-161.499,-0.976563,0.183105,0.793457,-0.154297,0.0668945,-0.649872,0.741119,64733,3817,61026,3978,-30224
396,46822,0.583789,-9.43154,2.8376,-74.9597,-2.50488,-46.5051,0.732422,1.46484,0.671387,-0.723602,0.565826,-0.224182,0.325409,63303,5955,142,3602,-30179
401,46827,-0.899609,-9.61816,1.76094,-81.5405,5.82275,-161.499,-1.09863,0.12207,0.671387,-0.154297,0.0668335,-0.649872,0.741119,64732,3805,61027,3978,-30224
402,46828,0.531152,-9.4124,2.81367,-74.9432,-2.4939,-46.5161,0.610352,1.83105,1.09863,-0.723663,0.565674,-0.224243,0.32547,63304,5955,135,3602,-30179
407,46833,-0.904395,-9.66602,1.71787,-81.5405,5.82275,-161.505,-1.09863,0.0610352,0.793457,-0.154266,0.0668335,-0.649872,0.741119,64724,3784,61027,3978,-30224
408,46834,0.516797,-9.4124,2.82803,-74.9323,-2.4884,-46.5271,0.549316,1.77002,1.0376,-0.723694,0.565582,-0.224274,0.3255,63304,5954,133,3602,-30179
413,46839,-0.91875,-9.62773,1.73701,-81.546,5.82825,-161.505,-1.28174,0.12207,0.732422,-0.154297,0.066803,-0.649872,0.741119,64721,3774,61025,3978,-30224
414,46840,0.502441,-9.44111,2.86631,-74.9268,-2.4884,-46.5326,0.305176,1.95313,0.671387,-0.723724,0.565521,-0.224335,0.325531,63305,5953,133,3602,-30179
419,46845,-0.942676,-9.62773,1.76572,-81.546,5.82825,-161.505,-1.2207,0,0.549316,-0.154297,0.0667725,-0.649902,0.741119,64718,3766,61024,3978,-30224
420,46846,0.488086,-9.45068,2.81846,-74.9213,-2.48291,-46.5381,0.244141,1.95313,0.549316,-0.723755,0.56546,-0.224365,0.325592,63305,5951,136,3602,-30179
425,46851,-0.942676,-9.61816,1.7418,-81.546,5.82825,-161.505,-1.46484,0,0.549316,-0.154266,0.0667725,-0.649902,0.741119,64717,3800,61024,3978,-30224
426,46852,0.468945,-9.47939,2.81367,-74.9158,-2.48291,-46.5436,0.244141,1.64795,0.488281,-0.723755,0.565399,-0.224396,0.325623,63306,5949,136,3602,-30179
431,46857,-0.937891,-9.68516,1.71787,-81.546,5.82825,-161.505,-1.46484,-0.183105,0.305176,-0.154266,0.0667725,-0.649933,0.741089,64717,3830,61022,3978,-30224
432,46858,0.468945,-9.45068,2.79453,-74.8993,-2.48291,-46.5601,0.427246,1.40381,-0.0610352,-0.723785,0.565277,-0.224457,0.325714,63306,5946,135,3602,-30179
437,46863,-0.92832,-9.65645,1.71787,-81.5515,5.82275,-161.505,-1.2207,0,-0.0610352,-0.154266,0.0667725,-0.649933,0.741089,64717,3882,61022,3978,-30224
438,46864,0.406738,-9.44111,2.84238,-74.8938,-2.48291,-46.5656,0.244141,1.2207,-0.12207,-0.723816,0.565216,-0.224457,0.325775,63305,5943,131,3602,-30179
443,46869,-0.947461,-9.64209,1.71309,-81.5515,5.82275,-161.505,-1.28174,-0.427246,-0.244141,-0.154266,0.066803,-0.649933,0.741089,64716,3905,61023,3978,-30224
444,46870,0.401953,-9.40762,2.85674,-74.8938,-2.48291,-46.5656,-0.244141,0.427246,-0.610352,-0.723816,0.565186,-0.224457,0.325806,63303,5943,127,3602,-30179
449,46875,-0.92832,-9.67559,1.7083,-81.5515,5.81726,-161.505,-1.52588,-0.305176,-0.12207,-0.154266,0.0668335,-0.649933,0.741089,64715,3925,61025,3978,-30224
450,46876,0.540723,-9.46982,2.85674,-74.8883,-2.4884,-46.571,-0.549316,0.183105,-0.610352,-0.723816,0.565155,-0.224457,0.325867,63302,5943,122,3602,-30179
455,46881,-0.894824,-9.67559,1.69873,-81.5515,5.81726,-161.499,-1.15967,-0.305176,-0.0610352,-0.154236,0.0668335,-0.649933,0.741089,64715,3902,61025,3978,-30224
456,46882,0.569434,-9.51289,2.85674,-74.8883,-2.4939,-46.571,-0.549316,0.366211,-0.793457,-0.723816,0.565155,-0.224426,0.325897,63301,5943,117,3602,-30179
461,46887,-0.842188,-9.66123,1.75615,-81.5515,5.81726,-161.499,-0.793457,-0.366211,-0.0610352,-0.154236,0.0668945,-0.649933,0.741089,64713,3881,61029,3978,-30224
462,46888,0.555078,-9.4124,2.85674,-74.8828,-2.50488,-46.5765,-0.366211,0.427246,-0.549316,-0.723816,0.565125,-0.224365,0.325989,63303,5942,114,3602,-30179
467,46893,-0.861328,-9.61338,1.77051,-81.5515,5.81177,-161.499,-1.40381,-0.12207,-0.0610352,-0.154236,0.0668945,-0.649933,0.741089,64711,3849,61036,3978,-30224
468,46894,0.574219,-9.42676,2.85195,-74.8773,-2.50488,-46.582,-0.549316,0.427246,-0.610352,-0.723816,0.565094,-0.224365,0.32605,63305,5940,117,3602,-30179
473,46899,-0.899609,-9.63731,1.72744,-81.557,5.80627,-161.499,-1.34277,-0.12207,-0.12207,-0.154205,0.066925,-0.649933,0.741089,64710,3834,61038,3978,-30224
474,46900,0.588574,-9.42197,2.84238,-74.8773,-2.51038,-46.582,-0.610352,0.427246,-0.427246,-0.723785,0.565094,-0.224335,0.32608,63309,5940,122,3602,-30179
479,46905,-0.870898,-9.66602,1.72744,-81.557,5.80627,-161.499,-1.15967,-0.12207,0,-0.154205,0.066925,-0.649963,0.741089,64709,3821,61038,3978,-30224
480,46906,0.607715,-9.43154,2.87109,-74.8773,-2.51587,-46.5875,-0.671387,0.793457,-0.610352,-0.723785,0.565094,-0.224335,0.326111,63311,5939,123,3602,-30179
485,46911,-0.870898,-9.66602,1.76094,-81.5515,5.80627,-161.499,-0.915527,-0.366211,0.0610352,-0.154205,0.0669556,-0.649963,0.741089,64708,3809,61038,3978,-30224
486,46912,0.617285,-9.41719,2.86631,-74.8718,-2.51587,-46.593,-0.549316,0.915527,-0.427246,-0.723785,0.565094,-0.224304,0.326172,63314,5937,124,3602,-30179
491,46917,-0.866113,-9.57031,1.78486,-81.5515,5.80627,-161.499,-0.854492,0,0.244141,-0.154205,0.0669556,-0.649933,0.741089,64707,3798,61038,3978,-30224
492,46918,0.569434,-9.43154,2.85195,-74.8663,-2.52136,-46.604,-0.610352,1.40381,-0.12207,-0.723755,0.565063,-0.224335,0.326233,63317,5936,121,3602,-30179
497,46923,-0.890039,-9.6708,1.73701,-81.557,5.80627,-161.499,-1.2207,-0.183105,0.427246,-0.154175,0.0669861,-0.649933,0.741089,64708,3780,61040,3978,-30224
498,46924,0.569434,-9.45547,2.80889,-74.8663,-2.51587,-46.6095,-0.549316,1.40381,0.12207,-0.723755,0.565033,-0.224335,0.326294,63320,5934,115,3602,-30179
503,46929,-0.851758,-9.66602,1.76094,-81.5515,5.80627,-161.499,-0.915527,0.12207,0.610352,-0.154205,0.0669861,-0.649963,0.741089,64711,3771,61040,3978,-30224
504,46930,0.583789,-9.46982,2.82324,-74.8608,-2.51587,-46.615,-0.305176,1.52588,0.0610352,-0.723755,0.565002,-0.224365,0.326324,63321,5935,112,3602,-30179
509,46935,-0.866113,-9.64209,1.74658,-81.5515,5.80627,-161.499,-1.0376,0.244141,0.610352,-0.154205,0.0669556,-0.649933,0.741089,64714,3764,61041,3978,-30224
510,46936,0.626855,-9.45068,2.83281,-74.8608,-2.51587,-46.6205,-0.12207,1.83105,0.366211,-0.723755,0.564972,-0.224396,0.326385,63322,5935,111,3602,-30179
515,46941,-0.904395,-9.60381,1.76572,-81.5515,5.80627,-161.505,-1.0376,0,0.732422,-0.154175,0.066925,-0.649933,0.741089,64717,3757,61042,3978,-30224
516,46942,0.526367,-9.4459,2.87109,-74.8553,-2.51587,-46.6315,-0.0610352,2.56348,0.244141,-0.723755,0.564911,-0.224426,0.326416,63323,5935,110,3602,-30179
521,46947,-0.875684,-9.63731,1.72744,-81.5515,5.81177,-161.505,-1.09863,0,0.793457,-0.154205,0.0668945,-0.649963,0.741089,64719,3750,61043,3978,-30224
522,46948,0.459375,-9.50332,2.77539,-74.8444,-2.51038,-46.6479,0.183105,1.77002,-0.183105,-0.723755,0.564819,-0.224518,0.326538,63324,5936,112,3602,-30179
527,46953,-0.923535,-9.63731,1.72266,-81.5515,5.81177,-161.505,-0.915527,0,0.671387,-0.154205,0.0668945,-0.649963,0.741089,64722,3740,61045,3978,-30224
528,46954,0.512012,-9.4459,2.84717,-74.8334,-2.51587,-46.6589,0.183105,1.89209,-0.427246,-0.723785,0.564758,-0.224518,0.326599,63322,5937,121,3602,-30179
533,46959,-0.933105,-9.64688,1.7083,-81.5515,5.81726,-161.505,-1.09863,0.0610352,0.671387,-0.154205,0.066864,-0.649963,0.741089,64724,3736,61044,3978,-30224
534,46960,0.478516,-9.44111,2.85195,-74.8279,-2.51587,-46.6644,0.244141,2.01416,-0.488281,-0.723785,0.564697,-0.224548,0.326691,63320,5939,126,3602,-30179
539,46965,-0.904395,-9.6708,1.76094,-81.5515,5.81726,-161.51,-1.0376,0,0.488281,-0.154205,0.0668335,-0.649963,0.741089,64724,3732,61043,3978,-30224
540,46966,0.47373,-9.42676,2.81846,-74.8224,-2.51587,-46.6754,0.183105,1.77002,-0.488281,-0.723785,0.564667,-0.224548,0.326752,63319,5940,126,3602,-30179
545,46971,-0.91875,-9.6708,1.72266,-81.5515,5.81726,-161.51,-0.915527,0,0.427246,-0.154205,0.0668335,-0.649963,0.741089,64724,3729,61041,3978,-30224
546,46972,0.507227,-9.46025,2.83281,-74.8169,-2.52136,-46.6809,-0.12207,1.58691,-0.671387,-0.723785,0.564606,-0.224579,0.326813,63318,5944,126,3602,-30179
551,46977,-0.937891,-9.63731,1.7083,-81.5515,5.81726,-161.51,-1.09863,-0.12207,0.488281,-0.154175,0.066803,-0.649963,0.741089,64723,3727,61041,3978,-30224
552,46978,0.47373,-9.47461,2.81367,-74.8059,-2.52686,-46.6919,0.549316,1.40381,-0.793457,-0.723785,0.564545,-0.224548,0.326965,63316,5946,127,3602,-30179
557,46983,-0.91875,-9.64688,1.77051,-81.5515,5.81726,-161.51,-0.976563,-0.183105,0.244141,-0.154175,0.066803,-0.649933,0.741089,64721,3722,61040,3978,-30224
558,46984,0.483301,-9.46025,2.80889,-74.8004,-2.53235,-46.7029,0.366211,1.40381,-0.915527,-0.723785,0.564484,-0.224548,0.327026,63313,5945,123,3602,-30179
563,46989,-0.92832,-9.64688,1.7418,-81.5515,5.81726,-161.516,-1.0376,-0.0610352,0.183105,-0.154175,0.066803,-0.649933,0.741089,64721,3720,61038,3978,-30224
564,46990,0.416309,-9.43154,2.85674,-74.7949,-2.53784,-46.7084,0.12207,1.0376,-1.34277,-0.723785,0.564453,-0.224548,0.327118,63312,5942,121,3602,-30179
569,46995,-0.913965,-9.65645,1.73701,-81.5515,5.81726,-161.516,-1.15967,-0.244141,0.183105,-0.154175,0.066803,-0.649933,0.741089,64720,3717,61036,3978,-30224
570,46996,0.535937,-9.39326,2.8998,-74.7894,-2.54883,-46.7084,-0.12207,0.427246,-1.28174,-0.723785,0.564423,-0.224518,0.327209,63312,5939,117,3602,-30179
575,47001,-0.90918,-9.64209,1.73701,-81.5515,5.81177,-161.516,-0.915527,-0.183105,0.0610352,-0.154144,0.066803,-0.649933,0.741089,64721,3714,61033,3978,-30224
576,47002,0.617285,-9.39805,2.91416,-74.7894,-2.55432,-46.7139,-0.305176,0.488281,-1.15967,-0.723785,0.564392,-0.224457,0.327271,63313,5935,116,3602,-30179
581,47007,-0.904395,-9.64688,1.73223,-81.5515,5.81177,-161.516,-0.915527,-0.366211,-0.12207,-0.154144,0.0668335,-0.649933,0.741119,64722,3753,61031,3978,-30224
582,47008,0.617285,-9.37412,2.92852,-74.7784,-2.55981,-46.7194,-0.244141,0.671387,-0.610352,-0.723755,0.564392,-0.224396,0.327362,63314,5933,116,3602,-30179
587,47013,-0.846973,-9.63252,1.76572,-81.546,5.80627,-161.516,-0.915527,-0.12207,0.0610352,-0.154114,0.0668335,-0.649933,0.741119,64724,3819,61028,3978,-30224
588,47014,0.598145,-9.38848,2.90937,-74.7784,-2.56531,-46.7194,-0.366211,0.549316,-0.671387,-0.723755,0.564362,-0.224396,0.327423,63314,5932,114,3602,-30179
593,47019,-0.90918,-9.60859,1.74658,-81.546,5.80627,-161.516,-0.976563,0.12207,0.183105,-0.154114,0.066864,-0.649902,0.74115,64726,3847,61026,3978,-30224
594,47020,0.564648,-9.40283,2.87588,-74.7729,-2.5708,-46.7249,-0.549316,0.671387,-0.610352,-0.723755,0.564362,-0.224365,0.327454,63315,5933,111,3602,-30179
599,47025,-0.894824,-9.61816,1.74658,-81.546,5.80627,-161.516,-1.15967,-0.183105,0.183105,-0.154114,0.0668335,-0.649902,0.74115,64726,3872,61026,3978,-30224
600,47026,0.579004,-9.42197,2.89023,-74.7729,-2.5708,-46.7249,-0.671387,0.610352,-0.12207,-0.723755,0.564331,-0.224335,0.327484,63316,5934,107,3602,-30179
605,47031,-0.890039,-9.64209,1.73223,-81.546,5.80627,-161.516,-1.09863,-0.244141,0.12207,-0.154083,0.066864,-0.649902,0.74115,64726,3895,61024,3978,-30224
606,47032,0.593359,-9.43154,2.91416,-74.7729,-2.5708,-46.7303,-0.610352,0.732422,-0.0610352,-0.723755,0.564331,-0.224335,0.327515,63317,5934,0,3602,-30179
611,47037,-0.866113,-9.64688,1.7418,-81.546,5.80627,-161.516,-0.915527,0,0.12207,-0.154083,0.066864,-0.649902,0.74115,64726,3915,61023,3978,-30224
612,47038,0.60293,-9.42676,2.87109,-74.7675,-2.5708,-46.7358,-0.549316,1.09863,0.183105,-0.723755,0.564301,-0.224335,0.327576,63317,5936,102,3602,-30179
617,47043,-0.866113,-9.61338,1.75137,-81.546,5.80627,-161.516,-0.976563,-0.0610352,0.488281,-0.154083,0.066864,-0.649902,0.74115,64726,3951,61014,3978,-30224
618,47044,0.598145,-9.41719,2.86152,-74.762,-2.5708,-46.7358,-0.549316,0.854492,0.427246,-0.723755,0.56427,-0.224365,0.327606,63318,5938,100,3602,-30179
623,47049,-0.894824,-9.61338,1.75615,-81.546,5.80627,-161.516,-0.915527,-0.12207,0.366211,-0.154083,0.066864,-0.649902,0.74115,64727,3925,61008,3978,-30224
624,47050,0.583789,-9.40283,2.88066,-74.762,-2.5708,-46.7413,-0.488281,1.0376,0.305176,-0.723755,0.56424,-0.224365,0.327606,63317,5939,102,3602,-30179
629,47055,-0.894824,-9.66123,1.73223,-81.5405,5.80627,-161.516,-0.793457,0,0.610352,-0.154083,0.066864,-0.649902,0.74115,64726,3903,61008,3978,-30224
630,47056,0.550293,-9.39326,2.84717,-74.762,-2.5708,-46.7413,-0.610352,1.2207,0.427246,-0.723785,0.56424,-0.224365,0.327606,63317,5939,101,3602,-30179
635,47061,-0.899609,-9.60859,1.75615,-81.5405,5.80627,-161.516,-0.854492,0,0.488281,-0.154083,0.0668335,-0.649872,0.74118,64726,3884,61012,3978,-30224
636,47062,0.488086,-9.42676,2.87588,-74.7565,-2.56531,-46.7468,-0.549316,1.15967,0.427246,-0.723785,0.564209,-0.224396,0.327637,63317,5941,99,3602,-30179
641,47067,-0.890039,-9.63731,1.78008,-81.5405,5.80627,-161.521,-0.854492,0.0610352,0.671387,-0.154083,0.066803,-0.649872,0.74118,64726,3866,61016,3978,-30224
642,47068,0.46416,-9.47939,2.80889,-74.751,-2.5708,-46.7523,-0.488281,0.610352,-0.0610352,-0.723785,0.564148,-0.224426,0.327667,63316,5942,99,3602,-30179
647,47073,-0.894824,-9.61816,1.7418,-81.5405,5.81177,-161.521,-0.915527,0,0.732422,-0.154083,0.066803,-0.649872,0.74118,64728,3834,61020,3978,-30224
648,47074,0.459375,-9.49375,2.79453,-74.751,-2.5708,-46.7523,-0.427246,0.488281,-0.244141,-0.723785,0.564148,-0.224426,0.327698,63317,5943,94,3602,-30179
653,47079,-0.90918,-9.65166,1.72266,-81.5405,5.81177,-161.521,-1.0376,0.12207,0.427246,-0.154083,0.0667725,-0.649872,0.74118,64729,3819,61021,3978,-30224
654,47080,0.478516,-9.47939,2.83281,-74.7455,-2.57629,-46.7578,-0.305176,0.488281,-0.549316,-0.723785,0.564117,-0.224396,0.327728,63318,5942,93,3602,-30179
659,47085,-0.91875,-9.66602,1.71787,-81.535,5.81177,-161.526,-0.915527,0.0610352,0.610352,-0.154083,0.0667725,-0.649872,0.741211,64728,3807,61021,3978,-30224
660,47086,0.478516,-9.46504,2.82803,-74.7455,-2.58179,-46.7578,-0.12207,0.366211,-0.854492,-0.723785,0.564117,-0.224396,0.327759,63319,5942,92,3602,-30179
665,47091,-0.904395,-9.64688,1.72266,-81.535,5.81177,-161.526,-0.854492,-0.12207,0.488281,-0.154083,0.0667419,-0.649872,0.741211,64727,3797,61025,3978,-30224
666,47092,0.46416,-9.47939,2.82324,-74.74,-2.58728,-46.7578,-0.12207,0.0610352,-1.09863,-0.723785,0.564087,-0.224365,0.32782,63320,5942,93,3602,-30179
671,47097,-0.899609,-9.65166,1.76094,-81.535,5.81177,-161.526,-0.915527,0.0610352,0.488281,-0.154083,0.0667419,-0.649841,0.741211,64725,3786,61027,3978,-30224
672,47098,0.550293,-9.47939,2.84717,-74.7345,-2.60376,-46.7578,-0.305176,-0.244141,-1.40381,-0.723785,0.564087,-0.224243,0.327911,63322,5942,97,3602,-30179
677,47103,-0.933105,-9.65166,1.73223,-81.535,5.81177,-161.526,-1.2207,-0.0610352,0.305176,-0.154053,0.0667114,-0.649841,0.741211,64724,3844,61026,3978,-30224
678,47104,0.62207,-9.46982,2.8998,-74.729,-2.60925,-46.7578,0,-0.244141,-1.09863,-0.723785,0.564087,-0.224182,0.327942,63325,5941,109,3602,-30179
683,47109,-0.890039,-9.68037,1.73223,-81.535,5.81177,-161.526,-1.2207,-0.305176,0.0610352,-0.154053,0.0667114,-0.649841,0.741211,64722,3868,61026,3978,-30224
684,47110,0.636426,-9.40283,2.94766,-74.7235,-2.61475,-46.7578,0.12207,0.305176,-0.915527,-0.723785,0.564087,-0.224121,0.328003,63323,5941,109,3602,-30179
689,47115,-0.870898,-9.65645,1.73701,-81.535,5.81177,-161.526,-0.976563,0,0.12207,-0.154053,0.0667419,-0.649841,0.741211,64722,3892,61025,3978,-30224
690,47116,0.593359,-9.37412,2.9333,-74.718,-2.62024,-46.7633,-0.0610352,0.488281,-1.0376,-0.723816,0.564056,-0.22406,0.328033,63321,5941,106,3602,-30179
695,47121,-0.894824,-9.62295,1.76094,-81.535,5.81177,-161.526,-0.915527,0,0.12207,-0.154053,0.0667419,-0.649841,0.741211,64722,3913,61022,3978,-30224
696,47122,0.579004,-9.42197,2.88545,-74.7125,-2.62573,-46.7633,-0.244141,0.488281,-0.854492,-0.723816,0.564056,-0.22403,0.328094,63319,5941,103,3602,-30179
701,47127,-0.870898,-9.60859,1.75615,-81.535,5.81177,-161.526,-1.15967,0,0.244141,-0.154022,0.0667419,-0.649841,0.741211,64721,3890,61021,3978,-30224
702,47128,0.62207,-9.38848,2.90459,-74.707,-2.63672,-46.7633,-0.12207,0.549316,-0.610352,-0.723816,0.564026,-0.223969,0.328156,63317,5941,99,3602,-30179
707,47133,-0.894824,-9.66123,1.74658,-81.535,5.80627,-161.532,-1.2207,0,0,-0.154022,0.0667419,-0.649872,0.741211,64721,3929,61023,3978,-30224
708,47134,0.6125,-9.38848,2.90459,-74.7015,-2.63672,-46.7688,-0.0610352,0.549316,-0.12207,-0.723846,0.563995,-0.223938,0.328217,63316,5939,94,3602,-30179
713,47139,-0.875684,-9.66123,1.73223,-81.535,5.80627,-161.532,-1.0376,0,0.12207,-0.154022,0.0667419,-0.649872,0.741211,64722,3946,61026,3978,-30224
714,47140,0.636426,-9.38369,2.90937,-74.696,-2.63672,-46.7688,-0.0610352,0.732422,-0.12207,-0.723846,0.563965,-0.223907,0.328217,63317,5937,88,3602,-30179
719,47145,-0.880469,-9.62295,1.76094,-81.535,5.80627,-161.532,-0.915527,0.12207,0.427246,-0.153992,0.0667725,-0.649872,0.741211,64723,3962,61031,3978,-30224
720,47146,0.665137,-9.39805,2.92852,-74.6906,-2.63672,-46.7743,-0.12207,1.09863,0.12207,-0.723846,0.563934,-0.223907,0.328247,63319,5936,83,3602,-30179
725,47151,-0.885254,-9.61816,1.76094,-81.535,5.80627,-161.532,-1.15967,0,0.305176,-0.153992,0.0667419,-0.649841,0.741211,64724,3976,61033,3978,-30224
726,47152,0.617285,-9.40762,2.90937,-74.6851,-2.63672,-46.7743,0,1.28174,0.427246,-0.723877,0.563904,-0.223907,0.328278,63319,5936,80,3602,-30179
731,47157,-0.875684,-9.65166,1.7418,-81.5405,5.80627,-161.532,-1.2207,0.0610352,0.305176,-0.153992,0.0667419,-0.649872,0.741211,64726,3947,61033,3978,-30224
732,47158,0.502441,-9.42676,2.8376,-74.6741,-2.63672,-46.7853,0.0610352,1.34277,0.0610352,-0.723907,0.563812,-0.223938,0.328369,63318,5935,77,3602,-30179
737,47163,-0.894824,-9.65645,1.73701,-81.535,5.80627,-161.532,-0.915527,0,0.427246,-0.153992,0.0667725,-0.649872,0.741211,64724,3976,61030,3978,-30224
738,47164,0.521582,-9.42197,2.85195,-74.6741,-2.63672,-46.7908,0,1.0376,0,-0.723907,0.563751,-0.223938,0.3284,63318,5937,75,3602,-30179
743,47169,-0.866113,-9.64209,1.77529,-81.535,5.80627,-161.532,-0.915527,0,0.488281,-0.153992,0.0667725,-0.649841,0.741211,64725,3988,61030,3978,-30224
744,47170,0.45459,-9.46982,2.83281,-74.6631,-2.63672,-46.7963,0.12207,1.34277,-0.0610352,-0.723938,0.563721,-0.223938,0.32843,63319,5939,78,3602,-30179
749,47175,-0.880469,-9.64688,1.73701,-81.535,5.80627,-161.532,-1.09863,0.0610352,0.610352,-0.153992,0.0667419,-0.649841,0.741211,64728,3958,61030,3978,-30224
750,47176,0.46416,-9.50332,2.76104,-74.6576,-2.64221,-46.8018,0.12207,0.976563,-0.549316,-0.723938,0.56369,-0.223969,0.328491,63322,5942,78,3602,-30179
755,47181,-0.870898,-9.66123,1.75615,-81.535,5.80627,-161.532,-0.915527,0.0610352,0.610352,-0.154022,0.0667419,-0.649841,0.741211,64731,3931,60928,3978,-30224
756,47182,0.45459,-9.50332,2.79932,-74.6521,-2.64221,-46.8018,0.549316,0.549316,-0.610352,-0.723938,0.56366,-0.223938,0.328522,63324,5944,78,3602,-30179
761,47187,-0.904395,-9.63731,1.75137,-81.535,5.81177,-161.532,-0.915527,0.12207,0.732422,-0.154022,0.0667114,-0.649841,0.741241,64734,3906,61034,3978,-30224
762,47188,0.440234,-9.42676,2.87588,-74.6356,-2.6532,-46.8073,0.610352,0.549316,-1.15967,-0.723999,0.563568,-0.223846,0.328644,63326,5946,76,3602,-30179
767,47193,-0.91875,-9.63731,1.71309,-81.535,5.81177,-161.532,-0.915527,0,0.488281,-0.154022,0.0667114,-0.649841,0.741241,64735,3907,61037,3978,-30224
768,47194,0.416309,-9.42197,2.88066,-74.6301,-2.66418,-46.8073,-0.0610352,-0.0610352,-1.64795,-0.723999,0.563538,-0.223816,0.328705,63330,5949,71,3602,-30179
773,47199,-0.904395,-9.6708,1.76572,-81.535,5.81177,-161.532,-0.976563,0,0.610352,-0.154022,0.0666809,-0.649841,0.741241,64734,3927,61038,3978,-30224
774,47200,0.492871,-9.42676,2.88545,-74.6301,-2.67517,-46.8073,-0.671387,-0.732422,-1.70898,-0.723999,0.563507,-0.223755,0.328766,63333,5951,69,3602,-30179
779,47205,-0.923535,-9.61338,1.73223,-81.5295,5.81177,-161.532,-1.0376,-0.183105,0.244141,-0.154022,0.0666809,-0.649841,0.741241,64733,3903,61036,3978,-30224
780,47206,0.607715,-9.42197,2.88545,-74.6301,-2.68616,-46.8073,-0.793457,-0.732422,-1.95313,-0.723999,0.563538,-0.223663,0.328796,63337,5952,70,3602,-30179
785,47211,-0.961816,-9.62773,1.73701,-81.535,5.81177,-161.532,-1.15967,-0.0610352,0.244141,-0.154022,0.0666809,-0.649841,0.741241,64731,3882,61033,3978,-30224
786,47212,0.631641,-9.43154,2.95723,-74.6301,-2.69714,-46.8018,-0.610352,-0.366211,-1.95313,-0.723969,0.563568,-0.223572,0.328857,63340,5952,69,3602,-30179
791,47217,-0.933105,-9.66602,1.71787,-81.535,5.81177,-161.537,-1.2207,-0.0610352,0.0610352,-0.153992,0.0666809,-0.649841,0.741241,64730,3864,61028,3978,-30224
792,47218,0.607715,-9.36455,2.9668,-74.6246,-2.71912,-46.8073,-0.488281,0,-1.58691,-0.723938,0.563599,-0.223419,0.328949,63342,5952,68,3602,-30179
797,47223,-0.870898,-9.64688,1.76094,-81.5295,5.80627,-161.532,-0.915527,-0.366211,0.0610352,-0.153992,0.0667114,-0.649841,0.741241,64727,3833,61020,3978,-30224
798,47224,0.645996,-9.36455,2.96201,-74.6246,-2.72461,-46.8073,-0.549316,0.12207,-1.40381,-0.723938,0.563629,-0.223358,0.32901,63346,5951,67,3602,-30179
803,47229,-0.890039,-9.60381,1.78965,-81.535,5.80627,-161.537,-1.28174,-0.0610352,0.12207,-0.153992,0.0667114,-0.649811,0.741241,64727,3819,61020,3978,-30224
804,47230,0.636426,-9.35977,2.94287,-74.6191,-2.7356,-46.8018,-0.671387,-0.12207,-1.28174,-0.723938,0.563629,-0.223297,0.329041,63346,5950,66,3602,-30179
809,47235,-0.880469,-9.61816,1.76572,-81.535,5.80627,-161.537,-1.28174,-0.244141,0,-0.153961,0.0667114,-0.649841,0.741241,64726,3808,61019,3978,-30224
810,47236,0.617285,-9.39805,2.91416,-74.6191,-2.74109,-46.8018,-0.976563,-0.0610352,-1.0376,-0.723938,0.563629,-0.223236,0.329071,63347,5950,63,3602,-30179
815,47241,-0.885254,-9.64209,1.77529,-81.535,5.80078,-161.537,-1.09863,0,0.0610352,-0.153961,0.0667419,-0.649841,0.741241,64726,3837,61021,3978,-30224
816,47242,0.6125,-9.43154,2.87588,-74.6191,-2.74658,-46.8018,-0.793457,-0.12207,-0.732422,-0.723907,0.56366,-0.223206,0.329102,63348,5951,60,3602,-30179
821,47247,-0.904395,-9.62773,1.73223,-81.535,5.80078,-161.537,-1.28174,0.0610352,0.183105,-0.153961,0.0667419,-0.649841,0.741241,64726,3864,61023,3978,-30224
822,47248,0.712988,-9.36934,2.95723,-74.6136,-2.75208,-46.7963,-0.549316,0.610352,-0.427246,-0.723938,0.56366,-0.223114,0.329132,63349,5951,60,3602,-30179
827,47253,-0.885254,-9.65166,1.75137,-81.535,5.80078,-161.537,-1.28174,-0.183105,0.244141,-0.153931,0.0667419,-0.649841,0.741241,64726,3872,61024,3978,-30224
828,47254,0.645996,-9.39326,2.9333,-74.6136,-2.75208,-46.7963,-0.488281,0.793457,-0.12207,-0.723938,0.56366,-0.223083,0.329132,63353,5952,66,3602,-30179
833,47259,-0.885254,-9.65166,1.75615,-81.535,5.80078,-161.537,-1.0376,0.12207,0.244141,-0.153931,0.0667419,-0.649841,0.741241,64727,3855,61029,3978,-30224
834,47260,0.626855,-9.42197,2.89023,-74.6082,-2.75757,-46.7963,-0.488281,0.671387,0,-0.723938,0.56366,-0.223053,0.329163,63354,5953,72,3602,-30179
839,47265,-0.90918,-9.62295,1.73223,-81.535,5.80078,-161.543,-1.09863,0.244141,0.305176,-0.1539,0.0667419,-0.649841,0.741241,64727,3840,61029,3978,-30224
840,47266,0.579004,-9.46025,2.86152,-74.6027,-2.75208,-46.7963,-0.12207,0.976563,0.183105,-0.723969,0.563629,-0.223053,0.329163,63356,5954,76,3602,-30179
845,47271,-0.904395,-9.66602,1.73223,-81.535,5.80078,-161.543,-1.09863,-0.183105,0.427246,-0.1539,0.0667114,-0.649841,0.741241,64727,3827,61027,3978,-30224
846,47272,0.521582,-9.45547,2.82803,-74.5972,-2.75757,-46.7963,0.0610352,0.915527,-0.0610352,-0.723969,0.563599,-0.223022,0.329163,63357,5954,80,3602,-30179
851,47277,-0.832617,-9.67559,1.7418,-81.535,5.80078,-161.543,-0.793457,-0.0610352,0.488281,-0.1539,0.0667114,-0.649841,0.741241,64727,3814,61026,3978,-30224
852,47278,0.569434,-9.43633,2.88066,-74.5862,-2.75757,-46.8018,0.183105,0.610352,-0.305176,-0.72403,0.563538,-0.222992,0.329193,63308,5955,79,3602,-30179
857,47283,-0.885254,-9.62773,1.74658,-81.535,5.80627,-161.548,-0.976563,0.0610352,0.671387,-0.1539,0.0666809,-0.649841,0.741272,64725,3791,61017,3978,-30224
858,47284,0.559863,-9.43154,2.92373,-74.5807,-2.76306,-46.8073,0.244141,0.732422,-0.427246,-0.72403,0.563507,-0.222961,0.329254,63225,5956,72,3602,-30179
863,47289,-0.870898,-9.62295,1.75137,-81.535,5.80627,-161.548,-0.915527,-0.0610352,0.610352,-0.1539,0.0666809,-0.649841,0.741272,64724,3781,61014,3978,-30224
864,47290,0.483301,-9.41719,2.88545,-74.5752,-2.76306,-46.8182,0,0.915527,-0.427246,-0.72403,0.563446,-0.222961,0.329315,63189,5954,69,3602,-30179
869,47295,-0.899609,-9.63252,1.71309,-81.5295,5.80627,-161.548,-0.854492,0.183105,0.610352,-0.1539,0.0666504,-0.649841,0.741272,64723,3772,61011,3978,-30224
870,47296,0.45459,-9.45068,2.86631,-74.5697,-2.76855,-46.8237,-0.244141,0.488281,-0.854492,-0.72403,0.563416,-0.222961,0.329407,63206,5953,67,3602,-30179
875,47301,-0.91875,-9.64688,1.7418,-81.5295,5.80627,-161.554,-0.915527,0.0610352,0.549316,-0.15387,0.0666199,-0.649841,0.741272,64724,3764,61013,3978,-30224
876,47302,0.483301,-9.43154,2.88066,-74.5697,-2.77405,-46.8292,-0.366211,0.0610352,-1.09863,-0.72403,0.563385,-0.222961,0.329468,63222,5951,65,3602,-30179
881,47307,-0.913965,-9.63252,1.74658,-81.5295,5.80627,-161.554,-0.915527,0,0.671387,-0.15387,0.0666199,-0.649841,0.741272,64725,3757,61018,3978,-30224
882,47308,0.583789,-9.43633,2.91416,-74.5642,-2.79602,-46.8347,-0.610352,-0.366211,-1.46484,-0.723999,0.563385,-0.2229,0.32962,63236,5950,63,3602,-30179
887,47313,-0.92832,-9.64209,1.75137,-81.5295,5.81177,-161.554,-0.854492,0,0.610352,-0.15387,0.0665894,-0.649811,0.741302,64730,3745,61026,3978,-30224
888,47314,0.607715,-9.41719,2.92852,-74.5642,-2.80151,-46.8347,-0.610352,0,-1.34277,-0.723969,0.563385,-0.222839,0.329651,63259,5950,58,3602,-30179
893,47319,-0.90918,-9.62295,1.7418,-81.524,5.81177,-161.554,-0.793457,0,0.610352,-0.15387,0.0665588,-0.649811,0.741302,64733,3739,60928,3978,-30224
894,47320,0.607715,-9.40762,2.92852,-74.5642,-2.8125,-46.8402,-0.610352,0.183105,-1.46484,-0.723969,0.563385,-0.222809,0.329712,63270,5951,54,3602,-30179
899,47325,-0.913965,-9.61816,1.74658,-81.524,5.81177,-161.559,-1.09863,-0.12207,0.610352,-0.15387,0.0665588,-0.649811,0.741302,64735,3735,61033,3978,-30224
900,47326,0.583789,-9.43154,2.92373,-74.5587,-2.81799,-46.8457,-0.732422,0.305176,-1.58691,-0.723938,0.563385,-0.222748,0.329803,63230,5951,52,3602,-30179
905,47331,-0.933105,-9.63731,1.73701,-81.524,5.81177,-161.559,-1.09863,-0.0610352,0.427246,-0.15387,0.0665283,-0.649811,0.741302,64736,3731,60928,3978,-30224
906,47332,0.626855,-9.39326,2.90937,-74.5587,-2.82898,-46.8512,-0.671387,-0.0610352,-1.40381,-0.723907,0.563385,-0.222717,0.329865,63195,5951,48,3602,-30179
911,47337,-0.942676,-9.6708,1.73701,-81.5295,5.81177,-161.559,-1.2207,-0.183105,0.305176,-0.15387,0.0665283,-0.649811,0.741302,64736,3727,61034,3978,-30224
912,47338,0.674707,-9.39326,2.94766,-74.5532,-2.83997,-46.8732,-0.610352,0.549316,-1.09863,-0.723846,0.563385,-0.222687,0.330048,63163,5951,46,3602,-30179
917,47343,-0.885254,-9.64209,1.74658,-81.5295,5.81177,-161.559,-0.976563,-0.12207,0.244141,-0.153839,0.0665283,-0.649811,0.741302,64734,3797,61022,3978,-30224
918,47344,0.62207,-9.40762,2.94287,-74.5532,-2.84546,-46.8842,-0.732422,0.732422,-1.09863,-0.723816,0.563385,-0.222687,0.330139,63113,5954,48,3602,-30179
923,47349,-0.894824,-9.64209,1.75137,-81.5295,5.81177,-161.565,-1.09863,0.0610352,0.183105,-0.153839,0.0665283,-0.649811,0.741302,64733,3827,61018,3978,-30224
924,47350,0.650781,-9.38369,2.87109,-74.5532,-2.85095,-46.8896,-0.671387,-0.0610352,-0.610352,-0.723755,0.563354,-0.222717,0.330261,63092,5955,50,3602,-30179
929,47355,-0.91875,-9.64209,1.77051,-81.5295,5.81177,-161.565,-1.15967,0,0.0610352,-0.153809,0.0665283,-0.649811,0.741302,64731,3855,61014,3978,-30224
930,47356,0.703418,-9.45547,2.8998,-74.5532,-2.85645,-46.9061,-0.854492,0.549316,-0.671387,-0.723724,0.563354,-0.222717,0.330353,63073,5957,47,3602,-30179
935,47361,-0.90918,-9.65645,1.7418,-81.5295,5.80627,-161.565,-1.28174,-0.183105,0.12207,-0.153809,0.0665283,-0.649811,0.741302,64730,3838,61014,3978,-30224
936,47362,0.655566,-9.44111,2.89023,-74.5477,-2.86194,-46.9171,-0.732422,0.976563,-0.427246,-0.723694,0.563324,-0.222748,0.330444,63055,5958,47,3602,-30179
941,47367,-0.92832,-9.63731,1.73701,-81.5295,5.80627,-161.565,-1.28174,-0.0610352,0,-0.153809,0.0665283,-0.649811,0.741302,64729,3824,61018,3978,-30224
942,47368,0.607715,-9.38369,2.90937,-74.5422,-2.86194,-46.9501,-0.183105,1.2207,-0.366211,-0.723633,0.563263,-0.222839,0.330658,63037,5958,48,3602,-30179
947,47373,-0.861328,-9.64209,1.77529,-81.5295,5.80627,-161.565,-1.09863,-0.0610352,0.12207,-0.153778,0.0665588,-0.649841,0.741302,64729,3800,61020,3978,-30224
948,47374,0.650781,-9.38848,2.91895,-74.5367,-2.86743,-46.9666,-0.244141,1.28174,-0.244141,-0.723602,0.563202,-0.2229,0.33078,63007,5960,54,3602,-30179
953,47379,-0.870898,-9.63252,1.7418,-81.5295,5.80627,-161.57,-1.09863,0,0.305176,-0.153748,0.0665588,-0.649841,0.741302,64729,3789,61018,3978,-30224
954,47380,0.583789,-9.40283,2.89023,-74.5313,-2.86743,-46.983,-0.0610352,1.34277,-0.183105,-0.723572,0.563141,-0.222961,0.330902,63043,5961,57,3602,-30179
959,47385,-0.885254,-9.65166,1.75615,-81.5295,5.80627,-161.57,-0.976563,-0.12207,0.488281,-0.153748,0.0665283,-0.649841,0.741302,64728,3779,61016,3978,-30224
960,47386,0.607715,-9.38848,2.91895,-74.5313,-2.86743,-46.994,-0.12207,1.2207,0.0610352,-0.723541,0.56308,-0.223022,0.330994,63027,5962,58,3602,-30179
965,47391,-0.885254,-9.62773,1.75615,-81.5295,5.80627,-161.57,-0.915527,-0.183105,0.366211,-0.153748,0.0665283,-0.649841,0.741302,64727,3771,61017,3978,-30224
966,47392,0.574219,-9.39326,2.90459,-74.5258,-2.86743,-47.0105,-0.244141,1.15967,-0.0610352,-0.723511,0.563019,-0.223083,0.331116,63011,5964,56,3602,-30179
971,47397,-0.846973,-9.63731,1.76094,-81.5295,5.80627,-161.57,-1.0376,0,0.244141,-0.153748,0.0665283,-0.649811,0.741333,64725,3804,61017,3978,-30224
972,47398,0.526367,-9.43154,2.8998,-74.5148,-2.86743,-47.0435,-0.244141,0.793457,-0.183105,-0.72348,0.562927,-0.223175,0.331329,62997,5966,54,3602,-30179
977,47403,-0.875684,-9.66123,1.73223,-81.5295,5.80627,-161.576,-0.854492,0,0.427246,-0.153717,0.0665283,-0.649811,0.741333,64722,3783,61020,3978,-30224
978,47404,0.550293,-9.46982,2.86152,-74.5148,-2.87292,-47.0544,-0.183105,0.671387,-0.427246,-0.72345,0.562866,-0.223236,0.331421,62976,5967,51,3602,-30179
983,47409,-0.885254,-9.64209,1.7418,-81.524,5.80627,-161.576,-0.976563,0.12207,0.671387,-0.153717,0.0664978,-0.649811,0.741333,64723,3774,61022,3978,-30224
984,47410,0.526367,-9.43633,2.87109,-74.5093,-2.87842,-47.0709,-0.610352,0.549316,-0.732422,-0.723419,0.562836,-0.223267,0.331543,62967,5967,52,3602,-30179
989,47415,-0.880469,-9.61816,1.76572,-81.524,5.80627,-161.576,-0.915527,-0.0610352,0.549316,-0.153717,0.0664978,-0.649811,0.741333,64724,3766,61023,3978,-30224
990,47416,0.564648,-9.46982,2.87109,-74.5093,-2.88391,-47.0874,-0.549316,0.305176,-0.793457,-0.723358,0.562805,-0.223328,0.331665,62958,5967,52,3602,-30179
995,47421,-0.890039,-9.65645,1.72744,-81.524,5.80627,-161.576,-0.976563,0,0.671387,-0.153717,0.0664673,-0.649811,0.741333,64726,3758,61025,3978,-30224
996,47422,0.579004,-9.47939,2.91416,-74.5038,-2.8894,-47.0984,-0.305176,0.305176,-0.854492,-0.723328,0.562775,-0.223358,0.331787,62951,5967,52,3602,-30179
1001,47427,-0.890039,-9.62773,1.74658,-81.524,5.81177,-161.576,-0.915527,0.0610352,0.732422,-0.153717,0.0664673,-0.649811,0.741333,64726,3751,61027,3978,-30224
1002,47428,0.583789,-9.41719,2.9333,-74.4983,-2.90039,-47.1313,-0.183105,0.366211,-1.15967,-0.723236,0.562714,-0.223419,0.332062,62944,5968,51,3602,-30179
1007,47433,-0.923535,-9.64209,1.75137,-81.524,5.81177,-161.576,-0.976563,-0.305176,0.610352,-0.153717,0.0664368,-0.649811,0.741364,64728,3817,61026,3978,-30224
1008,47434,0.62207,-9.38369,2.93809,-74.4928,-2.91138,-47.1478,-0.610352,0.427246,-1.2207,-0.723206,0.562653,-0.223419,0.332214,62933,5967,54,3602,-30179
1013,47439,-0.890039,-9.63731,1.75137,-81.524,5.81177,-161.576,-0.976563,-0.0610352,0.610352,-0.153748,0.0664368,-0.649811,0.741364,64729,3845,61025,3978,-30224
1014,47440,0.650781,-9.38848,2.91895,-74.4928,-2.91687,-47.1643,-0.610352,0.427246,-1.2207,-0.723145,0.562622,-0.22345,0.332336,62928,5966,53,3602,-30179
1019,47445,-0.899609,-9.65166,1.73223,-81.524,5.81177,-161.581,-1.09863,0,0.549316,-0.153748,0.0664063,-0.64978,0.741364,64731,3870,61021,3978,-30224
1020,47446,0.579004,-9.38369,2.94287,-74.4928,-2.92236,-47.1808,-0.732422,0.244141,-1.15967,-0.723083,0.562622,-0.22348,0.332489,62924,5966,52,3602,-30179
1025,47451,-0.92832,-9.62773,1.74658,-81.524,5.81726,-161.581,-1.0376,0,0.549316,-0.153748,0.0664063,-0.64978,0.741364,64732,3893,61019,3978,-30224
1026,47452,0.717773,-9.39326,2.95723,-74.4928,-2.92786,-47.1973,-0.610352,0.488281,-1.0376,-0.723022,0.562592,-0.223511,0.332611,62920,5966,49,3602,-30179
1031,47457,-0.890039,-9.64209,1.75137,-81.524,5.81726,-161.581,-0.976563,-0.12207,0.671387,-0.153748,0.0664063,-0.64978,0.741364,64731,3914,61022,3978,-30224
1032,47458,0.636426,-9.33584,2.97158,-74.4873,-2.93884,-47.2302,-0.854492,0.427246,-0.610352,-0.722931,0.562531,-0.223602,0.332886,62915,5967,47,3602,-30179
1037,47463,-0.904395,-9.63252,1.72744,-81.524,5.81726,-161.581,-1.28174,0,0.549316,-0.153778,0.0663757,-0.64978,0.741364,64730,3950,61021,3978,-30224
1038,47464,0.684277,-9.37412,2.94766,-74.4873,-2.93884,-47.2467,-0.976563,0.488281,-0.305176,-0.72287,0.5625,-0.223633,0.333008,62909,5969,44,3602,-30179
1043,47469,-0.904395,-9.67559,1.71787,-81.524,5.81726,-161.581,-1.2207,0,0.427246,-0.153778,0.0663757,-0.649811,0.741364,64729,3925,61023,3978,-30224
1044,47470,0.684277,-9.38369,2.90459,-74.4873,-2.94434,-47.2632,-0.732422,0.610352,-0.366211,-0.722839,0.562469,-0.223694,0.33313,62906,5970,39,3602,-30179
1049,47475,-0.904395,-9.64209,1.73223,-81.524,5.81726,-161.581,-1.09863,-0.183105,0.427246,-0.153778,0.0663757,-0.649811,0.741333,64729,3902,61025,3978,-30224
1050,47476,0.703418,-9.35498,2.93809,-74.4818,-2.94434,-47.2797,-0.732422,0.793457,-0.0610352,-0.722778,0.562439,-0.223755,0.333252,62905,5969,33,3602,-30179
1055,47481,-0.890039,-9.64209,1.76094,-81.524,5.81726,-161.581,-1.0376,0,0.427246,-0.153778,0.0663757,-0.649811,0.741333,64729,3882,61029,3978,-30224
1056,47482,0.645996,-9.40762,2.90937,-74.4818,-2.94434,-47.2961,-0.427246,0.976563,0.305176,-0.722748,0.562408,-0.223816,0.333344,62904,5968,29,3602,-30179
1061,47487,-0.894824,-9.61338,1.73223,-81.524,5.82275,-161.581,-1.09863,-0.0610352,0.427246,-0.153778,0.0663757,-0.649811,0.741333,64729,3863,61034,3978,-30224
1062,47488,0.559863,-9.45068,2.87588,-74.4763,-2.94434,-47.3346,-0.366211,1.0376,0.183105,-0.722687,0.562286,-0.223999,0.333588,62904,5968,26,3602,-30179
1067,47493,-0.899609,-9.65645,1.76094,-81.524,5.82275,-161.581,-1.0376,-0.0610352,0.427246,-0.153778,0.0663452,-0.649811,0.741333,64729,3832,61038,3978,-30224
1068,47494,0.569434,-9.47939,2.84717,-74.4708,-2.94434,-47.3511,-0.305176,0.671387,-0.0610352,-0.722626,0.562225,-0.224091,0.33371,62901,5967,28,3602,-30179
1073,47499,-0.904395,-9.64209,1.75137,-81.524,5.82275,-161.581,-1.0376,0,0.488281,-0.153778,0.0663452,-0.649811,0.741333,64729,3817,61038,3978,-30224
1074,47500,0.607715,-9.48897,2.85674,-74.4653,-2.94434,-47.3676,-0.183105,0.366211,-0.0610352,-0.722595,0.562164,-0.224152,0.333832,62900,5968,28,3602,-30179
1079,47505,-0.894824,-9.62295,1.75137,-81.524,5.82275,-161.581,-0.976563,-0.183105,0.549316,-0.153778,0.0663452,-0.649811,0.741333,64728,3805,61038,3978,-30224
1080,47506,0.617285,-9.47939,2.87588,-74.4598,-2.94983,-47.384,0.0610352,0.610352,-0.183105,-0.722565,0.562134,-0.224182,0.333954,62899,5968,29,3602,-30179
1085,47511,-0.880469,-9.62773,1.77051,-81.524,5.82275,-161.581,-1.09863,-0.0610352,0.549316,-0.153778,0.0663452,-0.649811,0.741364,64726,3796,61035,3978,-30224
1086,47512,0.526367,-9.46982,2.85674,-74.4543,-2.94983,-47.4005,0.305176,1.0376,-0.366211,-0.722534,0.562073,-0.224243,0.334076,62899,5969,28,3602,-30179
1091,47517,-0.880469,-9.63731,1.74658,-81.524,5.82275,-161.581,-0.976563,0,0.549316,-0.153778,0.0663452,-0.649811,0.741364,64726,3786,61035,3978,-30224
1092,47518,0.478516,-9.69951,3.00986,-74.4543,-2.96082,-47.439,-0.488281,-0.0610352,-0.915527,-0.722412,0.561981,-0.224396,0.334381,62900,5971,26,3602,-30179
1097,47523,-0.894824,-9.61816,1.75615,-81.524,5.82825,-161.581,-1.15967,-0.183105,0.732422,-0.153778,0.0663147,-0.649811,0.741364,64729,3811,61034,3978,-30224
1098,47524,0.689063,-9.33105,2.87109,-74.4489,-2.9718,-47.4554,0.549316,-0.610352,-1.0376,-0.722382,0.561951,-0.224426,0.334534,62901,5972,23,3602,-30179
1103,47529,-0.90918,-9.61816,1.76572,-81.524,5.82825,-161.581,-1.09863,0.12207,0.732422,-0.153778,0.0663147,-0.649811,0.741364,64729,3799,61035,3978,-30224
1104,47530,0.736914,-9.33105,2.9333,-74.4434,-2.97729,-47.4719,-0.671387,0.427246,-1.09863,-0.722351,0.56189,-0.224426,0.334656,62900,5971,21,3602,-30179
1109,47535,-0.91875,-9.63252,1.74658,-81.524,5.82825,-161.587,-1.15967,0,0.671387,-0.153778,0.0662842,-0.649811,0.741333,64729,3788,60928,3978,-30224
1110,47536,0.645996,-9.49375,3.05771,-74.4379,-2.98279,-47.4884,0.12207,0.671387,-0.915527,-0.72229,0.561859,-0.224457,0.334778,62901,5969,16,3602,-30179
1115,47541,-0.894824,-9.64688,1.74658,-81.524,5.82825,-161.587,-1.28174,0,0.671387,-0.153809,0.0662842,-0.649811,0.741333,64727,3779,61028,3978,-30224
1116,47542,0.636426,-9.29277,2.94766,-74.4324,-2.98279,-47.5049,0.244141,0.427246,-0.610352,-0.72226,0.561798,-0.224487,0.33493,62902,5968,12,3602,-30179
1121,47547,-0.904395,-9.63731,1.75615,-81.524,5.83374,-161.587,-1.28174,0.305176,0.671387,-0.153809,0.0662537,-0.649811,0.741333,64725,3771,61023,3978,-30224
1122,47548,0.6125,-9.45547,2.98115,-74.4324,-2.99377,-47.5378,-0.549316,0.0610352,-0.610352,-0.722198,0.561737,-0.224579,0.335205,62902,5969,11,3602,-30179
1127,47553,-0.937891,-9.68037,1.73701,-81.524,5.83374,-161.587,-1.28174,-0.549316,0.183105,-0.153778,0.0662231,-0.649841,0.741333,64723,3757,61016,3978,-30224
1128,47554,0.732129,-9.37412,2.9333,-74.4269,-2.99927,-47.5488,-0.0610352,-0.244141,-0.427246,-0.722137,0.561707,-0.224609,0.335327,62903,5971,11,3602,-30179
1133,47559,-0.856543,-9.68994,1.71787,-81.524,5.83374,-161.587,-1.15967,-0.366211,0.366211,-0.153778,0.0662537,-0.649841,0.741333,64722,3750,61017,3978,-30224
1134,47560,0.717773,-9.35498,2.95723,-74.4214,-2.99927,-47.5653,-0.427246,0.244141,0,-0.722107,0.561646,-0.22464,0.335419,62902,5972,10,3602,-30179
1139,47565,-0.923535,-9.65166,1.74658,-81.524,5.83374,-161.587,-1.09863,0,0.183105,-0.153778,0.0662537,-0.649841,0.741333,64720,3785,61018,3978,-30224
1140,47566,0.693848,-9.35498,3.01943,-74.4159,-2.99927,-47.5818,-0.305176,0.976563,0.183105,-0.722076,0.561615,-0.22467,0.335541,62903,5971,11,3602,-30179
1145,47571,-0.952246,-9.62295,1.75137,-81.524,5.82825,-161.587,-1.0376,-0.244141,0.12207,-0.153778,0.0662537,-0.649841,0.741333,64719,3817,61019,3978,-30224
1146,47572,0.665137,-9.32627,2.99551,-74.4159,-2.99927,-47.5983,-0.244141,0.915527,0.305176,-0.722046,0.561554,-0.224762,0.335632,62904,5969,12,3602,-30179
1151,47577,-0.885254,-9.64209,1.74658,-81.524,5.82825,-161.587,-1.15967,-0.183105,0.12207,-0.153778,0.0662537,-0.649841,0.741333,64719,3804,61019,3978,-30224
1152,47578,0.665137,-9.41719,2.90459,-74.4104,-2.99927,-47.6257,-0.488281,0.549316,0.488281,-0.722015,0.561432,-0.224915,0.335846,62905,5968,11,3602,-30179
1157,47583,-0.866113,-9.63252,1.73223,-81.5295,5.82825,-161.587,-1.2207,0,0.183105,-0.153748,0.0662842,-0.649841,0.741333,64721,3825,61020,3978,-30224
1158,47584,0.641211,-9.46982,2.85195,-74.4049,-2.99377,-47.6422,-0.244141,0.671387,0.854492,-0.721985,0.561401,-0.224976,0.335938,62907,5969,8,3602,-30179
1163,47589,-0.885254,-9.63731,1.76572,-81.5295,5.82825,-161.587,-1.28174,-0.183105,0.244141,-0.153748,0.0662842,-0.649841,0.741333,64722,3812,61022,3978,-30224
1164,47590,0.641211,-9.43633,2.87588,-74.3994,-2.99377,-47.6587,-0.12207,0.976563,0.854492,-0.721954,0.56134,-0.225037,0.336029,62906,5969,6,3602,-30179
1169,47595,-0.894824,-9.62295,1.76094,-81.5295,5.82825,-161.587,-1.34277,0,0.305176,-0.153748,0.0662842,-0.649841,0.741302,64723,3801,61026,3978,-30224
1170,47596,0.583789,-9.45547,2.94287,-74.3939,-2.98828,-47.6752,0.12207,1.2207,0.732422,-0.721954,0.561279,-0.225128,0.336121,62905,5968,3,3602,-30179
1175,47601,-0.904395,-9.62773,1.75615,-81.5295,5.82825,-161.587,-1.28174,-0.0610352,0.427246,-0.153748,0.0662842,-0.649872,0.741302,64724,3791,60928,3978,-30224
1176,47602,0.507227,-9.4459,2.89023,-74.3884,-2.98828,-47.6917,0.0610352,0.732422,0.305176,-0.721924,0.561188,-0.22522,0.336212,62903,5966,65535,3602,-30179
1181,47607,-0.890039,-9.64688,1.73701,-81.5295,5.82825,-161.587,-1.28174,-0.183105,0.305176,-0.153748,0.0662842,-0.649872,0.741302,64724,3781,61039,3978,-30224
1182,47608,0.569434,-9.45068,2.8998,-74.3829,-2.98828,-47.7191,-0.12207,-0.0610352,-0.12207,-0.721893,0.561066,-0.225342,0.336426,62903,5962,65532,3602,-30179
1187,47613,-0.899609,-9.63731,1.76094,-81.5295,5.82825,-161.592,-1.0376,0,0.488281,-0.153717,0.0662842,-0.649872,0.741302,64725,3766,61051,3978,-30224
1188,47614,0.617285,-9.43154,2.91895,-74.3774,-2.99377,-47.7301,-0.0610352,-0.12207,-0.244141,-0.721863,0.561005,-0.225372,0.336548,62907,5960,65531,3602,-30179
1193,47619,-0.904395,-9.59902,1.76094,-81.5295,5.82825,-161.592,-1.15967,-0.183105,0.671387,-0.153717,0.0662537,-0.649872,0.741302,64725,3759,61054,3978,-30224
1194,47620,0.593359,-9.43154,2.9333,-74.3719,-2.99377,-47.7466,-0.244141,0.0610352,-0.0610352,-0.721832,0.560974,-0.225403,0.336639,62909,5961,65532,3602,-30179
1199,47625,-0.894824,-9.63731,1.76094,-81.5295,5.82825,-161.592,-1.15967,0.0610352,0.488281,-0.153748,0.0662537,-0.649872,0.741302,64726,3753,61055,3978,-30224
1200,47626,0.583789,-9.39326,2.94766,-74.3665,-2.99927,-47.7576,-0.183105,0.0610352,-0.305176,-0.721802,0.560944,-0.225464,0.336761,62910,5962,65534,3602,-30179
1205,47631,-0.880469,-9.64209,1.7418,-81.5295,5.82825,-161.592,-1.09863,0.0610352,0.732422,-0.153748,0.0662537,-0.649872,0.741302,64727,3749,61054,3978,-30224
1206,47632,0.598145,-9.37412,2.95723,-74.3665,-3.00476,-47.774,-0.488281,0,-0.610352,-0.721771,0.560883,-0.225494,0.336853,62911,5963,65535,3602,-30179
1211,47637,-0.894824,-9.65166,1.75137,-81.5295,5.83374,-161.592,-0.976563,0.0610352,0.793457,-0.153748,0.0662231,-0.649872,0.741302,64729,3744,61052,3978,-30224
1212,47638,0.684277,-9.39805,2.96201,-74.3665,-3.01025,-47.796,-0.976563,-0.0610352,-0.183105,-0.72171,0.560822,-0.225555,0.337067,62910,5963,65534,3602,-30179
1217,47643,-0.875684,-9.63731,1.7083,-81.5295,5.83923,-161.598,-1.0376,0.0610352,0.610352,-0.153748,0.0661926,-0.649872,0.741302,64732,3776,61051,3978,-30224
1218,47644,0.689063,-9.37412,2.98115,-74.361,-3.01575,-47.8125,-0.793457,0.244141,-0.0610352,-0.721649,0.560822,-0.225586,0.337158,62910,5963,0,3602,-30179
1223,47649,-0.92832,-9.62773,1.77529,-81.5295,5.83923,-161.598,-1.0376,0.0610352,0.488281,-0.153748,0.0661621,-0.649872,0.741302,64732,3767,61050,3978,-30224
1224,47650,0.655566,-9.36455,2.9668,-74.361,-3.01575,-47.8235,-0.915527,0.488281,0.0610352,-0.721619,0.560791,-0.225647,0.33728,62909,5965,0,3602,-30179
