TimeSinceCollection,Timestamp,AngularVelX,AngularVelY,AngularVelZ,AngleRoll,AnglePitch,AngleYaw,AccX,AccY,AccZ,Q1,Q2,Q3,Q4,MagX,MagY,MagZ,Height,Airpressure
0,63198,0,-0.610352,-1.09863,-79.6014,-21.0718,95.3284,3.45967,-9.02481,1.66523,-0.595154,0.319977,0.559784,-0.479492,-124.317,50.5333,-68.275,-10182,-28518
6,63204,-0.488281,-0.732422,-0.976563,-79.6069,-21.0773,95.3284,3.52666,-9.01045,1.71309,-0.595184,0.319946,0.559814,-0.479462,-124.3,50.5167,-68.3167,-10157,-28521
12,63210,-0.427246,-0.732422,-0.793457,-79.6069,-21.0828,95.3339,3.52666,-9.06787,1.65566,-0.595154,0.319916,0.559875,-0.479431,-124.3,50.5167,-68.3417,-10157,-28521
18,63216,-0.671387,-0.915527,-1.0376,-79.6179,-21.0938,95.3448,3.52666,-9.02959,1.64131,-0.595154,0.319885,0.559937,-0.479401,-124.317,50.5417,-68.325,-10157,-28521
24,63222,-0.549316,-1.0376,-0.732422,-79.6234,-21.0938,95.3448,3.49316,-9.04395,1.61738,-0.595123,0.319855,0.559998,-0.47937,-124.308,50.525,-68.3,-10157,-28521
30,63228,-0.610352,-1.34277,-1.09863,-79.6289,-21.0992,95.3503,3.5793,-9.06309,1.65566,-0.595123,0.319824,0.560028,-0.47937,-124.325,50.5167,-68.225,-10157,-28521
36,63234,-0.854492,-0.915527,-0.854492,-79.6344,-21.1047,95.3558,3.55537,-9.08223,1.59824,-0.595093,0.319794,0.560089,-0.47934,-124.358,50.5167,-68.2083,-10157,-28521
42,63240,-0.793457,-1.34277,-1.09863,-79.6399,-21.1102,95.3613,3.56016,-9.0918,1.55518,-0.595062,0.319763,0.560211,-0.479279,-124.367,50.5,-68.2083,-10157,-28521
48,63246,-0.305176,-1.15967,-0.854492,-79.6454,-21.1212,95.3723,3.48838,-9.04395,1.6126,-0.595032,0.319733,0.560272,-0.479248,-124.375,50.4833,-68.2417,-10157,-28521
54,63252,-0.12207,-1.28174,-0.915527,-79.6509,-21.1267,95.3778,3.55537,-9.07266,1.66045,-0.595032,0.319702,0.560303,-0.479248,-124.383,50.4833,-68.2417,-10157,-28521
60,63258,-0.305176,-0.915527,-1.2207,-79.6509,-21.1322,95.3833,3.4501,-9.0918,1.63174,-0.595001,0.319672,0.560364,-0.479248,-124.392,50.4667,-68.2,-10157,-28521
66,63264,-0.183105,-1.28174,-1.2207,-79.6564,-21.1377,95.3888,3.46924,-9.04873,1.61738,-0.595001,0.319611,0.560394,-0.479218,-124.375,50.4583,-68.1667,-10157,-28521
72,63270,0,-0.854492,-1.28174,-79.6619,-21.1432,95.3888,3.53145,-9.12529,1.56953,-0.594971,0.31955,0.560486,-0.479187,-124.367,50.45,-68.125,-10157,-28521
78,63276,0,-0.854492,-1.0376,-79.6619,-21.1542,95.3998,3.55537,-9.01523,1.62217,-0.594971,0.319519,0.560516,-0.479156,-124.383,50.475,-68.075,-10157,-28521
84,63282,0,-0.671387,-1.40381,-79.6619,-21.1597,95.3998,3.51709,-9.03438,1.62217,-0.594971,0.319458,0.560577,-0.479156,-124.375,50.45,-68.0333,-10157,-28521
90,63288,0.244141,-0.976563,-1.40381,-79.6674,-21.1707,95.4053,3.53623,-9.0918,1.5791,-0.594971,0.319427,0.560608,-0.479126,-124.383,50.4417,-68,-10157,-28521
96,63294,-0.183105,-0.915527,-1.40381,-79.6674,-21.1761,95.4053,3.62236,-9.04873,1.5791,-0.595001,0.319366,0.560638,-0.479126,-124.4,50.45,-67.9583,-10157,-28521
102,63300,0,-0.427246,-1.28174,-79.6674,-21.1816,95.4053,3.56016,-9.10137,1.55518,-0.595001,0.319305,0.56073,-0.479065,-124.392,50.45,-67.925,-10157,-28521
108,63306,0.0610352,-0.427246,-0.793457,-79.6729,-21.1926,95.4108,3.62715,-9.01523,1.59346,-0.595001,0.319275,0.56073,-0.479034,-124.383,50.4417,-67.9917,-10157,-28521
114,63312,0,-0.305176,-1.0376,-79.6729,-21.1926,95.4108,3.56494,-9.06309,1.60781,-0.595032,0.319244,0.56076,-0.479004,-124.383,50.4583,-68.05,-10157,-28521
120,63318,-0.12207,-0.671387,-0.732422,-79.6729,-21.1981,95.4108,3.5793,-9.03438,1.60303,-0.595032,0.319244,0.560791,-0.478973,-124.383,50.475,-68.1083,-10157,-28521
126,63324,0,-0.366211,-0.427246,-79.6729,-21.1981,95.4163,3.65586,-9.01523,1.61738,-0.595032,0.319214,0.560822,-0.478973,-124.367,50.4583,-68.1583,-10165,-28520
132,63330,-0.244141,-0.183105,0.305176,-79.6783,-21.1981,95.4163,3.75635,-9.01523,1.56953,-0.595001,0.319214,0.560852,-0.478973,-124.383,50.4667,-68.1667,-10165,-28520
138,63336,-0.488281,-0.610352,0.671387,-79.6838,-21.1981,95.4218,3.64629,-9.05352,1.58389,-0.594971,0.319214,0.560852,-0.478973,-124.408,50.4667,-68.15,-10165,-28520
144,63342,-0.427246,-0.183105,0.610352,-79.6893,-21.1926,95.4218,3.54102,-9.08701,1.55039,-0.59494,0.319244,0.560883,-0.478973,-124.433,50.4417,-68.1667,-10165,-28520
150,63348,-0.0610352,-0.366211,0.427246,-79.6893,-21.1926,95.4272,3.39746,-9.08223,1.62695,-0.59491,0.319275,0.560883,-0.478973,-124.433,50.4167,-68.1333,-10165,-28520
156,63354,0,-0.488281,0.183105,-79.6893,-21.1926,95.4272,3.44531,-9.00566,1.73701,-0.59491,0.319275,0.560883,-0.479004,-124.467,50.3917,-68.0833,-10165,-28520
162,63360,-0.793457,-0.976563,0.0610352,-79.6948,-21.1926,95.4327,3.50273,-9.02959,1.64609,-0.594849,0.319275,0.560944,-0.479004,-124.483,50.375,-68.05,-10165,-28520
168,63366,-0.915527,-0.915527,0,-79.7113,-21.1926,95.4437,3.56016,-9.06787,1.56953,-0.594818,0.319275,0.560974,-0.479004,-124.492,50.3333,-68.0917,-10165,-28520
174,63372,-0.732422,-0.610352,-0.12207,-79.7113,-21.1926,95.4437,3.5123,-9.09658,1.56475,-0.594788,0.319275,0.561005,-0.479004,-124.483,50.3167,-68.1167,-10165,-28520
180,63378,-0.488281,-0.732422,0,-79.7168,-21.1926,95.4492,3.54102,-9.06309,1.55996,-0.594757,0.319305,0.561066,-0.478973,-124.475,50.3083,-68.1167,-10165,-28520
186,63384,-0.488281,-0.854492,-0.0610352,-79.7223,-21.1926,95.4547,3.52666,-9.02959,1.61738,-0.594727,0.319305,0.561096,-0.478973,-124.467,50.2833,-68.125,-10165,-28520
192,63390,-0.488281,-0.610352,-0.183105,-79.7333,-21.1926,95.4602,3.57451,-9.05352,1.49297,-0.594666,0.319305,0.561157,-0.478973,-124.442,50.2917,-68.1083,-10165,-28520
198,63396,-0.183105,-0.488281,0.12207,-79.7333,-21.1926,95.4602,3.56016,-9.11094,1.56953,-0.594666,0.319305,0.561188,-0.478943,-124.442,50.3167,-68.1333,-10165,-28520
204,63402,0.12207,-0.305176,0,-79.7333,-21.1926,95.4657,3.5123,-9.05352,1.56475,-0.594635,0.319305,0.561188,-0.478943,-124.425,50.3167,-68.1667,-10165,-28520
210,63408,0.12207,-0.305176,-0.305176,-79.7333,-21.1981,95.4657,3.49795,-9.03438,1.60303,-0.594635,0.319305,0.561188,-0.478973,-124.425,50.3,-68.1667,-10165,-28520
216,63414,-0.0610352,-0.305176,-0.244141,-79.7388,-21.1981,95.4657,3.52666,-9.04395,1.61738,-0.594635,0.319275,0.561218,-0.478973,-124.442,50.2917,-68.1667,-10165,-28520
222,63420,0.366211,-0.183105,0.12207,-79.7388,-21.1981,95.4712,3.56016,-9.07744,1.60303,-0.594604,0.319275,0.561249,-0.478943,-124.45,50.275,-68.1333,-10165,-28520
228,63426,0.183105,-0.12207,-0.244141,-79.7388,-21.1981,95.4712,3.50752,-9.04395,1.56475,-0.594604,0.319275,0.561218,-0.478973,-124.483,50.2333,-68.1083,-10165,-28520
234,63432,0.183105,-0.12207,-0.366211,-79.7388,-21.1981,95.4712,3.58887,-9.07266,1.59824,-0.594604,0.319244,0.561249,-0.478973,-124.5,50.2333,-68.1167,-10165,-28520
240,63438,0.12207,-0.0610352,-0.244141,-79.7388,-21.2036,95.4712,3.58408,-9.02959,1.55518,-0.594604,0.319244,0.561249,-0.478943,-124.5,50.225,-68.1333,-10173,-28519
246,63444,0,0,-0.0610352,-79.7388,-21.2036,95.4712,3.61279,-9.03916,1.5791,-0.594635,0.319244,0.561249,-0.478943,-124.5,50.2,-68.1667,-10173,-28519
252,63450,-0.0610352,0.305176,0,-79.7388,-21.2036,95.4712,3.5458,-9.06309,1.59824,-0.594604,0.319244,0.561249,-0.478943,-124.492,50.1833,-68.1833,-10165,-28520
258,63456,0,-0.0610352,0.0610352,-79.7388,-21.1981,95.4712,3.52666,-9.06309,1.67002,-0.594604,0.319244,0.561249,-0.478943,-124.525,50.1917,-68.1667,-10165,-28520
264,63462,-0.183105,-0.366211,-0.244141,-79.7388,-21.2036,95.4712,3.53623,-9.01523,1.66045,-0.594604,0.319244,0.561249,-0.478943,-124.533,50.1833,-68.1583,-10165,-28520
270,63468,-0.366211,-0.488281,-0.0610352,-79.7443,-21.2036,95.4767,3.5123,-9.01045,1.67002,-0.594604,0.319244,0.561279,-0.478943,-124.533,50.1667,-68.15,-10165,-28520
276,63474,-0.244141,-0.732422,-0.366211,-79.7498,-21.2036,95.4767,3.53623,-9.0583,1.62695,-0.594574,0.319244,0.56131,-0.478912,-124.55,50.1583,-68.1167,-10165,-28520
282,63480,-0.366211,-0.610352,-0.366211,-79.7552,-21.2091,95.4822,3.50273,-9.07744,1.58867,-0.594543,0.319244,0.56134,-0.478912,-124.558,50.15,-68.1,-10165,-28520
288,63486,-0.488281,-0.610352,-0.305176,-79.7607,-21.2091,95.4877,3.55059,-9.00088,1.53604,-0.594543,0.319244,0.561371,-0.478912,-124.567,50.1417,-68.075,-10165,-28520
294,63492,-0.305176,-0.549316,-0.244141,-79.7607,-21.2091,95.4877,3.56973,-9.03916,1.56475,-0.594513,0.319244,0.561401,-0.478882,-124.575,50.1833,-68.05,-10165,-28520
300,63498,-0.244141,-0.793457,-0.183105,-79.7662,-21.2091,95.4932,3.62236,-9.04395,1.53125,-0.594482,0.319244,0.561432,-0.478882,-124.583,50.2,-68.025,-10165,-28520
306,63504,-0.305176,-0.549316,0.244141,-79.7662,-21.2091,95.4987,3.66543,-9.06309,1.51689,-0.594482,0.319214,0.561462,-0.478882,-124.6,50.1917,-67.9917,-10165,-28520
312,63510,0,-0.366211,0.12207,-79.7717,-21.2091,95.4987,3.53623,-9.09658,1.56953,-0.594421,0.319244,0.561523,-0.478882,-124.583,50.1917,-67.9167,-10165,-28520
318,63516,-0.12207,-0.244141,0.0610352,-79.7772,-21.2091,95.4987,3.50752,-9.07744,1.56475,-0.594421,0.319244,0.561523,-0.478882,-124.575,50.2083,-67.875,-10165,-28520
324,63522,0.183105,-0.610352,-0.12207,-79.7772,-21.2091,95.5042,3.5123,-9.0583,1.66523,-0.594421,0.319244,0.561523,-0.478882,-124.567,50.2083,-67.85,-10165,-28520
330,63528,0,-0.366211,-0.0610352,-79.7772,-21.2091,95.5042,3.50273,-9.02002,1.6126,-0.594391,0.319244,0.561554,-0.478882,-124.575,50.2167,-67.8333,-10165,-28520
336,63534,0,-0.427246,-0.0610352,-79.7827,-21.2091,95.5096,3.50273,-9.03916,1.59824,-0.594391,0.319214,0.561554,-0.478882,-124.567,50.2417,-67.8417,-10165,-28520
342,63540,0.12207,-0.244141,-0.0610352,-79.7827,-21.2146,95.5096,3.52188,-9.06309,1.55039,-0.59436,0.319214,0.561584,-0.478882,-124.583,50.25,-67.925,-10165,-28520
348,63546,0,-0.183105,-0.305176,-79.7827,-21.2146,95.5096,3.56973,-8.99609,1.59346,-0.59436,0.319214,0.561584,-0.478882,-124.575,50.25,-67.9667,-10165,-28520
354,63552,0.12207,0,-0.0610352,-79.7827,-21.2146,95.5096,3.52188,-9.05352,1.59346,-0.59436,0.319214,0.561615,-0.478882,-124.6,50.275,-67.95,-10165,-28520
360,63558,0.305176,-0.244141,0,-79.7827,-21.2146,95.5151,3.5123,-9.04395,1.58867,-0.59436,0.319214,0.561615,-0.478882,-124.617,50.3083,-67.9333,-10190,-28517
366,63564,0.12207,-0.366211,0.0610352,-79.7827,-21.2146,95.5151,3.55537,-9.06309,1.62217,-0.59436,0.319214,0.561615,-0.478882,-124.6,50.3,-67.9083,-10190,-28517
372,63570,0,-0.12207,-0.244141,-79.7827,-21.2146,95.5151,3.54102,-9.01523,1.62217,-0.59433,0.319183,0.561615,-0.478882,-124.592,50.2917,-67.85,-10190,-28517
378,63576,0.12207,-0.305176,-0.12207,-79.7827,-21.2146,95.5151,3.56494,-9.03916,1.65088,-0.59433,0.319183,0.561615,-0.478882,-124.608,50.2917,-67.85,-10190,-28517
384,63582,-0.305176,-0.0610352,0,-79.7882,-21.2146,95.5151,3.54102,-9.01523,1.59346,-0.59433,0.319183,0.561646,-0.478882,-124.625,50.2833,-67.8333,-10190,-28517
390,63588,-0.183105,-0.12207,-0.244141,-79.7882,-21.2146,95.5151,3.50273,-9.07266,1.65088,-0.59433,0.319183,0.561646,-0.478882,-124.633,50.3,-67.8083,-10190,-28517
396,63594,-0.366211,-0.366211,-0.244141,-79.7937,-21.2146,95.5206,3.50273,-9.04873,1.64609,-0.59433,0.319214,0.561646,-0.478882,-124.625,50.325,-67.775,-10190,-28517
402,63600,-0.183105,-0.488281,-0.244141,-79.7937,-21.2201,95.5206,3.5458,-9.0583,1.6126,-0.594299,0.319183,0.561707,-0.478851,-124.558,50.3583,-67.7417,-10190,-28517
408,63606,-0.244141,-0.366211,-0.427246,-79.7992,-21.2201,95.5261,3.5793,-9.0918,1.53604,-0.594299,0.319183,0.561707,-0.478851,-124.55,50.3583,-67.7417,-10190,-28517
414,63612,-0.12207,-0.366211,-0.610352,-79.7992,-21.2256,95.5261,3.5458,-9.0583,1.55518,-0.594299,0.319183,0.561737,-0.478821,-124.567,50.3667,-67.725,-10190,-28517
420,63618,-0.0610352,-0.244141,-0.12207,-79.7992,-21.2256,95.5261,3.59844,-9.08223,1.58389,-0.594269,0.319153,0.561768,-0.478821,-124.583,50.3583,-67.7417,-10190,-28517
426,63624,-0.12207,-0.244141,-0.183105,-79.8047,-21.2256,95.5261,3.55059,-9.07744,1.60303,-0.594269,0.319153,0.561768,-0.478821,-124.575,50.3417,-67.75,-10190,-28517
432,63630,-0.183105,-0.366211,0.0610352,-79.8047,-21.2311,95.5316,3.58887,-9.04395,1.56953,-0.594269,0.319153,0.561798,-0.47879,-124.55,50.3417,-67.8,-10190,-28517
438,63636,-0.305176,-0.610352,-0.183105,-79.8102,-21.2311,95.5371,3.55537,-9.06787,1.55996,-0.594238,0.319153,0.561829,-0.47879,-124.55,50.3667,-67.8583,-10190,-28517
444,63642,-0.12207,-0.427246,-0.305176,-79.8102,-21.2311,95.5371,3.56494,-9.07744,1.54561,-0.594238,0.319153,0.561829,-0.47879,-124.558,50.3917,-67.9083,-10190,-28517
450,63648,0.0610352,-0.305176,-0.0610352,-79.8157,-21.2311,95.5371,3.49795,-9.04873,1.55996,-0.594238,0.319153,0.561859,-0.47879,-124.542,50.4167,-67.9333,-10190,-28517
456,63654,0,-0.244141,-0.244141,-79.8157,-21.2311,95.5371,3.53145,-9.04873,1.56953,-0.594208,0.319122,0.56189,-0.47879,-124.55,50.45,-67.9167,-10190,-28517
462,63660,0.12207,-0.12207,-0.183105,-79.8157,-21.2311,95.5426,3.55537,-9.02481,1.60781,-0.594208,0.319122,0.56189,-0.47879,-124.567,50.4417,-67.8917,-10190,-28517
468,63666,0,-0.12207,-0.0610352,-79.8157,-21.2311,95.5426,3.62715,-9.02002,1.58867,-0.594208,0.319122,0.56189,-0.47879,-124.567,50.4083,-67.8833,-10190,-28517
474,63672,-0.12207,0,0.12207,-79.8157,-21.2311,95.5426,3.58408,-9.06787,1.55518,-0.594208,0.319122,0.56189,-0.47879,-124.583,50.4,-67.8917,-10223,-28513
480,63678,-0.0610352,0,0.12207,-79.8212,-21.2311,95.5426,3.56973,-9.08701,1.56475,-0.594208,0.319153,0.56189,-0.47879,-124.575,50.375,-67.9083,-10223,-28513
486,63684,0,0,0.183105,-79.8212,-21.2311,95.5426,3.54102,-9.07744,1.55039,-0.594177,0.319153,0.56189,-0.47879,-124.575,50.3583,-67.9167,-10223,-28513
492,63690,0,0,0.12207,-79.8212,-21.2311,95.5426,3.50273,-9.02959,1.61738,-0.594177,0.319153,0.56189,-0.47879,-124.6,50.375,-67.9583,-10223,-28513
498,63696,0,0.0610352,-0.244141,-79.8212,-21.2311,95.5426,3.48838,-9.04873,1.5791,-0.594177,0.319183,0.56189,-0.47879,-124.633,50.3833,-67.9833,-10223,-28513
504,63702,0.244141,0.0610352,-0.0610352,-79.8212,-21.2311,95.5426,3.52666,-9.06787,1.6126,-0.594177,0.319183,0.56192,-0.47876,-124.65,50.3583,-68.0083,-10223,-28513
510,63708,0.12207,0.0610352,-0.427246,-79.8212,-21.2311,95.5426,3.52188,-9.08701,1.56475,-0.594177,0.319183,0.56189,-0.47879,-124.65,50.35,-68.025,-10223,-28513
516,63714,0.366211,0,-0.0610352,-79.8212,-21.2311,95.5426,3.55059,-9.07744,1.55518,-0.594177,0.319153,0.56189,-0.47876,-124.667,50.35,-68.0333,-10223,-28513
522,63720,0.427246,0,-0.12207,-79.8157,-21.2311,95.5426,3.53623,-9.06787,1.56953,-0.594208,0.319153,0.56189,-0.47876,-124.675,50.3583,-68.05,-10223,-28513
528,63726,0.305176,-0.12207,0,-79.8157,-21.2311,95.5426,3.55537,-9.04395,1.59824,-0.594208,0.319153,0.56189,-0.47876,-124.675,50.3833,-68.0583,-10223,-28513
534,63732,0.488281,0.244141,-0.0610352,-79.8157,-21.2311,95.5371,3.58887,-9.04873,1.58389,-0.594208,0.319153,0.56189,-0.47876,-124.683,50.425,-68.0583,-10223,-28513
540,63738,0.244141,0,-0.366211,-79.8157,-21.2311,95.5371,3.52666,-9.06309,1.56953,-0.594208,0.319153,0.56189,-0.47879,-124.675,50.4333,-68.0167,-10223,-28513
546,63744,0.549316,0,-0.488281,-79.8157,-21.2366,95.5371,3.52188,-9.04395,1.66523,-0.594238,0.319122,0.56189,-0.47876,-124.667,50.4167,-67.975,-10223,-28513
552,63750,0.244141,-0.0610352,-0.366211,-79.8102,-21.2366,95.5371,3.54102,-9.0583,1.60781,-0.594238,0.319122,0.56189,-0.47876,-124.658,50.3917,-67.925,-10223,-28513
558,63756,0.305176,-0.183105,-0.366211,-79.8102,-21.2421,95.5371,3.55059,-9.05352,1.6126,-0.594238,0.319092,0.56189,-0.47876,-124.65,50.375,-67.8583,-10223,-28513
564,63762,0.183105,-0.12207,-0.0610352,-79.8102,-21.2421,95.5371,3.52188,-9.02959,1.55996,-0.594238,0.319092,0.56189,-0.47876,-124.633,50.35,-67.85,-10223,-28513
570,63768,0,-0.183105,0,-79.8157,-21.2366,95.5426,3.55537,-9.07744,1.5791,-0.594238,0.319092,0.56189,-0.47876,-124.6,50.35,-67.8583,-10223,-28513
576,63774,0.12207,0.0610352,-0.427246,-79.8157,-21.2421,95.5371,3.53145,-9.05352,1.59346,-0.594238,0.319092,0.56189,-0.47876,-124.575,50.35,-67.8333,-10223,-28513
582,63780,0.0610352,-0.244141,-0.427246,-79.8157,-21.2421,95.5371,3.54102,-9.0583,1.59824,-0.594238,0.319092,0.56189,-0.47876,-124.517,50.3583,-67.825,-10223,-28513
588,63786,0.0610352,0.0610352,-0.427246,-79.8157,-21.2421,95.5371,3.56494,-9.00088,1.57432,-0.594238,0.319061,0.56192,-0.478729,-124.483,50.3417,-67.825,-10231,-28512
594,63792,0.0610352,-0.0610352,-0.366211,-79.8157,-21.2476,95.5371,3.56016,-9.08223,1.54561,-0.594269,0.319061,0.56192,-0.478729,-124.467,50.35,-67.8167,-10231,-28512
600,63798,0.12207,-0.0610352,-0.549316,-79.8157,-21.2476,95.5371,3.54102,-9.04395,1.58389,-0.594269,0.319061,0.56192,-0.478729,-124.442,50.3583,-67.8833,-10231,-28512
606,63804,0.12207,0,-0.12207,-79.8157,-21.2476,95.5371,3.47402,-9.04395,1.61738,-0.594269,0.319031,0.561951,-0.478699,-124.417,50.325,-67.95,-10231,-28512
612,63810,0.366211,0,-0.427246,-79.8157,-21.2531,95.5371,3.51709,-9.08701,1.58867,-0.594269,0.319031,0.561951,-0.478699,-124.408,50.3,-68.1083,-10231,-28512
618,63816,0.366211,0,-0.732422,-79.8102,-21.2531,95.5371,3.5123,-9.03916,1.55996,-0.594269,0.319031,0.561951,-0.478699,-124.417,50.2833,-68.1167,-10231,-28512
624,63822,0.488281,0.183105,-1.09863,-79.8102,-21.2585,95.5371,3.51709,-9.04873,1.58867,-0.594299,0.319,0.561951,-0.478699,-124.408,50.2417,-68.1167,-10231,-28512
630,63828,0.366211,0.427246,-1.0376,-79.8047,-21.264,95.5316,3.52188,-9.07744,1.60303,-0.59433,0.31897,0.561951,-0.478668,-124.392,50.2,-68.075,-10231,-28512
636,63834,0.427246,0.427246,-0.976563,-79.8047,-21.264,95.5316,3.52666,-9.06309,1.57432,-0.594391,0.318939,0.561951,-0.478638,-124.4,50.2,-68.0083,-10231,-28512
642,63840,0.366211,0.427246,-1.0376,-79.7992,-21.275,95.5261,3.56016,-9.04395,1.57432,-0.594421,0.318909,0.561951,-0.478607,-124.375,50.1917,-67.95,-10231,-28512
648,63846,0.610352,0.305176,-1.34277,-79.7992,-21.2805,95.5206,3.58408,-9.02959,1.61738,-0.594452,0.318878,0.561951,-0.478577,-124.375,50.1917,-67.975,-10231,-28512
654,63852,0.366211,0.427246,-0.793457,-79.7937,-21.286,95.5151,3.60322,-9.00566,1.5791,-0.594513,0.318848,0.561951,-0.478546,-124.375,50.2083,-67.9833,-10231,-28512
660,63858,0.244141,0.244141,-0.549316,-79.7937,-21.286,95.5151,3.5458,-9.02002,1.6126,-0.594543,0.318848,0.56192,-0.478516,-124.383,50.225,-67.9667,-10231,-28512
666,63864,0.12207,-0.0610352,-0.976563,-79.7937,-21.2915,95.5151,3.61758,-9.01045,1.57432,-0.594574,0.318817,0.561951,-0.478485,-124.392,50.2167,-67.95,-10231,-28512
672,63870,-0.183105,0,-0.305176,-79.7937,-21.297,95.5151,3.62715,-9.05352,1.5791,-0.594574,0.318787,0.561951,-0.478485,-124.417,50.2417,-67.8917,-10231,-28512
678,63876,0.0610352,0.183105,-0.671387,-79.7937,-21.297,95.5096,3.64629,-9.02002,1.50732,-0.594574,0.318787,0.561951,-0.478455,-124.433,50.2583,-67.8917,-10231,-28512
684,63882,0,0.366211,0,-79.7937,-21.297,95.5096,3.69893,-9.01523,1.54561,-0.594604,0.318787,0.561951,-0.478455,-124.45,50.2583,-67.9083,-10231,-28512
690,63888,0,0.305176,0.183105,-79.7937,-21.297,95.5096,3.65107,-9.04395,1.55518,-0.594604,0.318817,0.561951,-0.478424,-124.45,50.275,-67.9417,-10231,-28512
696,63894,0,0.366211,0,-79.7937,-21.2915,95.5042,3.53623,-9.06787,1.59824,-0.594604,0.318848,0.56192,-0.478424,-124.442,50.2833,-67.9833,-10231,-28512
702,63900,0.427246,0.305176,0.12207,-79.7937,-21.2915,95.5042,3.55537,-9.07266,1.57432,-0.594604,0.318848,0.56192,-0.478424,-124.442,50.25,-68.0333,-10231,-28512
708,63906,0.12207,0.488281,0.12207,-79.7937,-21.2915,95.4987,3.5458,-9.06787,1.56953,-0.594635,0.318878,0.56189,-0.478424,-124.45,50.2083,-68.0333,-10206,-28515
714,63912,0.366211,1.2207,-0.0610352,-79.7882,-21.2915,95.4932,3.58887,-9.08701,1.52646,-0.594635,0.318878,0.56189,-0.478424,-124.458,50.1833,-68.0333,-10206,-28515
720,63918,0.549316,2.80762,-0.12207,-79.7827,-21.286,95.4767,3.59844,-9.08701,1.44033,-0.594666,0.318909,0.561859,-0.478394,-124.458,50.175,-68,-10206,-28515
726,63924,1.40381,4.21143,-0.183105,-79.7717,-21.286,95.4602,3.63193,-9.01045,1.4499,-0.594849,0.319,0.561676,-0.478333,-124.45,50.175,-68.0083,-10206,-28515
732,63930,1.52588,6.16455,-0.0610352,-79.7388,-21.2805,95.4053,3.90469,-9.03438,1.26328,-0.594971,0.319061,0.561554,-0.478302,-124.425,50.2083,-68.0167,-10206,-28515
738,63936,2.74658,10.5591,0.183105,-79.7058,-21.2695,95.3503,3.98604,-9.13965,1.23457,-0.595123,0.319153,0.561371,-0.478241,-124.433,50.225,-67.975,-10206,-28515
744,63942,3.96729,12.8784,0.183105,-79.6674,-21.2585,95.2844,3.48838,-9.11094,1.4499,-0.595428,0.319305,0.561035,-0.478149,-124.433,50.225,-67.95,-10206,-28515
750,63948,4.08936,10.9253,0.610352,-79.6289,-21.2421,95.224,3.31611,-9.01045,1.77051,-0.595764,0.319489,0.560638,-0.478058,-124.433,50.2167,-67.9333,-10206,-28515
756,63954,2.38037,7.69043,-0.183105,-79.5959,-21.2366,95.1746,3.42617,-8.99131,1.78008,-0.596344,0.319763,0.559967,-0.477966,-124.467,50.225,-67.9083,-10206,-28515
762,63960,2.0752,6.46973,0.0610352,-79.5465,-21.2256,95.1031,3.48359,-9.06309,1.7418,-0.596558,0.319855,0.559723,-0.477905,-124.508,50.225,-67.975,-10206,-28515
768,63966,1.77002,5.85938,-0.0610352,-79.53,-21.2201,95.0702,3.51709,-9.02002,1.71787,-0.596741,0.319946,0.559509,-0.477844,-124.517,50.225,-68,-10206,-28515
774,63972,1.58691,4.94385,-0.244141,-79.5135,-21.2146,95.0427,3.50273,-9.02959,1.72744,-0.596924,0.320038,0.559326,-0.477814,-124.5,50.225,-68.0167,-10206,-28515
780,63978,1.58691,4.27246,-0.366211,-79.4971,-21.2146,95.0208,3.4166,-9.00088,1.76094,-0.597076,0.320099,0.559174,-0.477753,-124.492,50.2333,-68.0333,-10206,-28515
786,63984,1.15967,3.35693,-0.671387,-79.4861,-21.2091,94.9988,3.51709,-9.04395,1.66045,-0.59729,0.32019,0.558929,-0.477692,-124.45,50.2333,-68.075,-10206,-28515
792,63990,1.09863,3.11279,-0.976563,-79.4641,-21.2146,94.9658,3.50752,-9.04395,1.62695,-0.597412,0.320221,0.558838,-0.477631,-124.358,50.2333,-68.1083,-10206,-28515
798,63996,1.28174,2.86865,-0.732422,-79.4531,-21.2146,94.9493,3.59365,-9.10137,1.58867,-0.597504,0.320251,0.558746,-0.4776,-124.317,50.2333,-68.15,-10206,-28515
804,64002,1.28174,2.80762,-0.671387,-79.4421,-21.2146,94.9329,3.63672,-9.00088,1.54561,-0.597626,0.320251,0.558655,-0.47757,-124.3,50.2417,-68.2083,-10206,-28515
810,64008,1.09863,3.2959,-0.366211,-79.4366,-21.2146,94.9164,3.62236,-9.04395,1.56953,-0.597717,0.320282,0.558594,-0.477539,-124.292,50.225,-68.2167,-10206,-28515
816,64014,1.34277,3.41797,-0.427246,-79.4147,-21.2091,94.8779,3.49795,-9.12529,1.61738,-0.5979,0.320374,0.55838,-0.477448,-124.325,50.2167,-68.2417,-10206,-28515
822,64020,1.52588,2.92969,-0.671387,-79.3982,-21.2091,94.8615,3.50752,-9.10615,1.68438,-0.598022,0.320404,0.558258,-0.477417,-124.317,50.1833,-68.325,-10182,-28518
828,64026,1.58691,2.68555,-0.12207,-79.3872,-21.2091,94.8505,3.54102,-9.05352,1.67959,-0.598114,0.320404,0.558167,-0.477386,-124.292,50.1667,-68.4167,-10182,-28518
834,64032,1.58691,2.19727,-0.549316,-79.3762,-21.2091,94.834,3.58408,-9.02959,1.73223,-0.598206,0.320435,0.558075,-0.477386,-124.275,50.1667,-68.475,-10182,-28518
840,64038,1.15967,1.95313,-0.366211,-79.3707,-21.2091,94.823,3.58887,-8.98652,1.72744,-0.598297,0.320435,0.558014,-0.477386,-124.267,50.175,-68.4917,-10182,-28518
846,64044,1.34277,2.13623,-0.12207,-79.3542,-21.2036,94.8065,3.53623,-9.08223,1.59824,-0.598419,0.320435,0.557892,-0.477356,-124.242,50.1583,-68.5167,-10182,-28518
852,64050,1.77002,2.92969,-0.366211,-79.3378,-21.2036,94.79,3.43096,-9.12051,1.68438,-0.59848,0.320465,0.5578,-0.477356,-124.242,50.175,-68.4667,-10182,-28518
858,64056,2.0752,2.13623,-0.793457,-79.3268,-21.2036,94.7791,3.39746,-9.11094,1.6748,-0.598572,0.320465,0.557709,-0.477325,-124.25,50.2,-68.4833,-10182,-28518
864,64062,2.0752,2.01416,-1.0376,-79.3103,-21.2091,94.7681,3.5123,-9.10615,1.68438,-0.598663,0.320465,0.557617,-0.477325,-124.267,50.2167,-68.5083,-10182,-28518
870,64068,2.56348,2.31934,-0.793457,-79.2938,-21.2091,94.7516,3.59365,-9.06787,1.62695,-0.598755,0.320435,0.557526,-0.477325,-124.275,50.2333,-68.5417,-10182,-28518
876,64074,2.50244,2.31934,-0.366211,-79.2664,-21.2091,94.7296,3.66064,-9.08223,1.66045,-0.598969,0.320374,0.557343,-0.477356,-124.283,50.2667,-68.5833,-10182,-28518
882,64080,2.62451,2.0752,-0.305176,-79.2499,-21.2091,94.7186,3.67021,-9.07744,1.65088,-0.59906,0.320374,0.55722,-0.477356,-124.258,50.2583,-68.5917,-10182,-28518
888,64086,2.56348,2.31934,0,-79.2334,-21.2036,94.7076,3.68936,-9.06309,1.72266,-0.599152,0.320343,0.557129,-0.477386,-124.225,50.25,-68.5833,-10182,-28518
894,64092,2.38037,2.13623,0.244141,-79.2169,-21.2036,94.6967,3.58408,-9.03916,1.69395,-0.599213,0.320343,0.557037,-0.477417,-124.208,50.25,-68.5667,-10182,-28518
900,64098,2.31934,1.64795,0.488281,-79.2059,-21.1981,94.6857,3.68936,-8.97695,1.69873,-0.599304,0.320343,0.556915,-0.477417,-124.183,50.25,-68.5583,-10182,-28518
906,64104,2.0752,1.83105,1.09863,-79.184,-21.1871,94.6692,3.56973,-9.08223,1.72744,-0.599396,0.320343,0.556763,-0.477509,-124.15,50.2333,-68.575,-10182,-28518
912,64110,1.83105,1.52588,0.976563,-79.173,-21.1816,94.6637,3.46445,-9.02959,1.78008,-0.599457,0.320343,0.556641,-0.477539,-124.133,50.2,-68.6333,-10182,-28518
918,64116,1.83105,1.15967,1.15967,-79.162,-21.1707,94.6582,3.53623,-9.02481,1.79922,-0.599487,0.320374,0.556549,-0.4776,-124.133,50.1917,-68.65,-10182,-28518
924,64122,1.77002,1.15967,1.46484,-79.1565,-21.1652,94.6527,3.59844,-9.03916,1.63652,-0.599518,0.320374,0.556488,-0.477631,-124.117,50.1667,-68.675,-10182,-28518
930,64128,1.89209,1.15967,1.34277,-79.1455,-21.1542,94.6472,3.6415,-9.0918,1.66523,-0.599548,0.320404,0.556396,-0.477692,-124.1,50.1583,-68.6917,-10182,-28518
936,64134,1.95313,1.0376,1.83105,-79.1235,-21.1377,94.6417,3.675,-9.02959,1.67002,-0.599579,0.320435,0.556213,-0.477844,-124.125,50.1917,-68.7,-10182,-28518
942,64140,1.77002,1.0376,2.13623,-79.118,-21.1267,94.6362,3.63672,-9.02002,1.62217,-0.599579,0.320465,0.556152,-0.477905,-124.125,50.1917,-68.7,-10182,-28518
948,64146,1.64795,1.2207,2.13623,-79.1071,-21.1157,94.6307,3.63672,-9.03916,1.65566,-0.599579,0.320496,0.556061,-0.477997,-124.133,50.1833,-68.6667,-10182,-28518
954,64152,1.89209,1.46484,2.68555,-79.0961,-21.0992,94.6307,3.56973,-9.06787,1.63174,-0.599579,0.320526,0.555969,-0.478058,-124.142,50.1667,-68.6167,-10182,-28518
960,64158,1.58691,1.77002,2.01416,-79.0906,-21.0883,94.6198,3.5458,-9.06309,1.5791,-0.599579,0.320587,0.555847,-0.478149,-124.133,50.1583,-68.575,-10182,-28518
966,64164,2.01416,1.64795,2.86865,-79.0686,-21.0608,94.6143,3.61758,-9.01523,1.68438,-0.599609,0.320679,0.555664,-0.478271,-124.125,50.075,-68.525,-10182,-28518
972,64170,2.31934,1.46484,2.80762,-79.0576,-21.0498,94.6088,3.48359,-9.12051,1.68916,-0.599609,0.320709,0.555542,-0.478363,-124.158,50.0667,-68.5417,-10182,-28518
978,64176,2.50244,0.854492,2.68555,-79.0466,-21.0333,94.6033,3.59844,-9.01045,1.63652,-0.59964,0.32077,0.55542,-0.478455,-124.208,50.075,-68.55,-10182,-28518
984,64182,2.50244,1.52588,3.17383,-79.0356,-21.0168,94.5978,3.60801,-9.09658,1.59346,-0.599609,0.320801,0.555328,-0.478577,-124.233,50.075,-68.6167,-10182,-28518
990,64188,2.80762,1.40381,3.54004,-79.0192,-21.0004,94.5978,3.55059,-9.11572,1.62217,-0.599609,0.320831,0.555206,-0.478699,-124.25,50.0917,-68.65,-10182,-28518
996,64194,2.80762,1.52588,4.08936,-78.9917,-20.9619,94.5923,3.69414,-9.02481,1.66523,-0.599609,0.320923,0.554932,-0.478943,-124.233,50.1167,-68.6833,-10182,-28518
1002,64200,2.92969,0.793457,4.57764,-78.9807,-20.9399,94.5923,3.84727,-9.02481,1.75615,-0.599609,0.320984,0.55481,-0.479095,-124.208,50.1,-68.7083,-10182,-28518
1008,64206,2.19727,0.427246,5.67627,-78.9752,-20.9125,94.5923,4.321,-8.80469,1.58867,-0.599579,0.321045,0.554657,-0.479248,-124.183,50.0833,-68.75,-10182,-28518
1014,64212,1.28174,2.0752,7.75146,-78.9697,-20.8795,94.5923,4.6416,-8.94824,1.31592,-0.599487,0.321136,0.554535,-0.479431,-124.15,50.075,-68.775,-10182,-28518
1020,64218,1.34277,3.72314,9.52148,-78.9587,-20.8301,94.5813,4.11045,-9.30713,1.33506,-0.599396,0.32132,0.554382,-0.479614,-124.1,50.0833,-68.8417,-10182,-28518
1026,64224,2.68555,3.35693,10.6201,-78.9368,-20.7312,94.5648,3.40225,-9.31191,1.72266,-0.599243,0.321838,0.553894,-0.480042,-124.017,50.1083,-68.95,-10182,-28518
1032,64230,3.11279,2.19727,9.8877,-78.9203,-20.6818,94.5648,3.0625,-9.27842,2.05283,-0.599121,0.322083,0.553619,-0.480286,-124,50.1333,-68.9667,-10182,-28518
1038,64236,3.17383,0.610352,9.0332,-78.9093,-20.6378,94.5703,2.79453,-8.99609,2.13418,-0.59903,0.322296,0.553375,-0.48056,-123.992,50.1417,-68.9917,-10182,-28518
1044,64242,2.38037,-0.305176,7.69043,-78.9038,-20.6049,94.5813,2.86152,-8.86689,2.37344,-0.598907,0.322449,0.553192,-0.480865,-123.983,50.15,-68.9833,-10182,-28518
1050,64248,1.15967,-1.09863,6.34766,-78.9038,-20.5774,94.5923,2.87588,-8.89082,2.15332,-0.598755,0.32254,0.55304,-0.48111,-123.95,50.1417,-69.0333,-10182,-28518
1056,64254,1.15967,-2.19727,4.76074,-78.9038,-20.528,94.6252,3.17734,-9.11572,1.78008,-0.59848,0.322723,0.552917,-0.481506,-123.9,50.1833,-69.0583,-10165,-28520
1062,64260,1.64795,-2.2583,4.63867,-78.9038,-20.5115,94.6417,3.23477,-9.04873,1.74658,-0.598328,0.322754,0.552917,-0.481689,-123.867,50.175,-69.0667,-10165,-28520
1068,64266,1.83105,-2.44141,4.45557,-78.9038,-20.4895,94.6582,3.24912,-9.06309,1.78486,-0.598206,0.322784,0.552856,-0.481873,-123.867,50.1667,-69.0583,-10165,-28520
1074,64272,2.13623,-2.38037,4.21143,-78.8983,-20.473,94.6747,3.28262,-9.10137,1.82314,-0.598083,0.322784,0.552826,-0.482056,-123.892,50.1917,-69.0583,-10165,-28520
1080,64278,2.19727,-2.86865,3.84521,-78.8928,-20.4565,94.6967,3.31133,-8.92432,1.82793,-0.597839,0.322754,0.552765,-0.482422,-123.917,50.2167,-69.0583,-10165,-28520
1086,64284,2.2583,-3.35693,3.78418,-78.8928,-20.4291,94.7351,3.5123,-9.21621,1.67002,-0.597687,0.322754,0.552765,-0.482605,-123.95,50.275,-69.0917,-10165,-28520
1092,64290,2.31934,-3.54004,4.27246,-78.8873,-20.4126,94.7626,3.75156,-9.07266,1.62217,-0.597565,0.322693,0.552765,-0.482788,-123.942,50.3,-69.0833,-10165,-28520
1098,64296,2.0752,-3.78418,4.94385,-78.8873,-20.3906,94.7845,3.75635,-9.13486,1.58867,-0.597412,0.322662,0.552765,-0.483002,-123.933,50.325,-69.0667,-10165,-28520
1104,64302,2.38037,-3.11279,5.85938,-78.8818,-20.3632,94.8065,3.69414,-9.19229,1.64609,-0.59726,0.322662,0.552765,-0.483246,-123.917,50.3417,-69.0917,-10165,-28520
1110,64308,2.86865,-3.479,5.98145,-78.8818,-20.3412,94.834,3.43574,-9.16836,1.7418,-0.596924,0.322662,0.552673,-0.483734,-123.883,50.35,-69.1417,-10165,-28520
1116,64314,3.05176,-3.17383,5.98145,-78.8654,-20.2917,94.8779,3.55537,-9.14922,1.71309,-0.596771,0.322662,0.552612,-0.484009,-123.817,50.4417,-69.2833,-10165,-28520
1122,64320,3.479,-2.13623,5.61523,-78.8544,-20.2698,94.8944,3.48359,-9.15879,1.62695,-0.596619,0.322662,0.552551,-0.484283,-123.767,50.4667,-69.2833,-10165,-28520
1128,64326,3.78418,-2.2583,6.22559,-78.8434,-20.2423,94.9109,3.42617,-9.16836,1.68916,-0.596497,0.322662,0.55246,-0.484528,-123.708,50.475,-69.2667,-10165,-28520
1134,64332,4.27246,-1.77002,6.5918,-78.8324,-20.2094,94.9274,3.35918,-9.16836,1.71309,-0.596375,0.322662,0.552368,-0.484802,-123.667,50.5167,-69.25,-10165,-28520
1140,64338,4.45557,-2.2583,6.95801,-78.8159,-20.1819,94.9493,3.32568,-9.20664,1.72744,-0.5961,0.322662,0.552124,-0.485382,-123.633,50.55,-69.1917,-10165,-28520
1146,64344,5.5542,-2.19727,7.01904,-78.7775,-20.1215,94.9878,3.35439,-9.18272,1.61738,-0.595978,0.322662,0.552002,-0.485687,-123.567,50.5833,-69.225,-10165,-28520
1152,64350,6.04248,-2.50244,7.32422,-78.761,-20.0885,95.0043,3.31133,-9.15879,1.66045,-0.595856,0.322632,0.551849,-0.486023,-123.55,50.6083,-69.1917,-10165,-28520
1158,64356,6.28662,-2.19727,7.38525,-78.7335,-20.0555,95.0262,3.38789,-9.16836,1.71787,-0.595703,0.322601,0.551697,-0.486389,-123.542,50.6333,-69.1833,-10165,-28520
1164,64362,6.65283,-2.38037,7.50732,-78.7115,-20.0226,95.0427,3.39746,-9.21143,1.6748,-0.595581,0.322571,0.551514,-0.486755,-123.525,50.6333,-69.2167,-10165,-28520
1170,64368,6.71387,-2.38037,7.56836,-78.6841,-19.9896,95.0647,3.45967,-9.23057,1.62217,-0.595337,0.32251,0.551178,-0.487488,-123.517,50.625,-69.2417,-10173,-28519
1176,64374,7.8125,-2.38037,8.66699,-78.6346,-19.9127,95.1086,3.50273,-9.3167,1.62217,-0.595215,0.322449,0.550995,-0.487885,-123.517,50.6833,-69.3917,-10173,-28519
1182,64380,7.99561,-3.23486,8.91113,-78.6017,-19.8743,95.1361,3.44531,-9.221,1.74658,-0.595093,0.322418,0.550781,-0.488312,-123.517,50.7083,-69.45,-10173,-28519
1188,64386,7.87354,-3.78418,9.39941,-78.5797,-19.8358,95.1636,3.53145,-9.24014,1.8375,-0.59491,0.322357,0.550598,-0.48877,-123.508,50.725,-69.5,-10173,-28519
1194,64392,7.87354,-4.57764,10.2539,-78.5522,-19.7919,95.1965,3.675,-9.30234,1.804,-0.594727,0.322296,0.550415,-0.489227,-123.5,50.7583,-69.525,-10173,-28519
1200,64398,7.8125,-4.5166,10.6812,-78.5303,-19.7479,95.235,3.73242,-9.46025,1.67959,-0.594299,0.322205,0.550049,-0.490234,-123.508,50.7833,-69.5083,-10173,-28519
1206,64404,8.97217,-6.10352,12.6343,-78.4753,-19.6436,95.3174,3.84727,-9.46982,1.76572,-0.594025,0.322174,0.549866,-0.490784,-123.45,50.8,-69.5667,-10173,-28519
1212,64410,8.91113,-7.26318,14.2212,-78.4534,-19.5831,95.3723,3.99561,-9.40283,1.76572,-0.59375,0.322113,0.549683,-0.491394,-123.425,50.8333,-69.5917,-10173,-28519
1218,64416,9.15527,-7.20215,16.2354,-78.4259,-19.5172,95.4272,4.1248,-9.19229,1.84707,-0.593384,0.322052,0.5495,-0.492035,-123.408,50.8667,-69.6,-10173,-28519
1224,64422,7.14111,-7.32422,18.0054,-78.4149,-19.4403,95.4822,4.07217,-9.11094,1.81836,-0.593018,0.322052,0.549286,-0.492737,-123.4,50.875,-69.5917,-10173,-28519
1230,64428,5.5542,-7.8125,19.9585,-78.4094,-19.3524,95.5426,3.99561,-9.28799,1.70352,-0.59201,0.322266,0.54892,-0.494171,-123.4,50.8833,-69.575,-10173,-28519
1236,64434,2.2583,-8.78906,25.1465,-78.4259,-19.1547,95.6799,5.12012,-9.63252,2.33037,-0.591431,0.322479,0.548767,-0.494934,-123.4,50.925,-69.4667,-10173,-28519
1242,64440,2.0752,-2.50244,28.9307,-78.4314,-19.0228,95.7239,4.97178,-9.93398,2.31123,-0.590729,0.322815,0.548645,-0.495697,-123.383,50.95,-69.4333,-10173,-28519
1248,64446,3.2959,-0.244141,31.6162,-78.4259,-18.88,95.7623,3.82334,-9.7043,2.21553,-0.590088,0.323364,0.548279,-0.49649,-123.342,50.9667,-69.3917,-10173,-28519
1254,64452,1.83105,-1.89209,32.4097,-78.4369,-18.7317,95.8063,3.23955,-9.40283,2.29688,-0.589478,0.323975,0.547821,-0.497345,-123.3,51,-69.3167,-10173,-28519
1260,64458,0.549316,-2.86865,32.3486,-78.4479,-18.5834,95.8557,3.68936,-9.61338,2.63184,-0.588043,0.325287,0.547028,-0.499023,-123.267,51.05,-69.275,-10173,-28519
1266,64464,-0.549316,-0.793457,34.6069,-78.4808,-18.2703,95.9436,3.75635,-9.57988,2.50742,-0.58725,0.325989,0.546692,-0.499878,-123.142,51.175,-69.2917,-10173,-28519
1272,64470,-1.64795,0.488281,35.5225,-78.4973,-18.1055,95.9766,3.675,-9.53682,2.56006,-0.586517,0.326752,0.546265,-0.500702,-123.092,51.2667,-69.3083,-10173,-28519
1278,64476,-2.68555,1.34277,36.5601,-78.5193,-17.9352,96.0095,3.64629,-9.62295,2.39258,-0.585754,0.327606,0.545807,-0.501526,-123.042,51.3833,-69.325,-10173,-28519
1284,64482,-3.11279,2.13623,37.8418,-78.5413,-17.7594,96.037,3.78027,-9.77129,2.30166,-0.584991,0.328491,0.545349,-0.50235,-122.975,51.475,-69.3167,-10173,-28519
1290,64488,-3.17383,3.96729,39.6729,-78.5632,-17.5726,96.059,4.11045,-9.99619,2.14375,-0.583435,0.330505,0.544281,-0.504028,-122.917,51.575,-69.3333,-10206,-28515
1296,64494,-3.90625,5.00488,44.6167,-78.6072,-17.1606,96.0974,4.06738,-9.91963,2.06719,-0.582611,0.331604,0.54364,-0.504883,-122.758,51.8083,-69.3667,-10206,-28515
1302,64500,-4.76074,5.24902,46.5698,-78.6346,-16.9409,96.1194,4.14395,-10.2402,2.04326,-0.581726,0.332794,0.542999,-0.505829,-122.667,51.9083,-69.375,-10206,-28515
1308,64506,-4.5166,4.82178,49.5605,-78.6621,-16.7102,96.1469,4.21094,-10.4604,2.11025,-0.580811,0.334045,0.542328,-0.506775,-122.575,51.9917,-69.35,-10206,-28515
1314,64512,-5.00488,4.69971,52.3682,-78.6951,-16.463,96.1743,4.45498,-10.446,2.04326,-0.579803,0.335358,0.541626,-0.507782,-122.475,52.1,-69.3417,-10206,-28515
1320,64518,-5.67627,5.49316,55.2979,-78.728,-16.1993,96.2018,4.50762,-10.6087,1.92842,-0.577637,0.338226,0.540131,-0.509979,-122.4,52.2417,-69.3,-10206,-28515
1326,64524,-6.53076,4.3335,61.9507,-78.8104,-15.6335,96.2732,4.4502,-10.7331,2.11504,-0.576447,0.339752,0.539307,-0.511169,-122.183,52.5333,-69.3833,-10206,-28515
1332,64530,-6.95801,4.08936,66.04,-78.8544,-15.3259,96.3171,4.53154,-10.7379,1.96191,-0.575134,0.34137,0.538483,-0.512451,-122.042,52.725,-69.4167,-10206,-28515
1338,64536,-7.8125,2.99072,69.9463,-78.9038,-15.0018,96.3721,4.49326,-10.7953,1.8375,-0.5737,0.343079,0.537628,-0.513794,-121.917,52.925,-69.4583,-10206,-28515
1344,64542,-8.42285,1.70898,73.4863,-78.9642,-14.6613,96.438,4.67031,-11.0202,1.71309,-0.572174,0.344879,0.536743,-0.515228,-121.758,53.1,-69.5083,-10206,-28515
1350,64548,-7.87354,3.23486,82.2754,-79.0192,-14.2987,96.5039,5.05791,-11.3025,1.50254,-0.568756,0.348663,0.534912,-0.518372,-121.608,53.275,-69.5417,-10206,-28515
1356,64554,-7.93457,5.00488,87.8906,-79.129,-13.5077,96.6302,5.16318,-11.2595,1.44033,-0.566925,0.350708,0.533844,-0.520081,-121.292,53.7167,-69.55,-10206,-28515
1362,64560,-7.75146,6.95801,93.4448,-79.184,-13.0682,96.6852,5.22061,-11.3121,1.28242,-0.565002,0.352936,0.532654,-0.521881,-121.1,53.95,-69.5667,-10206,-28515
1368,64566,-7.44629,10.0708,98.3887,-79.2279,-12.6068,96.7291,5.29717,-11.4987,1.13408,-0.563019,0.355286,0.531342,-0.523773,-120.917,54.1667,-69.5917,-10206,-28515
1374,64572,-6.95801,12.6953,103.638,-79.2719,-12.1124,96.7621,5.1249,-11.9629,1.12451,-0.560974,0.357849,0.529846,-0.525726,-120.708,54.4083,-69.6083,-10206,-28515
1380,64578,-4.82178,10.9863,110.901,-79.3103,-11.6071,96.795,4.11523,-11.6758,1.37813,-0.556763,0.363281,0.526428,-0.529907,-120.508,54.6667,-69.6,-10206,-28515
1386,64584,-5.92041,7.01904,113.22,-79.3927,-10.5524,96.9159,3.71328,-11.3504,1.47861,-0.554474,0.366028,0.524658,-0.532135,-120.025,55.175,-69.5167,-10206,-28515
1392,64590,-8.48389,3.23486,115.295,-79.4531,-10.0195,97.0093,3.58887,-11.1638,1.53604,-0.552032,0.368774,0.52298,-0.534485,-119.767,55.4833,-69.45,-10206,-28515
1398,64596,-11.7798,0.183105,117.065,-79.5355,-9.4812,97.1136,3.5458,-11.47,1.63652,-0.549377,0.37149,0.521393,-0.536835,-119.458,55.8,-69.375,-10206,-28515
1404,64602,-12.5732,-3.05176,117.371,-79.6179,-8.94287,97.24,3.7085,-11.6901,1.35898,-0.54657,0.374268,0.519928,-0.539215,-119.167,56.0917,-69.3167,-10206,-28515
1410,64608,-13.1226,-4.57764,119.446,-79.7058,-8.39905,97.3663,3.96211,-11.7045,1.17715,-0.54068,0.3797,0.517151,-0.544006,-118.842,56.4,-69.3,-10215,-28514
1416,64614,-12.3291,-6.22559,118.774,-79.8816,-7.31689,97.63,3.99082,-11.5514,1.0001,-0.537659,0.382385,0.515747,-0.546417,-118.117,57.0833,-69.3,-10215,-28514
1422,64620,-9.94873,-7.69043,116.577,-79.953,-6.79504,97.7728,4.44063,-11.0298,1.05273,-0.534637,0.38501,0.514404,-0.548828,-117.708,57.425,-69.3417,-10215,-28514
1428,64626,-4.94385,-9.0332,110.657,-79.9969,-6.30066,97.9102,5.36895,-9.53203,1.42119,-0.531647,0.387482,0.513031,-0.55127,-117.292,57.75,-69.3833,-10215,-28514
1434,64632,-0.610352,-12.2681,98.3276,-80.0189,-5.87769,98.0585,6.40254,-7.34043,1.37334,-0.52887,0.389648,0.511688,-0.55365,-116.9,58.075,-69.4417,-10215,-28514
1440,64638,-2.0752,-16.0522,67.9321,-80.0409,-5.53711,98.2068,9.13965,-6.69443,1.03838,-0.5242,0.392548,0.509735,-0.557831,-116.508,58.425,-69.475,-10215,-28514
1446,64644,0,-14.4653,55.1147,-80.0848,-5.07568,98.465,11.0394,-5.88574,0.813477,-0.5224,0.393433,0.509247,-0.559357,-115.75,59.05,-69.5083,-10215,-28514
1452,64650,2.68555,-12.146,44.7388,-80.0848,-4.93835,98.5583,12.5132,-3.83291,0.645996,-0.520966,0.393982,0.508911,-0.560577,-115.392,59.35,-69.4917,-10215,-28514
1458,64656,1.77002,-4.82178,34.729,-80.0793,-4.85046,98.6133,12.7189,-1.52646,0.77041,-0.519928,0.394257,0.508667,-0.561584,-115.067,59.6583,-69.4417,-10215,-28514
1464,64662,-6.5918,7.38525,24.0479,-80.1178,-4.8175,98.5968,10.3264,-0.162695,1.41641,-0.519318,0.39447,0.508484,-0.562164,-114.758,59.925,-69.3833,-10215,-28514
1470,64668,-22.3389,-11.8408,-20.9351,-80.3265,-5.10315,98.6133,8.39316,-1.76572,1.02881,-0.519226,0.39505,0.509155,-0.561218,-114.467,60.1667,-69.3167,-10215,-28514
1476,64674,-25.4517,-15.1978,-39.856,-80.4584,-5.41077,98.6572,9.99141,-1.28721,0.62207,-0.519501,0.394287,0.510712,-0.560089,-113.917,60.6583,-69.1667,-10215,-28514
1482,64680,-26.3062,-19.165,-54.3213,-80.5902,-5.79529,98.7067,10.9819,-2.27773,0.818262,-0.520081,0.393066,0.512787,-0.558502,-113.675,60.8417,-69.1167,-10215,-28514
1488,64686,-21.9116,-20.5688,-64.7583,-80.7056,-6.24023,98.7561,11.4652,-2.91416,1.02402,-0.520966,0.391449,0.515198,-0.55661,-113.475,61.0083,-69.1,-10215,-28514
1494,64692,-16.5405,-23.1323,-73.1201,-80.788,-6.73462,98.8165,11.537,-2.75625,1.23936,-0.522156,0.389374,0.517761,-0.554596,-113.3,61.1583,-69.075,-10215,-28514
1500,64698,-9.8877,-27.5269,-86.792,-80.8539,-7.26196,98.8715,10.1397,-2.60313,1.804,-0.525177,0.384216,0.52298,-0.550385,-113.192,61.2833,-69.0417,-10215,-28514
1506,64704,-7.56836,-32.6538,-94.9097,-80.9473,-8.44299,99.0308,9.50811,-2.64141,2.06719,-0.526947,0.381134,0.525757,-0.548187,-113.133,61.4083,-68.9833,-10215,-28514
1512,64710,-6.10352,-37.7197,-104.553,-80.9857,-9.10767,99.1406,9.39805,-2.8376,2.23467,-0.528839,0.377655,0.528717,-0.545959,-113.2,61.4417,-68.9583,-10215,-28514
1518,64716,-4.45557,-41.3818,-113.831,-81.0132,-9.82178,99.267,9.51289,-3.22998,2.37344,-0.530823,0.373749,0.531891,-0.54361,-113.317,61.4333,-68.9167,-10231,-28512
1524,64722,-2.50244,-44.2505,-123.047,-81.0297,-10.5853,99.3933,9.76172,-3.55537,2.53613,-0.53299,0.369507,0.535217,-0.541107,-113.458,61.3667,-68.85,-10231,-28512
1530,64728,1.52588,-44.9219,-139.648,-81.0406,-12.2388,99.646,9.82871,-4.14395,2.82324,-0.537811,0.359985,0.542267,-0.535706,-113.617,61.2833,-68.7667,-10231,-28512
1536,64734,2.80762,-43.0908,-147.827,-81.0242,-13.1232,99.7504,9.64209,-4.42627,3.03857,-0.540527,0.354828,0.545868,-0.532776,-114.067,61.05,-68.5583,-10231,-28512
1542,64740,3.54004,-41.8701,-154.724,-81.0077,-14.035,99.8492,9.37412,-4.67988,3.24434,-0.543457,0.349426,0.549469,-0.529663,-114.358,60.8833,-68.4417,-10231,-28512
1548,64746,3.479,-39.917,-161.865,-80.9857,-14.9854,99.9316,9.13486,-4.99092,3.34961,-0.546539,0.343872,0.55307,-0.526337,-114.692,60.6667,-68.3667,-10231,-28512
1554,64752,3.17383,-37.7197,-168.335,-80.9583,-15.9576,99.9976,8.87168,-5.50293,3.45967,-0.549774,0.338165,0.556702,-0.522797,-115.017,60.4333,-68.2583,-10231,-28512
1560,64758,2.99072,-32.7759,-180.176,-80.8923,-17.9736,100.069,8.34053,-6.82363,3.51709,-0.556732,0.326447,0.563934,-0.515106,-115.358,60.1833,-68.1667,-10231,-28512
1566,64764,3.2959,-29.9683,-184.692,-80.8484,-19.0118,100.08,8.15391,-7.51748,3.53623,-0.560425,0.320435,0.567474,-0.510956,-116.167,59.5333,-67.9917,-10231,-28512
1572,64770,4.21143,-27.4658,-189.331,-80.7935,-20.0665,100.069,7.90986,-8.2209,3.57451,-0.56424,0.314362,0.570953,-0.506653,-116.642,59.1667,-67.875,-10231,-28512
1578,64776,5.43213,-24.6582,-192.261,-80.7275,-21.1212,100.036,7.72803,-8.76162,3.58887,-0.568176,0.308197,0.57431,-0.502197,-117.15,58.775,-67.7333,-10231,-28512
1584,64782,6.40869,-21.5454,-193.97,-80.6451,-22.1869,99.9866,7.62275,-9.23535,3.5458,-0.572205,0.302032,0.577576,-0.49762,-117.675,58.3167,-67.6167,-10231,-28512
1590,64788,7.69043,-14.3433,-196.228,-80.4474,-24.2963,99.8053,7.01982,-10.3934,3.35918,-0.580444,0.289734,0.583649,-0.48822,-118.708,57.35,-67.3583,-10231,-28512
1596,64794,8.72803,-11.5356,-198.242,-80.332,-25.351,99.6844,6.52695,-10.9054,3.30654,-0.584656,0.283661,0.586426,-0.483398,-119.275,56.8083,-67.2167,-10231,-28512
1602,64800,9.64355,-9.52148,-200.5,-80.2002,-26.4056,99.5416,6.2877,-11.3073,3.14863,-0.588928,0.277618,0.589081,-0.478516,-119.842,56.2167,-67.0833,-10231,-28512
1608,64806,9.94873,-7.08008,-202.576,-80.0519,-27.4658,99.3823,6.10586,-11.5992,3.08164,-0.593231,0.271545,0.591614,-0.473511,-120.417,55.5917,-66.9833,-10231,-28512
1614,64812,10.0708,-3.84521,-203.857,-79.8981,-28.5205,99.1956,5.91445,-12.0155,3.01943,-0.597595,0.265503,0.594025,-0.468414,-121.008,54.9583,-66.875,-10231,-28512
1620,64818,9.46045,3.96729,-205.078,-79.541,-30.6134,98.7341,5.95752,-12.5467,2.78018,-0.606415,0.253571,0.598419,-0.457947,-122.2,53.6583,-66.8083,-10231,-28512
1626,64824,8.48389,9.15527,-204.041,-79.3378,-31.6351,98.4485,5.89053,-12.7477,2.62227,-0.610901,0.247803,0.600372,-0.452576,-122.767,52.9667,-66.7917,-10231,-28512
1632,64830,7.44629,14.8926,-202.026,-79.1235,-32.6349,98.1244,5.78525,-12.8673,2.42607,-0.615387,0.242188,0.602142,-0.447144,-123.358,52.25,-66.8,-10256,-28509
1638,64836,5.00488,21.4844,-198.792,-78.8873,-33.6072,97.7618,5.33066,-12.9056,2.26816,-0.619934,0.236816,0.603668,-0.44165,-123.95,51.5,-66.8,-10256,-28509
1644,64842,2.13623,27.832,-195.313,-78.6456,-34.552,97.3499,4.90957,-12.8912,2.07197,-0.624512,0.23175,0.60498,-0.436066,-124.542,50.7,-66.7833,-10256,-28509
1650,64848,-5.85938,41.0156,-188.782,-78.1238,-36.3428,96.3885,3.85684,-12.9869,1.78486,-0.633636,0.222626,0.606995,-0.424713,-125.65,49.0667,-66.775,-10256,-28509
1656,64854,-9.52148,46.814,-185.608,-77.8436,-37.1942,95.8447,3.63672,-13.0683,1.62695,-0.638214,0.218567,0.607697,-0.418915,-126.192,48.2667,-66.7833,-10256,-28509
1662,64860,-13.3057,55.1758,-183.044,-77.547,-38.0127,95.2405,3.40225,-13.1257,1.57432,-0.642822,0.214874,0.608215,-0.412994,-126.717,47.4417,-66.8167,-10256,-28509
1668,64866,-17.1509,62.8662,-178.467,-77.2339,-38.7982,94.5813,3.096,-13.1544,1.55518,-0.647461,0.211517,0.608521,-0.406982,-127.208,46.5917,-66.9,-10256,-28509
1674,64872,-18.7988,71.3501,-173.584,-76.8823,-39.5343,93.8672,2.36387,-13.2262,1.78486,-0.652161,0.208557,0.608582,-0.400909,-127.7,45.7667,-67.0167,-10256,-28509
1680,64878,-19.5313,80.3833,-155.334,-76.1078,-40.8472,92.3346,0.0334961,-13.1448,2.97637,-0.661621,0.203674,0.607758,-0.388947,-128.608,44.125,-67.2833,-10256,-28509
1686,64884,-20.813,83.1299,-139.343,-75.7123,-41.3745,91.5601,-1.14844,-14.2454,2.29688,-0.666168,0.201813,0.606995,-0.383331,-129.008,43.3167,-67.4333,-10256,-28509
1692,64890,-16.7847,83.6182,-123.718,-75.3058,-41.814,90.7965,-1.94277,-15.4226,1.61738,-0.670471,0.20047,0.605957,-0.378113,-129.392,42.5083,-67.5833,-10256,-28509
1698,64896,-9.70459,83.7402,-108.582,-74.8718,-42.171,90.0494,-2.78975,-16.0159,0.75127,-0.6745,0.199493,0.604675,-0.373474,-129.758,41.6917,-67.7167,-10256,-28509
1704,64902,-3.84521,84.1675,-94.5435,-74.4214,-42.4457,89.3134,-3.86162,-15.5613,-0.0669922,-0.681915,0.198303,0.601288,-0.366058,-130.083,40.8833,-67.8917,-10256,-28509
1710,64908,0.305176,78.5522,-76.1719,-73.537,-42.8357,87.9401,-6.97676,-14.0444,-1.38291,-0.685303,0.198029,0.599335,-0.363068,-130.642,39.3417,-68.3083,-10256,-28509
1716,64914,-1.70898,71.228,-70.6787,-73.1635,-42.9785,87.3303,-7.87637,-13.2405,-2.01455,-0.688416,0.197937,0.597412,-0.360382,-130.883,38.65,-68.5417,-10256,-28509
1722,64920,-5.79834,63.9038,-62.9272,-72.8503,-43.0884,86.781,-8.37881,-12.7572,-2.56963,-0.691193,0.197998,0.595673,-0.35791,-131.108,37.9833,-68.8,-10256,-28509
1728,64926,-10.2539,56.1523,-53.1006,-72.6141,-43.1488,86.3086,-8.82861,-12.6424,-2.92373,-0.693604,0.198334,0.594116,-0.355652,-131.292,37.3417,-69.1167,-10256,-28509
1734,64932,-14.2212,48.2178,-40.2832,-72.4603,-43.1543,85.9131,-9.24971,-12.6424,-3.03857,-0.697052,0.200043,0.591614,-0.352051,-131.467,36.75,-69.425,-10256,-28509
1740,64938,-22.583,33.8745,-10.6201,-72.3779,-42.9675,85.3693,-9.70908,-12.8051,-2.64619,-0.698059,0.201508,0.590637,-0.350891,-131.742,35.6583,-70.075,-10256,-28509
1746,64944,-25.2075,28.0762,3.479,-72.4384,-42.7753,85.2045,-10.0584,-13.2405,-2.09111,-0.698608,0.203461,0.589752,-0.350159,-131.825,35.1667,-70.3667,-10256,-28509
1752,64950,-37.4756,-0.427246,32.6538,-72.7185,-42.4841,85.2869,-1.58389,-16.5854,3.70371,-0.698761,0.20578,0.588959,-0.349854,-131.892,34.7333,-70.65,-10231,-28512
1758,64956,-104.065,67.8101,102.478,-73.1305,-41.7645,85.0616,-5.31152,-18.9588,0.483301,-0.697601,0.208771,0.588959,-0.350403,-131.942,34.3583,-70.9333,-10231,-28512
1764,64962,-52.124,60.1807,114.685,-73.3392,-40.9845,84.9078,-17.6955,-15.9824,-6.91455,-0.695435,0.223145,0.584747,-0.352875,-131.975,34.0333,-71.2083,-10231,-28512
1770,64968,-47.1191,-10.6201,144.958,-74.3225,-39.3915,85.5286,5.45029,-8.63242,3.21563,-0.692352,0.229156,0.584076,-0.356171,-132.033,33.625,-71.7083,-10231,-28512
1776,64974,-45.8374,15.5029,143.127,-74.6906,-38.5455,85.6824,4.62725,-9.98184,-0.449805,-0.689026,0.235138,0.583313,-0.359985,-132.058,33.525,-71.9,-10231,-28512
1782,64980,-46.0205,3.90625,128.906,-75.0806,-37.7985,85.8746,5.65127,-12.9726,1.40684,-0.68634,0.241394,0.581787,-0.363434,-132.058,33.5167,-72.0667,-10231,-28512
1788,64986,-36.0107,-12.207,118.225,-75.4596,-37.1228,86.1383,9.61816,-11.3839,2.94287,-0.683594,0.24704,0.580688,-0.366516,-132,33.5917,-72.2,-10231,-28512
1794,64992,-28.3203,-30.6396,121.948,-75.8606,-36.4691,86.5063,14.5182,-3.83291,-0.382813,-0.677368,0.256073,0.579803,-0.37323,-131.933,33.7583,-72.3333,-10231,-28512
1800,64998,-61.0962,55.481,136.536,-76.4264,-34.9365,86.4349,10.9484,-4.13438,0.162695,-0.675049,0.261627,0.578339,-0.375824,-131.725,34.2333,-72.5833,-10231,-28512
1806,65004,-64.7583,55.7861,147.095,-76.712,-34.0796,86.3031,6.62266,-5.22539,2.14375,-0.673279,0.268463,0.575928,-0.377869,-131.6,34.5333,-72.7333,-10231,-28512
1812,65010,-70.4956,48.4009,149.536,-77.0471,-33.2227,86.2152,4.03867,-5.95273,2.99551,-0.671295,0.275635,0.573425,-0.380096,-131.475,34.85,-72.8333,-10231,-28512
1818,65016,-82.1533,46.2036,146.179,-77.4371,-32.3932,86.1273,2.54092,-7.94814,2.95244,-0.668976,0.282867,0.571136,-0.382263,-131.333,35.2417,-72.925,-10231,-28512
1824,65022,-89.3555,46.0205,138.184,-77.8601,-31.6022,86.0229,0.387598,-16.4753,1.21543,-0.664001,0.297577,0.567322,-0.385437,-131.142,35.6667,-73.0083,-10231,-28512
1830,65028,-57.9224,34.5459,118.652,-78.5468,-30.1849,85.8856,0.966602,-17.9013,0.162695,-0.661499,0.304352,0.565765,-0.38681,-130.658,36.625,-73.075,-10231,-28512
1836,65034,-31.9214,31.7993,113.098,-78.7006,-29.5367,85.8197,1.50732,-16.3509,1.29678,-0.659393,0.310059,0.563934,-0.388489,-130.408,37.1583,-73.1083,-10231,-28512
1842,65040,-14.8315,27.5879,109.558,-78.7775,-28.9105,85.7703,1.17236,-13.7095,3.05771,-0.657654,0.314819,0.561798,-0.390656,-130.133,37.675,-73.15,-10231,-28512
1848,65046,-5.12695,12.4512,105.835,-78.8379,-28.3173,85.8032,0.746484,-11.1207,4.23965,-0.656128,0.318909,0.55954,-0.393219,-129.85,38.2167,-73.2167,-10231,-28512
1854,65052,-5.37109,0.0610352,103.943,-78.9258,-27.746,85.9021,0.717773,-8.52715,5.74219,-0.652405,0.32547,0.555908,-0.399109,-129.575,38.7833,-73.2917,-10231,-28512
1860,65058,-21.6675,-22.0947,93.5059,-79.2773,-26.7133,86.2317,0.842188,-9.84785,4.2875,-0.650208,0.328583,0.554688,-0.401855,-129.042,39.8833,-73.4,-10231,-28512
1866,65064,-18.9209,-31.0669,86.6699,-79.4916,-26.2628,86.4734,2.09111,-12.4893,2.27295,-0.647614,0.331482,0.554077,-0.40448,-128.775,40.4,-73.4333,-10190,-28517
1872,65070,-9.39941,-34.5459,82.2144,-79.6619,-25.8344,86.7261,3.90469,-12.0155,-0.90918,-0.644958,0.333954,0.553772,-0.407074,-128.517,40.8833,-73.4583,-10190,-28517
1878,65076,-3.90625,-28.0762,78.6133,-79.7882,-25.4224,86.9403,4.97656,-12.9343,-1.76572,-0.642456,0.335968,0.553467,-0.409821,-128.283,41.375,-73.45,-10190,-28517
1884,65082,9.0332,-18.8599,72.6929,-79.8267,-25.0378,87.0996,5.40723,-10.9676,-1.69873,-0.638489,0.339386,0.552032,-0.41507,-128.042,41.8667,-73.4417,-10190,-28517
1890,65088,9.76563,7.99561,60.791,-79.7772,-24.3347,87.1875,4.8665,-9.6708,-0.421094,-0.637238,0.34079,0.550873,-0.417389,-127.55,42.825,-73.3833,-10190,-28517
1896,65094,0.488281,15.8081,55.9692,-79.7772,-24.0106,87.1381,3.38789,-9.9292,0.483301,-0.636383,0.342499,0.549408,-0.41925,-127.317,43.3083,-73.3417,-10190,-28517
1902,65100,-0.0610352,13.0615,51.0864,-79.7827,-23.7085,87.0996,2.22988,-10.8001,0.712988,-0.635651,0.344452,0.547974,-0.420593,-127.092,43.75,-73.275,-10190,-28517
1908,65106,4.39453,8.42285,46.814,-79.7772,-23.4338,87.0831,2.40215,-10.2546,1.45469,-0.634949,0.346283,0.546692,-0.421814,-126.867,44.1333,-73.2583,-10190,-28517
1914,65112,-14.2822,11.5967,29.2358,-79.7882,-23.1866,87.0721,1.05752,-10.8527,1.67002,-0.633575,0.349243,0.544556,-0.424194,-126.65,44.4917,-73.2417,-10190,-28517
1920,65118,-9.15527,0.671387,23.0103,-79.9255,-22.8516,87.0227,1.90449,-10.6183,1.1293,-0.633026,0.350891,0.543915,-0.4245,-126.283,45.1667,-73.2417,-10190,-28517
1926,65124,-10.1929,0.854492,18.1274,-79.9915,-22.7252,87.0172,3.04814,-9.66602,1.04316,-0.632416,0.35202,0.543549,-0.424927,-126.1,45.4833,-73.2667,-10190,-28517
1932,65130,-12.0239,3.2959,17.2119,-80.0629,-22.6044,87.0007,3.46924,-9.19229,1.14365,-0.631866,0.353088,0.543304,-0.425201,-125.95,45.8,-73.3,-10190,-28517
1938,65136,-13.7939,3.41797,15.3809,-80.1398,-22.4945,86.9788,2.93809,-9.52246,1.37813,-0.631378,0.354187,0.54303,-0.425354,-125.8,46.0917,-73.3417,-10190,-28517
1944,65142,-11.0474,-2.13623,9.09424,-80.2167,-22.4066,86.9678,2.30645,-9.68994,2.0624,-0.630432,0.356232,0.542694,-0.425446,-125.642,46.375,-73.35,-10190,-28517
1950,65148,-10.6201,-5.18799,6.04248,-80.365,-22.2748,86.9897,2.43564,-9.54639,2.12939,-0.630005,0.357025,0.542694,-0.425476,-125.342,46.8083,-73.325,-10190,-28517
1956,65154,-10.8643,-5.79834,3.35693,-80.4364,-22.2363,87.0062,2.81846,-9.65166,2.12939,-0.629547,0.357635,0.542786,-0.425476,-125.2,47.0083,-73.2917,-10190,-28517
1962,65160,-10.1929,-7.20215,1.58691,-80.5078,-22.2034,87.0282,3.12949,-9.54639,1.86621,-0.62915,0.358185,0.542938,-0.425415,-125.075,47.1833,-73.3083,-10190,-28517
1968,65166,-10.5591,-8.48389,0.183105,-80.5847,-22.1814,87.0557,3.3209,-9.23057,1.69395,-0.628754,0.358612,0.543152,-0.425354,-124.95,47.3417,-73.3167,-10190,-28517
1974,65172,-11.5356,-9.27734,-0.854492,-80.6616,-22.1649,87.0831,3.43574,-9.23057,1.52646,-0.62793,0.359375,0.543762,-0.42514,-124.858,47.4917,-73.3417,-10190,-28517
1980,65178,-11.0474,-9.27734,-1.52588,-80.8209,-22.1429,87.149,3.43096,-9.38369,1.60303,-0.627533,0.359741,0.544098,-0.424988,-124.708,47.7917,-73.3583,-10190,-28517
1986,65184,-10.6812,-10.1318,-2.01416,-80.8923,-22.1375,87.182,3.55537,-9.29756,1.55996,-0.627136,0.360077,0.544434,-0.424835,-124.633,47.9083,-73.375,-10206,-28515
1992,65190,-10.6812,-11.6577,-1.46484,-80.9747,-22.132,87.226,3.7085,-9.13965,1.42119,-0.62677,0.360352,0.54483,-0.424713,-124.575,48.0333,-73.35,-10206,-28515
1998,65196,-10.6812,-10.9253,-2.01416,-81.0516,-22.132,87.2644,3.93818,-9.22578,1.37334,-0.626343,0.360596,0.545227,-0.424591,-124.533,48.1583,-73.3167,-10198,-28516
2004,65202,-10.9253,-10.376,-1.52588,-81.1285,-22.1265,87.3029,3.74199,-9.28799,1.30156,-0.625549,0.361115,0.546021,-0.424316,-124.492,48.2667,-73.275,-10198,-28516
2010,65208,-10.0708,-10.2539,-1.40381,-81.2769,-22.121,87.3743,3.56973,-9.35977,1.27764,-0.625153,0.361389,0.546387,-0.424164,-124.433,48.4833,-73.2083,-10198,-28516
2016,65214,-9.58252,-11.4746,-1.95313,-81.3483,-22.121,87.4182,3.67979,-9.20664,1.32549,-0.624786,0.361633,0.546753,-0.424042,-124.425,48.5917,-73.1583,-10198,-28516
2022,65220,-9.0332,-10.5591,-1.28174,-81.4142,-22.1155,87.4567,3.98604,-9.23057,1.15801,-0.62439,0.361816,0.54718,-0.42392,-124.417,48.6583,-73.075,-10198,-28516
2028,65226,-8.48389,-10.5591,-0.976563,-81.4801,-22.1155,87.4951,3.89512,-9.12529,1.00967,-0.624054,0.362,0.547516,-0.423828,-124.417,48.7,-72.9667,-10198,-28516
2034,65232,-6.65283,-9.58252,-0.305176,-81.601,-22.1045,87.5665,3.77549,-9.29277,1.05752,-0.623322,0.362366,0.548218,-0.423676,-124.417,48.75,-72.8917,-10198,-28516
2040,65238,-5.67627,-9.46045,-0.244141,-81.6504,-22.099,87.5995,3.75156,-9.32627,1.00967,-0.623016,0.362549,0.548492,-0.423615,-124.433,48.8417,-72.725,-10198,-28516
2046,65244,-4.3335,-9.33838,-0.244141,-81.6888,-22.0935,87.6324,3.84248,-9.28799,0.90918,-0.622711,0.362671,0.548767,-0.423584,-124.433,48.8917,-72.7167,-10198,-28516
2052,65250,-3.05176,-8.54492,0.183105,-81.7273,-22.088,87.6599,3.94297,-9.20664,0.866113,-0.622437,0.362762,0.549011,-0.423584,-124.433,48.9583,-72.675,-10198,-28516
2058,65256,-2.0752,-8.11768,1.15967,-81.7548,-22.077,87.6874,4.03867,-9.11572,0.741699,-0.622223,0.362854,0.549194,-0.423615,-124.45,49.0083,-72.6167,-10198,-28516
2064,65262,-0.366211,-5.43213,2.92969,-81.7932,-22.0386,87.7258,3.99561,-9.10137,0.880469,-0.621796,0.363068,0.549438,-0.423737,-124.45,49.0417,-72.5417,-10198,-28516
2070,65268,0,-5.18799,3.41797,-81.8097,-22.0166,87.7368,4.01953,-9.03916,0.899609,-0.621613,0.36319,0.549469,-0.423828,-124.417,49.0583,-72.35,-10198,-28516
2076,65274,0.488281,-4.3335,4.45557,-81.8207,-21.9891,87.7478,4.21094,-8.95781,0.90918,-0.62146,0.363312,0.549469,-0.42395,-124.417,49.075,-72.2667,-10198,-28516
2082,65280,0.0610352,-2.80762,5.61523,-81.8317,-21.9562,87.7478,4.00518,-8.93389,0.823047,-0.621307,0.363464,0.549438,-0.424072,-124.417,49.0917,-72.2,-10198,-28516
2088,65286,0,-2.2583,5.92041,-81.8427,-21.9232,87.7478,3.65107,-9.15879,1.01445,-0.621155,0.363678,0.549377,-0.424194,-124.425,49.1083,-72.1417,-10198,-28516
2094,65292,1.0376,-1.70898,5.79834,-81.8481,-21.8573,87.7478,3.67979,-8.93389,1.33027,-0.620911,0.364136,0.549164,-0.424469,-124.433,49.1417,-72.1083,-10198,-28516
2100,65298,0.0610352,-1.77002,6.04248,-81.8591,-21.8243,87.7423,3.73721,-8.82861,1.34463,-0.620819,0.364349,0.549042,-0.424591,-124.458,49.2583,-72.0167,-10206,-28515
2106,65304,-0.610352,-1.40381,6.40869,-81.8701,-21.7859,87.7368,3.66064,-8.89082,1.36377,-0.620697,0.364594,0.54892,-0.424713,-124.425,49.2917,-71.9917,-10206,-28515
2112,65310,-1.52588,-1.34277,6.83594,-81.8866,-21.7474,87.7368,3.68936,-8.90518,1.38291,-0.620575,0.364868,0.548798,-0.424805,-124.4,49.325,-71.9583,-10206,-28515
2118,65316,-1.77002,-0.549316,6.95801,-81.8976,-21.709,87.7258,3.62715,-8.98652,1.30635,-0.620422,0.365143,0.548706,-0.424896,-124.4,49.3667,-71.9167,-10206,-28515
2124,65322,-2.01416,-1.15967,7.01904,-81.9305,-21.6321,87.7203,3.63193,-9.08223,1.18672,-0.620148,0.365784,0.548462,-0.425079,-124.4,49.3917,-71.8833,-10206,-28515
2130,65328,-1.52588,-1.34277,7.32422,-81.947,-21.5936,87.7148,3.70371,-9.07744,1.15322,-0.619995,0.366089,0.54837,-0.42514,-124.383,49.45,-71.85,-10206,-28515
2136,65334,-1.2207,-1.52588,7.69043,-81.958,-21.5552,87.7148,3.8042,-9.02959,1.09102,-0.619843,0.366394,0.548279,-0.425232,-124.392,49.4917,-71.8083,-10206,-28515
2142,65340,-1.64795,-1.83105,8.23975,-81.9745,-21.5167,87.7148,3.74678,-8.99131,1.16758,-0.61969,0.366669,0.548157,-0.425354,-124.392,49.5333,-71.7917,-10206,-28515
2148,65346,-1.52588,-2.50244,8.23975,-81.991,-21.4728,87.7148,3.675,-9.04873,1.225,-0.619507,0.367004,0.548065,-0.425507,-124.383,49.5667,-71.775,-10206,-28515
2154,65352,-1.40381,-3.23486,8.42285,-82.0294,-21.3904,87.7313,3.65107,-9.02002,1.1293,-0.61911,0.367584,0.547882,-0.425781,-124.375,49.6333,-71.7083,-10206,-28515
2160,65358,-1.40381,-3.41797,9.21631,-82.0459,-21.3464,87.7423,3.6415,-9.00088,1.11016,-0.618896,0.367859,0.547821,-0.425964,-124.375,49.6833,-71.6667,-10206,-28515
2166,65364,-1.40381,-4.08936,9.33838,-82.0679,-21.3025,87.7533,3.71328,-9.02959,1.13408,-0.618683,0.368134,0.547729,-0.426147,-124.358,49.725,-71.6083,-10206,-28515
2172,65370,-1.83105,-4.3335,9.52148,-82.0898,-21.2531,87.7698,3.82813,-9.00088,1.11973,-0.618439,0.368408,0.547668,-0.426331,-124.358,49.7667,-71.5417,-10206,-28515
2178,65376,-2.19727,-3.60107,10.5591,-82.1118,-21.2036,87.7808,3.7707,-9.01045,1.15801,-0.618164,0.368683,0.547638,-0.426514,-124.35,49.825,-71.45,-10206,-28515
2184,65382,-3.35693,-3.90625,9.76563,-82.1667,-21.1102,87.7972,3.32568,-9.14443,1.22979,-0.617645,0.369385,0.547485,-0.42688,-124.325,49.8917,-71.325,-10206,-28515
2190,65388,-2.99072,-4.02832,9.64355,-82.1942,-21.0663,87.8137,3.27305,-9.17793,1.29678,-0.617371,0.36972,0.547455,-0.427032,-124.3,49.9333,-71.2917,-10206,-28515
2196,65394,-3.17383,-4.21143,8.36182,-82.2217,-21.0278,87.8247,3.31133,-9.12529,1.26328,-0.617096,0.370026,0.547394,-0.427185,-124.292,49.9833,-71.275,-10206,-28515
2202,65400,-3.17383,-5.18799,8.05664,-82.2491,-20.9894,87.8412,3.3209,-9.17314,1.24414,-0.616821,0.370331,0.547394,-0.427338,-124.283,50.025,-71.2667,-10206,-28515
