TimeSinceCollection,Timestamp,AngularVelX,AngularVelY,AngularVelZ,AngleRoll,AnglePitch,AngleYaw,AccX,AccY,AccZ,Q1,Q2,Q3,Q4,MagX,MagY,MagZ,Height,Airpressure
0,1107148,-1.15967,0,-0.488281,-87.8796,-6.56982,-177.308,0.143555,-9.99619,1.08145,0.0228882,0.0574951,-0.691589,0.719574,-106.533,83.3583,-9.51667,-7325,-28864
6,1107154,-0.549316,0.244141,-0.488281,-87.8741,-6.54785,-177.149,0.0813477,-9.99141,1.10059,0.021759,0.0583496,-0.691498,0.719604,-106.542,83.325,-9.56667,-7325,-28864
12,1107160,0.12207,0.244141,-0.12207,-87.8687,-6.52588,-176.984,0.124414,-9.96748,1.13887,0.0205994,0.0591736,-0.691376,0.719696,-106.558,83.2917,-9.58333,-7325,-28864
18,1107166,0.915527,0.183105,-0.0610352,-87.8522,-6.48193,-176.66,0.153125,-9.9292,1.225,0.0194397,0.0599976,-0.691254,0.719788,-106.558,83.2333,-9.575,-7325,-28864
24,1107172,1.0376,0.366211,0.366211,-87.8412,-6.45447,-176.501,0.172266,-9.86221,1.22979,0.0171204,0.0616455,-0.690979,0.719971,-106.567,83.225,-9.53333,-7325,-28864
30,1107178,1.2207,0.366211,0.488281,-87.8302,-6.427,-176.342,0.105273,-9.84785,1.20586,0.0159607,0.062439,-0.690826,0.720062,-106.575,83.225,-9.49167,-7325,-28864
36,1107184,1.34277,0.610352,0.854492,-87.8192,-6.39954,-176.188,0.0478516,-9.84307,1.21543,0.0147705,0.0632324,-0.690704,0.720154,-106.6,83.2417,-9.475,-7325,-28864
42,1107190,1.46484,0.549316,0.915527,-87.8027,-6.37207,-176.028,0.105273,-9.75693,1.28242,0.0136108,0.0640259,-0.690521,0.720245,-106.6,83.2583,-9.5,-7325,-28864
48,1107196,1.46484,0.793457,0.793457,-87.7753,-6.32263,-175.715,0.0669922,-9.75215,1.31113,0.0124512,0.0647888,-0.690369,0.720367,-106.592,83.275,-9.51667,-7325,-28864
54,1107202,1.40381,0.671387,0.610352,-87.7643,-6.29517,-175.562,0.0430664,-9.77607,1.2585,0.0101624,0.0663452,-0.690063,0.720551,-106.592,83.2583,-9.55833,-7325,-28864
60,1107208,1.40381,0.305176,0.366211,-87.7533,-6.27319,-175.402,0.062207,-9.73779,1.28721,0.0090332,0.0671387,-0.689911,0.720642,-106.583,83.2417,-9.59167,-7325,-28864
66,1107214,1.46484,0.488281,0.610352,-87.7368,-6.24573,-175.248,0.0430664,-9.68037,1.33506,0.00790405,0.0679321,-0.689758,0.720734,-106.592,83.2333,-9.56667,-7325,-28864
72,1107220,1.46484,0.732422,0.671387,-87.7258,-6.21826,-175.095,0.0957031,-9.64688,1.42598,0.00674438,0.0686951,-0.689575,0.720825,-106.6,83.2167,-9.55833,-7325,-28864
78,1107226,0.488281,0.305176,0.549316,-87.7039,-6.16882,-174.781,0.13877,-9.58467,1.49775,0.00448608,0.0702515,-0.689301,0.720978,-106.608,83.1917,-9.51667,-7325,-28864
84,1107232,-0.183105,0.671387,0.671387,-87.6984,-6.14685,-174.628,-0.0143555,-9.71865,1.28721,0.00335693,0.0710144,-0.689178,0.721008,-106.633,83.2,-9.53333,-7325,-28864
90,1107238,0,0.366211,0.671387,-87.6929,-6.11938,-174.474,0.00957031,-9.71865,1.29199,0.00222778,0.0717773,-0.689056,0.721069,-106.65,83.2167,-9.56667,-7325,-28864
96,1107244,0.0610352,0.305176,0.549316,-87.6874,-6.09741,-174.32,0.0382813,-9.72822,1.32549,0.00109863,0.0725403,-0.688934,0.7211,-106.675,83.2417,-9.60833,-7325,-28864
102,1107250,-0.0610352,0.366211,0.12207,-87.6819,-6.06995,-174.166,0.0765625,-9.74736,1.27764,0,0.0733337,-0.688812,0.721161,-106.683,83.2917,-9.68333,-7325,-28864
108,1107256,0.0610352,0.427246,0.183105,-87.6654,-6.026,-173.859,0.062207,-9.8,1.24414,-0.00216675,0.0748596,-0.688568,0.721222,-106.692,83.3167,-9.85,-7325,-28864
114,1107262,0.244141,0.488281,0.0610352,-87.6599,-6.00403,-173.71,0.13877,-9.93398,1.16758,-0.00326538,0.0756531,-0.688416,0.721283,-106.7,83.325,-9.925,-7325,-28864
120,1107268,0.610352,0.366211,0.305176,-87.6489,-5.98206,-173.557,0.124414,-10.001,1.0958,-0.00436401,0.076416,-0.688293,0.721313,-106.717,83.325,-9.99167,-7325,-28864
126,1107274,1.0376,0.488281,0.427246,-87.6379,-5.95459,-173.408,0.100488,-9.97227,1.14844,-0.00546265,0.077179,-0.68811,0.721375,-106.708,83.325,-10.025,-7325,-28864
132,1107280,1.70898,0.732422,0.488281,-87.6215,-5.93262,-173.26,0.0287109,-9.78086,1.28242,-0.00656128,0.0779114,-0.687958,0.721466,-106.708,83.325,-10.0167,-7325,-28864
138,1107286,1.89209,0.366211,0.488281,-87.5885,-5.88318,-172.958,0.0813477,-9.64209,1.40205,-0.00875854,0.0794067,-0.687561,0.721649,-106.708,83.3083,-9.90833,-7325,-28864
144,1107292,1.46484,0.610352,0.366211,-87.5775,-5.86121,-172.809,0,-9.66123,1.36855,-0.00985718,0.0801392,-0.687378,0.72171,-106.708,83.3,-9.81667,-7325,-28864
150,1107298,1.2207,0.488281,0.12207,-87.561,-5.83923,-172.661,0.0478516,-9.70908,1.33506,-0.0109253,0.0809021,-0.687225,0.721771,-106.725,83.3167,-9.775,-7325,-28864
156,1107304,0.915527,0.427246,0.0610352,-87.55,-5.81726,-172.513,0.0239258,-9.68516,1.32549,-0.0120239,0.081665,-0.687073,0.721832,-106.708,83.3083,-9.775,-7325,-28864
162,1107310,0.915527,0.305176,0.0610352,-87.5391,-5.79529,-172.365,-0.0478516,-9.67559,1.3542,-0.013092,0.0823975,-0.68689,0.721863,-106.675,83.3,-9.78333,-7325,-28864
168,1107316,0.671387,0.305176,-0.549316,-87.5171,-5.75684,-172.068,0.0334961,-9.68037,1.36855,-0.0151978,0.0839233,-0.686584,0.721954,-106.642,83.3167,-9.83333,-7325,-28864
174,1107322,0.488281,0.244141,-0.244141,-87.5116,-5.73486,-171.92,0.0239258,-9.63731,1.40684,-0.0162659,0.0846863,-0.686432,0.721985,-106.625,83.325,-9.83333,-7325,-28864
180,1107328,0.183105,0.12207,-0.366211,-87.5006,-5.71289,-171.771,0.0191406,-9.63731,1.37334,-0.017334,0.0854492,-0.686279,0.722015,-106.625,83.3417,-9.84167,-7325,-28864
186,1107334,0,0.0610352,-0.671387,-87.4951,-5.69641,-171.623,-0.00957031,-9.65166,1.34463,-0.0183716,0.0862122,-0.686127,0.722046,-106.633,83.3667,-9.85833,-7325,-28864
192,1107340,-0.183105,0,-1.15967,-87.4841,-5.67993,-171.48,-0.0143555,-9.63252,1.31592,-0.0193787,0.0869751,-0.686005,0.722046,-106.608,83.3917,-9.86667,-7325,-28864
198,1107346,-0.305176,-0.12207,-1.15967,-87.4731,-5.64697,-171.183,0.0669922,-9.6708,1.3877,-0.0214539,0.088562,-0.68573,0.722076,-106.6,83.4417,-9.85833,-7325,-28864
204,1107352,-0.854492,-0.12207,-1.28174,-87.4731,-5.63599,-171.035,0.0430664,-9.72344,1.33984,-0.0224609,0.089325,-0.685608,0.722046,-106.583,83.45,-9.8,-7325,-28864
210,1107358,-1.0376,0,-1.34277,-87.4677,-5.61951,-170.892,0.0334961,-9.76172,1.29678,-0.023468,0.0901184,-0.685486,0.722046,-106.567,83.45,-9.75,-7325,-28864
216,1107364,-0.915527,-0.305176,-1.40381,-87.4677,-5.60852,-170.744,0.0430664,-9.78564,1.27285,-0.0244751,0.0909119,-0.685364,0.722015,-106.55,83.4583,-9.7,-7325,-28864
222,1107370,-0.610352,-0.183105,-1.40381,-87.4622,-5.59204,-170.601,0.114844,-9.79521,1.28721,-0.0254822,0.0917053,-0.685242,0.722015,-106.533,83.4583,-9.675,-7325,-28864
228,1107376,-0.793457,0,-1.83105,-87.4567,-5.57007,-170.31,0.062207,-9.76172,1.26807,-0.0274658,0.0932922,-0.684967,0.721985,-106.492,83.4417,-9.8,-7325,-28864
234,1107382,-0.488281,0.0610352,-1.34277,-87.4512,-5.55359,-170.167,0.0669922,-9.74258,1.36855,-0.0284424,0.0940552,-0.684845,0.721985,-106.483,83.4083,-9.875,-7325,-28864
240,1107388,-0.915527,0,-1.70898,-87.4457,-5.5426,-170.024,0.110059,-9.77607,1.34463,-0.0294189,0.0948181,-0.684692,0.721954,-106.467,83.3667,-9.93333,-7325,-28864
246,1107394,-1.09863,-0.183105,-1.64795,-87.4457,-5.53162,-169.876,0.267969,-9.91963,1.26807,-0.0303955,0.0956116,-0.68457,0.721924,-106.483,83.3167,-9.98333,-7325,-28864
252,1107400,-0.793457,0.305176,-1.15967,-87.4402,-5.51514,-169.739,0.162695,-9.93877,1.17236,-0.0314026,0.0963745,-0.684448,0.721893,-106.492,83.2667,-9.99167,-7325,-28864
258,1107406,-0.0610352,0.12207,-0.793457,-87.4292,-5.48767,-169.453,0.062207,-9.7043,1.3207,-0.0333557,0.0978699,-0.684174,0.721893,-106.575,83.2167,-9.975,-7325,-28864
264,1107412,-0.0610352,-0.0610352,-0.976563,-87.4237,-5.47119,-169.31,0.196191,-9.74258,1.37813,-0.0343628,0.0986023,-0.684021,0.721863,-106.608,83.225,-9.98333,-7325,-28864
270,1107418,-0.549316,0.12207,-0.793457,-87.4182,-5.45471,-169.173,0.253613,-9.88613,1.27285,-0.0353394,0.0993347,-0.683868,0.721863,-106.65,83.225,-9.975,-7325,-28864
276,1107424,-0.915527,0.244141,-0.366211,-87.4182,-5.43823,-169.03,0.100488,-9.91484,1.16758,-0.0363464,0.100067,-0.683746,0.721832,-106.683,83.2417,-9.975,-7325,-28864
282,1107430,-0.0610352,0,-0.183105,-87.4127,-5.41626,-168.893,0.0382813,-9.8335,1.225,-0.037323,0.100769,-0.683624,0.721802,-106.7,83.2667,-9.975,-7325,-28864
288,1107436,0,0.12207,-0.244141,-87.3962,-5.3833,-168.613,0.090918,-9.71387,1.3542,-0.0393066,0.102203,-0.683289,0.721802,-106.683,83.35,-9.95833,-7325,-28864
294,1107442,-0.12207,0.0610352,-0.366211,-87.3907,-5.36133,-168.475,0.114844,-9.71387,1.30635,-0.0403137,0.102936,-0.683136,0.721802,-106.683,83.3917,-9.95,-7325,-28864
300,1107448,-0.366211,0.366211,-0.549316,-87.3798,-5.34485,-168.338,0.0717773,-9.78086,1.29199,-0.0412598,0.103638,-0.683014,0.721771,-106.658,83.4333,-9.95,-7325,-28864
306,1107454,-0.427246,0.12207,-0.305176,-87.3743,-5.32837,-168.201,0.062207,-9.77129,1.24893,-0.0422363,0.10434,-0.682861,0.721741,-106.642,83.4583,-9.95,-7325,-28864
312,1107460,-0.305176,0.12207,-0.366211,-87.3633,-5.29541,-167.926,0.062207,-9.78564,1.27764,-0.0432129,0.105072,-0.682709,0.721741,-106.642,83.4833,-9.91667,-7325,-28864
318,1107466,-0.305176,0.0610352,-0.732422,-87.3578,-5.27893,-167.789,0.110059,-9.75693,1.30635,-0.045166,0.106476,-0.682404,0.72168,-106.642,83.4917,-9.91667,-7325,-28864
324,1107472,-0.366211,0.244141,-0.793457,-87.3523,-5.26794,-167.651,0.090918,-9.73779,1.29678,-0.0461121,0.107208,-0.682251,0.721649,-106.642,83.4917,-9.93333,-7325,-28864
330,1107478,-0.183105,0.183105,-0.671387,-87.3468,-5.25146,-167.52,0.0765625,-9.74258,1.29678,-0.0470581,0.10791,-0.682098,0.721649,-106.65,83.4917,-9.98333,-7325,-28864
336,1107484,-0.366211,0.183105,-0.671387,-87.3413,-5.23499,-167.382,0.0861328,-9.74736,1.32549,-0.0480042,0.108612,-0.681946,0.721619,-106.65,83.5,-10.0083,-7325,-28864
342,1107490,-0.427246,0.244141,-0.854492,-87.3248,-5.20203,-167.113,0.0765625,-9.73779,1.3207,-0.0489807,0.109314,-0.681793,0.721588,-106.667,83.5,-10.0333,-7325,-28864
348,1107496,-0.366211,0.12207,-1.15967,-87.3193,-5.19104,-166.976,0.0669922,-9.70908,1.33506,-0.0508423,0.110748,-0.681488,0.721527,-106.708,83.5083,-10.0917,-7325,-28864
354,1107502,-0.610352,0.0610352,-1.15967,-87.3138,-5.18005,-166.844,0.090918,-9.67559,1.33984,-0.0517578,0.11145,-0.681335,0.721497,-106.725,83.4917,-10.0833,-7325,-28864
360,1107508,-0.427246,0.183105,-1.2207,-87.3083,-5.16357,-166.712,0.0717773,-9.63252,1.37813,-0.0527039,0.112152,-0.681183,0.721466,-106.742,83.45,-10.0583,-7325,-28864
366,1107514,-0.549316,0.488281,-1.40381,-87.3029,-5.15259,-166.58,0.0574219,-9.67559,1.3542,-0.0535889,0.112854,-0.68103,0.721436,-106.75,83.4167,-10.0333,-7325,-28864
372,1107520,-0.915527,0.12207,-1.58691,-87.2974,-5.13062,-166.317,0.0861328,-9.79521,1.27764,-0.0545044,0.113586,-0.680878,0.721405,-106.742,83.4,-10.0167,-7325,-28864
378,1107526,-0.915527,0.488281,-1.40381,-87.2919,-5.11963,-166.185,0.220117,-9.94834,1.15322,-0.0563049,0.11499,-0.680603,0.721313,-106.742,83.4,-10,-7325,-28864
384,1107532,-0.488281,0.244141,-1.34277,-87.2864,-5.10864,-166.053,0.354102,-10.1589,1.09102,-0.0571899,0.115692,-0.68045,0.721283,-106.75,83.3833,-9.975,-7325,-28864
390,1107538,0.0610352,0.305176,-0.915527,-87.2754,-5.09216,-165.921,0.339746,-10.202,0.976172,-0.0581055,0.116394,-0.680267,0.721252,-106.775,83.375,-9.925,-7325,-28864
396,1107544,0.976563,0.854492,0.183105,-87.2644,-5.07568,-165.795,0.0957031,-10.0632,1.05752,-0.0590515,0.117004,-0.680084,0.721252,-106.792,83.375,-9.90833,-7325,-28864
402,1107550,2.50244,0.732422,0.183105,-87.226,-5.03723,-165.542,0.0813477,-9.81436,1.2585,-0.059967,0.117645,-0.679871,0.721283,-106.817,83.3833,-9.875,-7325,-28864
408,1107556,2.19727,0.854492,0.366211,-87.2095,-5.01526,-165.416,0.143555,-9.6708,1.43076,-0.0618286,0.118896,-0.679382,0.721375,-106.858,83.4083,-9.875,-7325,-28864
414,1107562,1.46484,0.671387,0.366211,-87.193,-4.99878,-165.284,0.16748,-9.75215,1.40205,-0.0627747,0.119507,-0.679169,0.721375,-106.85,83.4167,-9.875,-7325,-28864
420,1107568,1.28174,0.793457,0.610352,-87.1765,-4.97681,-165.157,0.114844,-9.71865,1.33984,-0.0636902,0.120148,-0.678986,0.721375,-106.858,83.425,-9.90833,-7325,-28864
426,1107574,0.915527,0.793457,0.488281,-87.1655,-4.96033,-165.031,0.0813477,-9.74736,1.33984,-0.0646362,0.120758,-0.678772,0.721375,-106.85,83.425,-9.93333,-7325,-28864
432,1107580,0.915527,0.732422,0.366211,-87.1381,-4.92188,-164.784,0.0430664,-9.7043,1.27764,-0.0655518,0.121368,-0.678589,0.721375,-106.825,83.4333,-9.96667,-7325,-28864
438,1107586,0.915527,0.671387,0.183105,-87.1271,-4.8999,-164.658,0.100488,-9.66123,1.35898,-0.0673828,0.122589,-0.678192,0.721375,-106.817,83.425,-9.98333,-7325,-28864
444,1107592,0.976563,0.610352,0.183105,-87.1106,-4.88342,-164.531,0.062207,-9.67559,1.35898,-0.0682983,0.12323,-0.678009,0.721344,-106.817,83.425,-9.95,-7325,-28864
450,1107598,0.549316,0.366211,-0.12207,-87.0996,-4.86694,-164.405,0.0717773,-9.70908,1.33506,-0.0692139,0.123871,-0.677826,0.721344,-106.817,83.4083,-9.91667,-7325,-28864
456,1107604,0.427246,0.244141,-0.183105,-87.0886,-4.85046,-164.279,0.0382813,-9.7043,1.2585,-0.0700989,0.124512,-0.677643,0.721313,-106.817,83.3917,-9.89167,-7325,-28864
462,1107610,0.549316,0.305176,-0.366211,-87.0667,-4.8175,-164.031,0.0861328,-9.76172,1.28721,-0.0710144,0.125122,-0.67746,0.721283,-106.842,83.3583,-9.84167,-7325,-28864
468,1107616,0.610352,0.366211,-0.366211,-87.0557,-4.80652,-163.905,0.0574219,-9.74736,1.29678,-0.0727844,0.126404,-0.677063,0.721252,-106.867,83.325,-9.85,-7317,-28865
474,1107622,0.671387,0.488281,-0.793457,-87.0447,-4.79004,-163.779,0.0669922,-9.73301,1.31113,-0.0736389,0.127045,-0.67688,0.721222,-106.875,83.3167,-9.85,-7317,-28865
480,1107628,0.488281,0.244141,-0.671387,-87.0337,-4.77905,-163.658,0.0717773,-9.73779,1.30156,-0.0745239,0.127686,-0.676666,0.721191,-106.892,83.3,-9.84167,-7325,-28864
486,1107634,0.610352,0.244141,-1.0376,-87.0227,-4.76807,-163.531,0.0717773,-9.66123,1.30635,-0.0753784,0.128357,-0.676483,0.721191,-106.883,83.2833,-9.80833,-7325,-28864
492,1107640,0.366211,0.183105,-1.15967,-87.0007,-4.7406,-163.284,0.0813477,-9.69473,1.36855,-0.0762634,0.128998,-0.6763,0.721161,-106.85,83.2583,-9.75,-7325,-28864
498,1107646,0.488281,0.244141,-1.64795,-86.9897,-4.73511,-163.163,0.0143555,-9.61816,1.38291,-0.0779419,0.13031,-0.675903,0.7211,-106.85,83.2583,-9.775,-7325,-28864
504,1107652,0.610352,0,-1.15967,-86.9788,-4.72412,-163.037,0.114844,-9.58467,1.45947,-0.0787964,0.130981,-0.67569,0.721069,-106.833,83.25,-9.83333,-7325,-28864
510,1107658,-0.0610352,0.12207,-1.64795,-86.9733,-4.71313,-162.916,0.0717773,-9.58467,1.43555,-0.0796509,0.131622,-0.675507,0.721039,-106.825,83.2583,-9.89167,-7325,-28864
516,1107664,-0.244141,0.0610352,-1.89209,-86.9623,-4.70764,-162.79,0.0334961,-9.59424,1.39727,-0.0804749,0.132294,-0.675323,0.721008,-106.825,83.2667,-9.93333,-7325,-28864
522,1107670,-1.09863,-0.12207,-2.38037,-86.9568,-4.69666,-162.548,0.0813477,-9.64688,1.33984,-0.0812683,0.132996,-0.675171,0.720947,-106.842,83.2667,-10.0417,-7325,-28864
528,1107676,-0.976563,-0.244141,-2.44141,-86.9513,-4.69116,-162.422,0.172266,-9.77129,1.3207,-0.0828857,0.134369,-0.674835,0.720795,-106.867,83.275,-10.1167,-7325,-28864
534,1107682,-1.70898,-0.305176,-2.92969,-86.9513,-4.69116,-162.301,0.449805,-10.0823,1.22021,-0.0836487,0.135101,-0.674713,0.720703,-106.892,83.2667,-10.1583,-7325,-28864
540,1107688,-1.52588,0.12207,-2.13623,-86.9513,-4.68567,-162.18,0.282324,-10.1015,1.04795,-0.0844421,0.135773,-0.674561,0.720612,-106.9,83.25,-10.175,-7325,-28864
546,1107694,-0.915527,0.488281,-1.34277,-86.9458,-4.67468,-162.059,0.248828,-10.1206,1.04795,-0.0852661,0.136383,-0.674408,0.720551,-106.9,83.2333,-10.175,-7325,-28864
552,1107700,0.854492,0.549316,-0.549316,-86.9238,-4.65271,-161.823,0.210547,-9.97227,1.17236,-0.0860901,0.137024,-0.674225,0.72049,-106.9,83.1917,-10.1083,-7325,-28864
558,1107706,0.854492,-0.183105,0,-86.9128,-4.63623,-161.702,0.693848,-10.4795,0.957031,-0.0877991,0.138245,-0.673798,0.720459,-106.883,83.1833,-10.1167,-7325,-28864
564,1107712,1.77002,1.34277,1.58691,-86.8964,-4.61426,-161.587,0.196191,-10.3694,0.913965,-0.0886536,0.138763,-0.673584,0.720459,-106.892,83.1667,-10.1,-7325,-28864
570,1107718,3.35693,1.77002,2.2583,-86.8689,-4.58679,-161.477,0.133984,-9.92441,1.18672,-0.0895691,0.139221,-0.67334,0.72049,-106.883,83.1583,-10.0667,-7325,-28864
576,1107724,4.45557,1.09863,2.80762,-86.8414,-4.55933,-161.362,-0.0526367,-9.57031,1.47861,-0.0904846,0.139709,-0.673035,0.720551,-106.883,83.1333,-10.0417,-7325,-28864
582,1107730,3.05176,1.09863,1.95313,-86.7865,-4.50989,-161.136,0.0526367,-9.54639,1.51211,-0.0913696,0.140167,-0.67276,0.720612,-106.933,83.125,-10.0917,-7317,-28865
588,1107736,2.31934,1.15967,2.01416,-86.7645,-4.48242,-161.027,0.133984,-9.56553,1.43555,-0.0931702,0.141174,-0.672272,0.720673,-106.942,83.1167,-10.125,-7317,-28865
594,1107742,1.89209,0.915527,2.0752,-86.748,-4.46045,-160.911,0.0430664,-9.69951,1.41162,-0.0940552,0.141663,-0.672028,0.720673,-106.95,83.1333,-10.2083,-7317,-28865
600,1107748,1.34277,1.09863,1.46484,-86.7316,-4.43848,-160.796,-0.0478516,-9.72344,1.20586,-0.0949097,0.142181,-0.671814,0.720642,-106.958,83.1333,-10.2833,-7317,-28865
606,1107754,1.52588,1.09863,1.34277,-86.7151,-4.4165,-160.686,-0.0430664,-9.78564,1.28242,-0.0957642,0.14267,-0.6716,0.720612,-106.975,83.1167,-10.3083,-7317,-28865
612,1107760,1.95313,0.488281,0.854492,-86.6821,-4.37805,-160.455,0.062207,-9.73301,1.28242,-0.0966187,0.143219,-0.671387,0.720612,-107.042,83.125,-10.375,-7317,-28865
618,1107766,2.01416,0.427246,0.671387,-86.6656,-4.35608,-160.34,0.0334961,-9.7043,1.32549,-0.0983276,0.144287,-0.670929,0.720612,-107.075,83.125,-10.3917,-7317,-28865
624,1107772,1.89209,0.488281,0.366211,-86.6437,-4.3396,-160.23,0.0669922,-9.73779,1.3207,-0.0991516,0.144836,-0.670685,0.720612,-107.108,83.15,-10.425,-7317,-28865
630,1107778,1.64795,0.366211,0.366211,-86.6272,-4.32312,-160.115,0.062207,-9.73301,1.31113,-0.100006,0.145386,-0.670471,0.720581,-107.125,83.1667,-10.45,-7317,-28865
636,1107784,1.77002,0.366211,0.12207,-86.6107,-4.31213,-159.999,0.090918,-9.75215,1.3207,-0.10083,0.145935,-0.670227,0.720581,-107.133,83.1583,-10.45,-7317,-28865
642,1107790,1.95313,0.183105,-0.0610352,-86.5778,-4.27917,-159.774,0.124414,-9.73301,1.33984,-0.101654,0.146484,-0.669983,0.720551,-107.142,83.175,-10.4083,-7317,-28865
648,1107796,1.64795,0.244141,0.0610352,-86.5613,-4.2627,-159.659,0.0861328,-9.82393,1.3207,-0.103302,0.147614,-0.669525,0.72052,-107.15,83.1833,-10.3833,-7317,-28865
654,1107802,1.58691,0.244141,-0.0610352,-86.5448,-4.25171,-159.549,0.0861328,-9.86699,1.22979,-0.104095,0.148163,-0.669281,0.72052,-107.158,83.1917,-10.3583,-7317,-28865
660,1107808,1.95313,0.12207,0.12207,-86.5283,-4.23523,-159.434,0.119629,-9.87656,1.29678,-0.104919,0.148712,-0.669067,0.72049,-107.167,83.225,-10.3583,-7317,-28865
666,1107814,2.44141,0.183105,0,-86.5063,-4.21875,-159.318,0.129199,-9.77607,1.3877,-0.105743,0.149261,-0.668793,0.72049,-107.175,83.2417,-10.375,-7317,-28865
672,1107820,2.0752,0.12207,0.183105,-86.4679,-4.19128,-159.093,0.15791,-9.72344,1.41162,-0.106567,0.149811,-0.668549,0.72052,-107.167,83.2917,-10.4333,-7317,-28865
678,1107826,2.19727,0.488281,0.0610352,-86.4459,-4.1748,-158.983,0.0765625,-9.72344,1.36377,-0.108185,0.150909,-0.66806,0.72049,-107.167,83.2917,-10.425,-7317,-28865
684,1107832,2.38037,0.427246,0.366211,-86.4294,-4.16382,-158.873,0.14834,-9.65645,1.47861,-0.109009,0.151428,-0.667816,0.72049,-107.15,83.2917,-10.4167,-7317,-28865
690,1107838,2.19727,0.12207,0.183105,-86.4075,-4.14734,-158.763,0.172266,-9.58945,1.54561,-0.109833,0.151978,-0.667542,0.72049,-107.15,83.2917,-10.4083,-7317,-28865
696,1107844,1.77002,0.305176,0.305176,-86.391,-4.13086,-158.654,0.114844,-9.5751,1.4834,-0.110626,0.152496,-0.667328,0.720459,-107.125,83.2917,-10.4,-7317,-28865
702,1107850,1.0376,0.488281,0,-86.3635,-4.10339,-158.434,0.0574219,-9.65645,1.40684,-0.11142,0.153015,-0.667114,0.720428,-107.1,83.2833,-10.4,-7317,-28865
708,1107856,0.793457,0,0.12207,-86.347,-4.08691,-158.324,0.062207,-9.49854,1.56953,-0.113007,0.154083,-0.666687,0.720337,-107.083,83.2833,-10.425,-7317,-28865
714,1107862,0.854492,0.366211,-0.244141,-86.3361,-4.07593,-158.22,0.0574219,-9.40283,1.55039,-0.1138,0.154633,-0.666473,0.720306,-107.067,83.275,-10.4583,-7325,-28864
720,1107868,-0.12207,0.183105,-0.366211,-86.3251,-4.05945,-158.11,0.124414,-9.58945,1.50732,-0.114563,0.155182,-0.66629,0.720245,-107.05,83.2833,-10.4667,-7325,-28864
726,1107874,-0.854492,0.488281,-0.549316,-86.3196,-4.04846,-158,0.181836,-9.88613,1.32549,-0.115295,0.155731,-0.666138,0.720154,-107.05,83.2833,-10.4833,-7325,-28864
732,1107880,-0.671387,0.366211,-0.0610352,-86.3141,-4.02649,-157.786,0.339746,-10.1732,1.14844,-0.116791,0.156799,-0.665802,0.719971,-107.092,83.2917,-10.425,-7325,-28864
738,1107886,0.366211,0.732422,0.610352,-86.3031,-4.01001,-157.681,0.239258,-10.2689,1.04795,-0.117584,0.157318,-0.665619,0.71991,-107.117,83.3,-10.4167,-7325,-28864
744,1107892,1.2207,0.671387,1.34277,-86.2866,-3.98804,-157.577,0.186621,-10.2307,1.02402,-0.118378,0.157776,-0.665405,0.719879,-107.133,83.3167,-10.4083,-7325,-28864
750,1107898,2.01416,1.34277,1.46484,-86.2701,-3.97156,-157.473,0.397168,-10.5848,0.92832,-0.119171,0.158234,-0.665192,0.719849,-107.133,83.3417,-10.4083,-7325,-28864
756,1107904,2.86865,0.488281,2.19727,-86.2482,-3.94409,-157.368,0.789551,-11.0537,0.655566,-0.119995,0.158661,-0.664917,0.719849,-107.133,83.3667,-10.4417,-7325,-28864
762,1107910,7.8125,2.44141,5.12695,-86.1658,-3.87817,-157.17,0.440234,-11.0585,0.45459,-0.121765,0.159302,-0.664246,0.720032,-107.108,83.4167,-10.5,-7325,-28864
768,1107916,10.6812,2.0752,5.92041,-86.1053,-3.83423,-157.072,0.186621,-10.3359,1.1293,-0.122711,0.159546,-0.663818,0.720245,-107.1,83.4083,-10.5417,-7325,-28864
774,1107922,12.0239,2.13623,6.7749,-86.0394,-3.79028,-156.973,0.0334961,-9.93877,1.41641,-0.123657,0.15979,-0.66333,0.720459,-107.092,83.4167,-10.5833,-7325,-28864
780,1107928,12.8784,2.44141,6.22559,-85.968,-3.75183,-156.879,0.244043,-9.97227,1.62695,-0.124634,0.160004,-0.662811,0.720734,-107.092,83.4333,-10.625,-7325,-28864
786,1107934,12.0239,1.70898,6.83594,-85.9021,-3.70239,-156.78,0.14834,-9.63731,1.52646,-0.12561,0.160217,-0.662292,0.720978,-107.092,83.45,-10.6667,-7325,-28864
792,1107940,10.9253,1.70898,7.62939,-85.7758,-3.60901,-156.583,0.124414,-9.94834,1.58389,-0.127594,0.160614,-0.661377,0.721375,-107.042,83.5083,-10.7667,-7325,-28864
798,1107946,11.5356,1.70898,7.38525,-85.7098,-3.55957,-156.484,-0.133984,-9.88135,1.23457,-0.128571,0.160828,-0.660889,0.721588,-106.983,83.525,-10.7833,-7325,-28864
804,1107952,11.5356,1.2207,7.32422,-85.6494,-3.51563,-156.379,-0.143555,-9.7665,1.39727,-0.129578,0.161072,-0.660431,0.721802,-106.942,83.5417,-10.8,-7325,-28864
810,1107958,12.5122,0.793457,7.14111,-85.578,-3.47168,-156.275,0.253613,-10.1732,1.54082,-0.130585,0.161285,-0.659912,0.722046,-106.892,83.5667,-10.8,-7325,-28864
816,1107964,12.085,0.427246,6.89697,-85.5121,-3.42224,-156.171,0.392383,-9.98662,1.71309,-0.131592,0.16153,-0.659424,0.72226,-106.85,83.5833,-10.825,-7317,-28865
822,1107970,12.5732,1.70898,7.56836,-85.3748,-3.32886,-155.973,0.15791,-9.79043,1.62217,-0.133636,0.161926,-0.658386,0.722717,-106.808,83.625,-10.9333,-7317,-28865
828,1107976,12.5732,1.0376,7.75146,-85.3033,-3.27942,-155.869,0.186621,-10.3886,1.28242,-0.134644,0.16214,-0.657867,0.722961,-106.8,83.625,-11,-7317,-28865
834,1107982,14.2212,1.40381,9.0332,-85.2264,-3.22449,-155.77,0.0765625,-10.5178,1.34941,-0.135712,0.162292,-0.657349,0.723206,-106.8,83.6417,-11.05,-7317,-28865
840,1107988,15.7471,1.34277,8.8501,-85.144,-3.17505,-155.671,0.263184,-10.4891,1.44512,-0.136749,0.162415,-0.656738,0.723541,-106.792,83.6667,-11.0917,-7317,-28865
846,1107994,16.8457,1.77002,9.8877,-85.0507,-3.11462,-155.572,0.492871,-10.8767,1.08623,-0.137848,0.162506,-0.656128,0.723877,-106.775,83.7,-11.15,-7317,-28865
852,1108000,20.4468,5.5542,11.0474,-84.8529,-2.99377,-155.407,0.497656,-11.336,1.19629,-0.139893,0.162445,-0.654816,0.72467,-106.725,83.8083,-11.3,-7317,-28865
858,1108006,23.0713,5.24902,12.7563,-84.7321,-2.91687,-155.325,0.421094,-10.7283,1.48818,-0.140991,0.162292,-0.654053,0.725189,-106.683,83.8583,-11.375,-7317,-28865
864,1108012,24.7192,5.18799,13.6108,-84.6057,-2.83997,-155.242,0.62207,-10.7331,1.70352,-0.14212,0.16214,-0.653229,0.725739,-106.625,83.9083,-11.425,-7317,-28865
870,1108018,25.3906,6.34766,15.5029,-84.4739,-2.75757,-155.165,0.76084,-11.0011,1.77051,-0.143311,0.161865,-0.652435,0.726288,-106.542,83.95,-11.4583,-7317,-28865
876,1108024,25.1465,7.26318,17.8223,-84.342,-2.65869,-155.094,0.502441,-11.0968,1.67002,-0.144501,0.161499,-0.651642,0.726837,-106.467,84,-11.5,-7317,-28865
882,1108030,27.5879,7.20215,21.3013,-84.0619,-2.43896,-154.946,0.229688,-11.0633,1.58867,-0.145752,0.161072,-0.650818,0.727417,-106.375,84.15,-11.7,-7317,-28865
888,1108036,29.1138,6.22559,22.2778,-83.9081,-2.32361,-154.869,0.435449,-11.1016,1.68438,-0.148499,0.160126,-0.649109,0.728607,-106.325,84.2417,-11.8667,-7317,-28865
894,1108042,30.2124,7.08008,23.5596,-83.7543,-2.19727,-154.786,0.31582,-11.0298,1.67002,-0.149902,0.159576,-0.648193,0.729248,-106.267,84.325,-12.0417,-7317,-28865
900,1108048,31.6772,7.62939,25.2686,-83.5895,-2.06543,-154.715,-0.00478516,-10.8862,1.63174,-0.151367,0.158966,-0.647247,0.729919,-106.2,84.4083,-12.2167,-7317,-28865
906,1108054,33.5083,6.89697,27.3438,-83.4247,-1.9281,-154.638,-0.153125,-10.5417,1.5791,-0.152893,0.158295,-0.646301,0.730591,-106.142,84.475,-12.3917,-7317,-28865
912,1108060,32.959,6.04248,28.6865,-83.0896,-1.63696,-154.468,0.110059,-11.0154,1.73701,-0.156036,0.156952,-0.644348,0.731934,-106.025,84.6083,-12.675,-7317,-28865
918,1108066,33.3252,5.5542,30.5176,-82.9193,-1.48315,-154.38,0.574219,-11.4939,1.804,-0.157745,0.156219,-0.643402,0.732574,-105.95,84.6917,-12.8,-7317,-28865
924,1108072,35.4004,4.82178,31.3721,-82.738,-1.32385,-154.286,0.856543,-11.2882,2.05283,-0.159485,0.155487,-0.642365,0.733246,-105.867,84.7833,-12.9333,-7317,-28865
930,1108078,36.0718,5.79834,34.3018,-82.5568,-1.14807,-154.199,0.813477,-11.5609,2.23945,-0.161285,0.154633,-0.641327,0.733917,-105.775,84.875,-13.0417,-7317,-28865
936,1108084,35.7666,6.7749,40.6494,-82.3755,-0.961304,-154.105,1.00967,-11.9246,2.17725,-0.163177,0.153687,-0.64035,0.734589,-105.667,84.9833,-13.2083,-7317,-28865
942,1108090,36.377,7.99561,43.9453,-82.0129,-0.53833,-153.924,1.31113,-12.7142,1.88535,-0.167175,0.151459,-0.638397,0.73584,-105.417,85.1583,-13.5917,-7317,-28865
948,1108096,39.4897,7.26318,47.2412,-81.8097,-0.302124,-153.831,1.06709,-12.6567,2.18203,-0.169342,0.150177,-0.637329,0.736511,-105.258,85.2417,-13.8333,-7317,-28865
954,1108102,40.1001,9.70459,51.4526,-81.6064,-0.0494385,-153.748,1.14844,-13.0061,2.33516,-0.17157,0.148712,-0.636292,0.737183,-105.083,85.325,-14.1,-7317,-28865
960,1108108,41.1987,9.15527,56.0913,-81.3977,0.219727,-153.655,1.51689,-13.2836,2.30645,-0.173981,0.147125,-0.635254,0.737854,-104.908,85.425,-14.3667,-7317,-28865
966,1108114,44.1895,11.6577,64.1479,-81.1835,0.516357,-153.561,1.42598,-13.7956,2.42607,-0.176453,0.145386,-0.634186,0.738525,-104.725,85.525,-14.6333,-7317,-28865
972,1108120,47.9126,11.6577,68.9697,-80.7166,1.17004,-153.386,1.73701,-14.2789,2.06719,-0.181793,0.141449,-0.631927,0.739929,-104.358,85.75,-15.1667,-7317,-28865
978,1108126,49.6826,14.9536,74.0967,-80.4694,1.53259,-153.303,1.7418,-14.9058,1.79922,-0.184631,0.13913,-0.630737,0.740662,-104.125,85.875,-15.4667,-7317,-28865
984,1108132,53.2227,15.7471,79.7729,-80.2002,1.92261,-153.215,1.76572,-15.1785,1.4834,-0.187622,0.136627,-0.629486,0.741455,-103.867,86.025,-15.8083,-7317,-28865
990,1108138,57.6172,18.3716,85.144,-79.9146,2.34009,-153.138,1.74658,-15.5661,1.53604,-0.190704,0.133881,-0.628143,0.74231,-103.583,86.15,-16.1167,-7317,-28865
996,1108144,68.1152,21.1182,94.9097,-79.6014,2.77954,-153.056,1.76094,-15.1642,1.47861,-0.194,0.13092,-0.626648,0.743256,-103.267,86.2917,-16.425,-7317,-28865
1002,1108150,72.3267,23.6206,97.8394,-78.9038,3.71887,-152.913,1.30635,-14.5182,1.871,-0.200775,0.124329,-0.623322,0.745392,-102.658,86.6,-17,-7317,-28865
1008,1108156,77.5757,24.231,100.891,-78.5248,4.20776,-152.836,1.31113,-14.4368,2.12939,-0.204254,0.120819,-0.621429,0.746582,-102.325,86.7917,-17.3,-7317,-28865
1014,1108162,81.1157,25.6348,102.417,-78.1238,4.70764,-152.77,1.4499,-14.0396,2.22031,-0.207764,0.117188,-0.619415,0.747864,-101.958,87.0167,-17.6583,-7317,-28865
1020,1108168,85.2051,26.9775,102.722,-77.7063,5.20752,-152.699,1.44512,-14.3028,2.43564,-0.211243,0.113464,-0.61731,0.749207,-101.558,87.25,-18.0333,-7317,-28865
1026,1108174,93.3228,29.9683,97.4731,-76.8164,6.16882,-152.589,2.15811,-14.566,2.22988,-0.21463,0.109711,-0.615112,0.750641,-101.142,87.4833,-18.4583,-7317,-28865
1032,1108180,98.7549,33.9355,91.6748,-76.3385,6.61926,-152.556,3.76113,-13.7573,1.37813,-0.220795,0.102203,-0.610107,0.753967,-100.267,87.9333,-19.3,-7317,-28865
1038,1108186,104.614,38.3301,84.0454,-75.8331,7.03125,-152.551,4.5459,-11.738,-0.0334961,-0.223389,0.0984802,-0.6073,0.755951,-99.825,88.15,-19.7333,-7317,-28865
1044,1108192,108.337,40.5884,74.2798,-75.3113,7.3938,-152.567,5.44072,-9.04395,-1.5791,-0.225555,0.0949097,-0.60437,0.758118,-99.35,88.3833,-20.1833,-7317,-28865
1050,1108198,103.821,42.2363,63.7817,-74.8224,7.70691,-152.606,5.58428,-8.02949,-2.29688,-0.227295,0.0916443,-0.601563,0.760223,-98.85,88.625,-20.675,-7317,-28865
1056,1108204,80.1392,41.5649,46.4478,-74.0259,8.19031,-152.71,6.35947,-8.1874,-3.07686,-0.228607,0.0887146,-0.59906,0.762146,-98.3583,88.8583,-21.2167,-7317,-28865
1062,1108210,69.0308,41.5649,40.2832,-73.7238,8.37708,-152.77,8.07734,-9.42197,-6.23506,-0.230377,0.0839844,-0.595215,0.765167,-97.4167,89.275,-22.425,-7317,-28865
1068,1108216,64.5752,41.0156,34.668,-73.4491,8.53088,-152.836,8.71377,-8.89082,-7.52227,-0.230896,0.0820313,-0.593628,0.766449,-96.9833,89.4583,-23.0833,-7317,-28865
1074,1108222,62.8052,41.3818,27.8931,-73.1909,8.64624,-152.919,9.35977,-7.66104,-8.4793,-0.23111,0.0802917,-0.592072,0.767761,-96.575,89.6083,-23.7083,-7317,-28865
1080,1108228,61.4014,40.3442,20.5688,-72.9437,8.71765,-153.007,9.35977,-6.08672,-8.91475,-0.231018,0.0788269,-0.590576,0.769104,-96.1917,89.7583,-24.3083,-7317,-28865
1086,1108234,47.5464,37.8418,9.70459,-72.5702,8.7616,-153.21,9.18272,-4.5459,-8.71855,-0.230682,0.0776367,-0.589294,0.770294,-95.5167,90.0667,-25.4917,-7317,-28865
1092,1108240,29.9072,37.1704,2.80762,-72.4988,8.72864,-153.314,8.33096,-1.93799,-9.10615,-0.229309,0.0762939,-0.58783,0.771973,-95.225,90.2083,-26.05,-7317,-28865
1098,1108246,7.62939,30.0293,-5.31006,-72.5427,8.64075,-153.408,8.97217,-2.89023,-10.2354,-0.228241,0.0765076,-0.588074,0.772064,-94.975,90.3333,-26.575,-7317,-28865
1104,1108252,-8.30078,24.8413,-14.7705,-72.6691,8.49792,-153.49,9.34062,-4.14395,-10.3694,-0.226868,0.0773621,-0.588806,0.771851,-94.75,90.4333,-27.0917,-7317,-28865
1110,1108258,-17.0898,19.165,-25.0854,-72.8448,8.28918,-153.567,9.95791,-4.96699,-10.068,-0.22522,0.0787659,-0.589783,0.771423,-94.5667,90.5167,-27.5667,-7317,-28865
1116,1108264,-26.1841,12.207,-42.7246,-73.2788,7.7124,-153.715,9.90049,-4.93828,-9.93877,-0.223297,0.0805969,-0.590881,0.770966,-94.2833,90.5917,-28.35,-7317,-28865
1122,1108270,-31.9214,8.54492,-50.7202,-73.537,7.34985,-153.781,9.19707,-4.08174,-9.47939,-0.218658,0.0854187,-0.593445,0.769806,-94.2083,90.6,-28.6417,-7317,-28865
1128,1108276,-39.7339,4.08936,-58.1665,-73.8391,6.94336,-153.842,8.88603,-4.10088,-9.11094,-0.216003,0.0884705,-0.594971,0.769012,-94.1417,90.575,-28.8667,-7317,-28865
1134,1108282,-50.1709,0,-65.4297,-74.1962,6.49841,-153.891,8.80469,-4.44541,-8.76641,-0.213135,0.0919189,-0.596832,0.767975,-94.1333,90.55,-29.075,-7317,-28865
1140,1108288,-60.791,-4.21143,-71.8384,-74.6027,6.00952,-153.929,4.35928,-2.55527,-4.36406,-0.210083,0.0957947,-0.598969,0.766693,-94.1833,90.5,-29.2333,-7317,-28865
1146,1108294,-78.8574,-11.0474,-86.9141,-75.553,4.91638,-153.973,8.61807,-5.6752,-8.02949,-0.206848,0.100098,-0.601349,0.765167,-94.4333,90.2833,-29.4083,-7317,-28865
1152,1108300,-85.9375,-13.6719,-95.3369,-76.0858,4.30115,-153.984,8.08213,-7.15859,-7.11553,-0.199646,0.109772,-0.606659,0.761536,-94.6083,90.0917,-29.4083,-7317,-28865
1158,1108306,-90.7593,-15.7471,-102.6,-76.6406,3.64746,-153.99,8.11084,-7.55098,-6.66094,-0.195679,0.115082,-0.609467,0.759552,-94.8,89.9,-29.375,-7317,-28865
1164,1108312,-96.6187,-18.3105,-108.887,-77.2229,2.96631,-153.984,7.6084,-8.12041,-6.23984,-0.191528,0.120697,-0.612335,0.757416,-95.0417,89.65,-29.275,-7300,-28867
1170,1108318,-101.44,-20.5688,-114.929,-77.8271,2.2467,-153.962,7.36914,-8.38838,-5.84268,-0.187225,0.126556,-0.615295,0.755127,-95.3167,89.3667,-29.0917,-7300,-28867
1176,1108324,-111.389,-24.0479,-125.793,-79.0961,0.736084,-153.885,6.8332,-8.80469,-5.35459,-0.18277,0.13266,-0.618317,0.752716,-96.0167,88.7167,-28.5167,-7300,-28867
1182,1108330,-115.54,-25.5127,-129.761,-79.7662,-0.0494385,-153.831,6.2877,-9.77129,-4.69424,-0.173431,0.145477,-0.624481,0.747437,-96.425,88.325,-28.175,-7300,-28867
1188,1108336,-119.08,-26.6724,-133.545,-80.4474,-0.85144,-153.754,6.03408,-10.3694,-4.43105,-0.16861,0.1521,-0.627594,0.744629,-96.8167,87.9083,-27.8167,-7300,-28867
1194,1108342,-122.742,-27.6489,-137.207,-81.145,-1.66992,-153.671,5.75176,-11.0537,-4.12002,-0.163696,0.158875,-0.630707,0.741669,-97.2417,87.4417,-27.4,-7300,-28867
1200,1108348,-124.573,-28.9917,-139.16,-81.8481,-2.49939,-153.567,5.3833,-11.604,-3.49795,-0.158752,0.165741,-0.633759,0.738617,-97.7,86.9333,-26.9667,-7300,-28867
1206,1108354,-128.479,-29.9072,-141.357,-83.2709,-4.15283,-153.32,4.9957,-11.9772,-3.00029,-0.153809,0.172638,-0.63678,0.735474,-98.6333,85.7417,-25.9917,-7300,-28867
1212,1108360,-130.554,-30.0293,-143.921,-84.0015,-4.99329,-153.171,3.96689,-12.9678,-2.27773,-0.143829,0.186554,-0.642731,0.728912,-99.0917,85.0833,-25.4333,-7300,-28867
1218,1108366,-132.324,-30.5176,-145.264,-84.7321,-5.82825,-153.012,3.675,-13.609,-1.98105,-0.138824,0.193542,-0.64563,0.725464,-99.5333,84.3667,-24.85,-7300,-28867
1224,1108372,-133.545,-31.4941,-146.362,-85.4736,-6.66321,-152.831,3.30176,-14.1019,-1.63174,-0.13385,0.200592,-0.648468,0.721954,-99.95,83.6667,-24.2917,-7300,-28867
1230,1108378,-134.277,-31.3721,-147.034,-86.2097,-7.49268,-152.639,2.85674,-14.3315,-1.23936,-0.128845,0.207581,-0.651245,0.718384,-100.35,82.9417,-23.6917,-7300,-28867
1236,1108384,-136.414,-31.9824,-147.766,-87.7039,-9.13513,-152.216,2.5457,-14.566,-0.77998,-0.123901,0.214569,-0.653931,0.714722,-101.125,81.4,-22.425,-7300,-28867
1242,1108390,-137.573,-31.7383,-147.4,-88.4564,-9.94263,-151.979,2.20117,-15.4178,-0.0287109,-0.114136,0.228455,-0.65918,0.707214,-101.483,80.6083,-21.7667,-7300,-28867
1248,1108396,-137.817,-30.8228,-146.301,-89.2145,-10.7336,-151.738,1.94277,-15.8341,0.30625,-0.109283,0.23526,-0.661713,0.703369,-101.842,79.8,-21.1667,-7300,-28867
1254,1108402,-137.39,-29.1748,-143.799,-89.967,-11.5082,-151.49,1.72744,-16.0398,0.684277,-0.104553,0.241913,-0.664185,0.699493,-102.158,79.0167,-20.6333,-7300,-28867
1260,1108408,-135.071,-28.0762,-141.846,-90.7031,-12.2607,-151.232,1.7418,-15.9489,1.00488,-0.0999146,0.248383,-0.666534,0.695679,-102.433,78.2167,-20.125,-7300,-28867
1266,1108414,-132.629,-21.1792,-134.033,-92.1478,-13.689,-150.743,1.66045,-15.9394,1.4834,-0.0953369,0.254639,-0.668793,0.691864,-102.867,76.6583,-19.1833,-7300,-28867
1272,1108420,-130.615,-16.4185,-129.761,-92.851,-14.3591,-150.518,1.60303,-15.6331,2.2251,-0.0863953,0.266205,-0.673187,0.684387,-103.017,75.8833,-18.7083,-7300,-28867
1278,1108426,-129.639,-9.21631,-125.305,-93.5376,-15.0018,-150.32,1.3877,-15.3843,2.59355,-0.0819397,0.271423,-0.675323,0.680756,-103.158,75.1417,-18.2167,-7300,-28867
1284,1108432,-128.662,-1.40381,-121.094,-94.2023,-15.6226,-150.156,1.14844,-15.3891,2.69404,-0.0773926,0.276245,-0.67746,0.677216,-103.275,74.4667,-17.7667,-7300,-28867
1290,1108438,-127.991,7.56836,-116.943,-94.856,-16.2158,-150.035,0.76084,-15.5183,2.74668,-0.0727844,0.28064,-0.679596,0.673798,-103.367,73.8417,-17.3583,-7300,-28867
1296,1108444,-122.803,26.3672,-109.07,-96.0699,-17.3419,-149.914,0.354102,-15.5422,2.83281,-0.0680847,0.284576,-0.681671,0.670532,-103.508,72.7583,-16.7167,-7300,-28867
1302,1108450,-120.605,36.3159,-106.079,-96.6357,-17.8802,-149.93,-1.88057,-14.0205,3.74199,-0.0582886,0.291168,-0.685669,0.66449,-103.583,72.3083,-16.5,-7300,-28867
1308,1108456,-119.507,44.0063,-105.164,-97.1741,-18.4131,-149.98,-3.26826,-13.1831,4.21094,-0.0531921,0.293915,-0.687622,0.661682,-103.683,71.95,-16.325,-7300,-28867
1314,1108462,-120.117,50.0488,-106.14,-97.7124,-18.9459,-150.051,-4.83301,-13.3554,4.45498,-0.0478821,0.296509,-0.689545,0.658936,-103.808,71.6667,-16.1583,-7300,-28867
1320,1108468,-120.667,51.6968,-106.689,-98.2397,-19.4788,-150.134,-6.37383,-14.188,4.59854,-0.042572,0.299011,-0.691467,0.656158,-103.95,71.45,-16,-7300,-28867
1326,1108474,-113.098,42.8467,-102.295,-99.267,-20.4895,-150.222,-7.87637,-15.3843,4.7373,-0.0374756,0.301483,-0.693298,0.653412,-104.317,71.2667,-15.7083,-7300,-28867
1332,1108480,-102.722,33.8135,-98.4497,-99.7284,-20.9454,-150.2,-9.221,-16.0638,5.82354,-0.0286255,0.306488,-0.696381,0.648224,-104.575,71.3,-15.6,-7300,-28867
1338,1108486,-91.1865,25.4517,-92.6514,-100.151,-21.3574,-150.139,-9.60859,-15.6427,6.58916,-0.025116,0.309021,-0.69751,0.645935,-104.858,71.3917,-15.475,-7300,-28867
1344,1108492,-80.4443,18.1885,-86.4868,-100.525,-21.7255,-150.046,-9.90527,-15.2551,7.34043,-0.0221863,0.311523,-0.698395,0.64389,-105.2,71.5333,-15.2833,-7300,-28867
1350,1108498,-70.3125,11.9019,-79.895,-100.86,-22.0441,-149.925,-9.99141,-14.9393,7.93379,-0.0198364,0.313904,-0.699097,0.642029,-105.558,71.7083,-15.0833,-7300,-28867
1356,1108504,-51.4526,3.84521,-63.6597,-101.398,-22.533,-149.639,-10.5513,-14.8244,8.11563,-0.0166931,0.318146,-0.700012,0.639069,-106.508,72.1833,-14.475,-7300,-28867
1362,1108510,-41.2598,1.15967,-55.1147,-101.591,-22.7032,-149.485,-11.8768,-14.8292,7.79023,-0.0158691,0.319885,-0.700226,0.63797,-107.083,72.4667,-14.0917,-7300,-28867
1368,1108516,-30.0903,-0.854492,-44.6167,-101.728,-22.8076,-149.343,-12.7477,-14.3124,7.60361,-0.015625,0.32135,-0.700256,0.637177,-107.708,72.7583,-13.6667,-7300,-28867
1374,1108522,-18.1885,-3.05176,-32.2876,-101.799,-22.8461,-149.194,-13.3793,-13.4415,7.59404,-0.0159607,0.322418,-0.700165,0.636749,-108.358,73.0583,-13.2583,-7300,-28867
1380,1108528,-10.0708,-4.63867,-20.5078,-101.832,-22.8186,-149.063,-14.0349,-12.518,7.64668,-0.0168152,0.32312,-0.700043,0.636505,-108.975,73.35,-12.85,-7300,-28867
1386,1108534,-0.732422,-6.71387,3.23486,-101.799,-22.5659,-148.821,-14.4847,-11.5322,7.71846,-0.0198975,0.323364,-0.69986,0.636475,-110.275,73.925,-12,-7300,-28867
1392,1108540,0.12207,-7.32422,14.2212,-101.766,-22.3517,-148.716,-15.145,-10.1924,7.80459,-0.0220337,0.322937,-0.699982,0.636505,-110.925,74.225,-11.55,-7300,-28867
1398,1108546,0,-7.62939,23.8647,-101.728,-22.0825,-148.623,-15.3843,-9.46982,7.91465,-0.0244446,0.322205,-0.700226,0.636505,-111.592,74.5167,-11.075,-7325,-28864
1404,1108552,-0.732422,-6.83594,31.4331,-101.689,-21.7694,-148.546,-15.4226,-8.61807,8.20176,-0.0270691,0.321167,-0.700623,0.636505,-112.233,74.8167,-10.5667,-7325,-28864
1410,1108558,-3.54004,-6.71387,36.9873,-101.656,-21.4288,-148.475,-15.078,-8.52715,8.21133,-0.0298157,0.319885,-0.701172,0.636414,-112.833,75.1,-10.0667,-7325,-28864
1416,1108564,-9.15527,-3.96729,45.8374,-101.624,-20.6763,-148.381,-14.4225,-9.31191,7.94336,-0.0354919,0.316803,-0.702728,0.635925,-113.933,75.6333,-9.11667,-7325,-28864
1422,1108570,-7.20215,-1.15967,51.6357,-101.591,-20.2588,-148.365,-13.2788,-10.4508,7.73281,-0.0384521,0.31485,-0.703613,0.635773,-114.425,75.8833,-8.64167,-7325,-28864
1428,1108576,-2.68555,1.15967,59.082,-101.525,-19.8029,-148.365,-12.6663,-9.95313,7.8333,-0.041626,0.312592,-0.704437,0.635773,-114.892,76.1333,-8.15833,-7325,-28864
1434,1108582,1.83105,4.69971,66.6504,-101.431,-19.314,-148.398,-12.2117,-9.12529,7.68975,-0.0449524,0.309937,-0.705261,0.635925,-115.308,76.375,-7.675,-7325,-28864
1440,1108588,5.67627,8.36182,74.646,-101.305,-18.7921,-148.458,-11.738,-7.83809,7.60361,-0.0484619,0.306946,-0.706085,0.63623,-115.683,76.6,-7.175,-7325,-28864
1446,1108594,8.72803,14.6484,87.3413,-101.008,-17.6495,-148.645,-11.3935,-6.13936,7.80938,-0.0558167,0.299957,-0.707764,0.637054,-116.3,77.0667,-6.275,-7325,-28864
1452,1108600,-81.1768,-58.6548,114.685,-101.393,-16.853,-148.409,38.8985,-67.4851,20.4565,-0.0613708,0.297668,-0.711243,0.633759,-116.533,77.3083,-5.85,-7325,-28864
1458,1108606,285.339,108.215,80.2612,-99.7119,-16.4246,-148.969,-16.6954,21.3562,-24.4091,-0.0654297,0.291107,-0.704346,0.644012,-116.708,77.55,-5.41667,-7325,-28864
1464,1108612,349.731,185.486,64.6362,-97.63,-16.1005,-149.897,15.3699,1.30635,9.51289,-0.0675049,0.282532,-0.695648,0.656952,-116.842,77.825,-5.1,-7325,-28864
1470,1108618,187.012,18.0664,75.9277,-96.5973,-15.5951,-149.958,30.9073,-10.1972,12.8577,-0.0729065,0.27887,-0.69101,0.662781,-116.925,78.1333,-4.925,-7325,-28864
1476,1108624,166.321,185.12,146.912,-94.043,-14.1833,-151.622,6.55088,1.76094,-1.3207,-0.078186,0.259521,-0.683228,0.677948,-117.042,78.9167,-5.00833,-7325,-28864
1482,1108630,136.23,133.789,179.749,-93.1146,-13.2385,-152.276,3.85684,-14.6569,7.05332,-0.0823364,0.249725,-0.681213,0.683136,-117.067,79.3833,-5.225,-7325,-28864
1488,1108636,137.634,158.813,197.144,-92.1698,-12.2058,-153.034,-8.81426,-14.9871,6.58916,-0.0862732,0.238678,-0.679321,0.688477,-117.05,79.8917,-5.58333,-7325,-28864
1494,1108642,141.846,111.267,195.313,-91.2744,-11.1621,-153.528,-9.44111,-12.8673,7.81895,-0.0915833,0.229065,-0.677063,0.693268,-116.983,80.45,-6.05833,-7325,-28864
1500,1108648,132.568,31.3721,169.189,-90.423,-10.1569,-153.781,-11.36,-9.64688,8.44102,-0.0979004,0.221039,-0.674316,0.697662,-116.858,81.0667,-6.63333,-7325,-28864
1506,1108654,109.741,2.19727,146.118,-89.0662,-8.39355,-153.743,-13.2836,-6.54609,9.40283,-0.11145,0.209656,-0.669281,0.703979,-116.483,82.3083,-7.86667,-7325,-28864
1512,1108660,81.2988,-17.2119,106.567,-88.6102,-7.76184,-153.545,-4.55547,-6.89541,6.125,-0.117279,0.206604,-0.667297,0.705811,-116.233,82.9583,-8.48333,-7325,-28864
1518,1108666,51.2085,-33.0811,80.9937,-88.3191,-7.26196,-153.27,-0.45459,-9.5416,3.73242,-0.122528,0.204895,-0.665924,0.706696,-115.908,83.6167,-9.125,-7325,-28864
1524,1108672,29.4189,-0.854492,59.7534,-88.1158,-6.86646,-153.155,-2.4835,-11.3313,1.22021,-0.125946,0.202972,-0.665192,0.707367,-115.542,84.275,-9.74167,-7325,-28864
1530,1108678,25.2075,30.3345,25.2686,-87.9291,-6.56982,-153.171,-3.68936,-10.7044,0.282324,-0.12796,0.200867,-0.664581,0.70816,-115.175,84.9,-10.3417,-7325,-28864
1536,1108684,30.5786,21.8506,17.9443,-87.5226,-6.15784,-153.221,-0.990527,-9.87656,0.44502,-0.130798,0.197693,-0.662872,0.710114,-114.417,86.025,-11.5,-7325,-28864
1542,1108690,39.6729,24.7192,15.9302,-87.2699,-5.98755,-153.232,-1.6126,-7.49356,2.77539,-0.132172,0.196259,-0.661652,0.711426,-114.067,86.5,-12.025,-7325,-28864
1548,1108696,40.9546,9.52148,16.0522,-87.0172,-5.81726,-153.171,1.07666,-5.96709,4.48369,-0.134003,0.195313,-0.660278,0.712616,-113.725,86.9583,-12.5583,-7325,-28864
1554,1108702,28.7476,-4.27246,17.7612,-86.8359,-5.64697,-153.04,1.7083,-6.54609,4.53633,-0.136139,0.194824,-0.65921,0.713348,-113.408,87.375,-13.0833,-7325,-28864
1560,1108708,-1.64795,9.21631,19.043,-86.7371,-5.47119,-152.941,-0.401953,-9.27363,2.13896,-0.13797,0.194183,-0.658722,0.713593,-113.133,87.7583,-13.6,-7325,-28864
1566,1108714,1.70898,7.26318,14.7705,-86.6437,-5.14709,-152.792,-1.01924,-10.2307,0.588574,-0.14093,0.192932,-0.658478,0.713593,-112.7,88.4833,-14.5167,-7325,-28864
1572,1108720,9.27734,4.69971,11.5356,-86.5558,-5.01526,-152.704,-0.607715,-9.04873,1.68916,-0.142395,0.192535,-0.65802,0.713837,-112.508,88.8,-14.9333,-7325,-28864
1578,1108726,10.9863,0.427246,8.97217,-86.4679,-4.8999,-152.595,0.162695,-8.53672,2.37822,-0.143921,0.192352,-0.657471,0.714081,-112.325,89.075,-15.2667,-7325,-28864
1584,1108732,5.24902,0,7.69043,-86.402,-4.79004,-152.485,-0.177051,-9.13965,1.98584,-0.145355,0.192261,-0.657074,0.714172,-112.15,89.3083,-15.5417,-7325,-28864
1590,1108738,0.488281,0.549316,5.43213,-86.3635,-4.69116,-152.38,-0.425879,-9.69951,1.33506,-0.146637,0.192169,-0.65683,0.714172,-111.967,89.5,-15.7917,-7325,-28864
1596,1108744,0.244141,-0.732422,4.5166,-86.2921,-4.52087,-152.155,0.253613,-10.1015,1.31113,-0.1492,0.192322,-0.656311,0.71405,-111.65,89.8333,-16.2583,-7325,-28864
1602,1108750,0.366211,-0.549316,5.18799,-86.2592,-4.43298,-152.04,0.339746,-10.1685,1.54082,-0.150452,0.192413,-0.656067,0.713989,-111.508,89.9833,-16.4583,-7325,-28864
1608,1108756,-0.244141,-0.976563,5.24902,-86.2317,-4.35059,-151.919,0.430664,-9.97705,1.66045,-0.151733,0.192566,-0.655823,0.713928,-111.383,90.1333,-16.65,-7325,-28864
1614,1108762,-1.15967,-1.09863,6.04248,-86.2042,-4.26819,-151.798,0.789551,-10.001,1.51689,-0.153015,0.192719,-0.65564,0.713776,-111.267,90.275,-16.8083,-7325,-28864
1620,1108768,-4.63867,0.976563,7.50732,-86.1877,-4.0979,-151.573,0.588574,-10.1685,1.10537,-0.154236,0.192841,-0.655518,0.713593,-111.175,90.4,-16.9333,-7325,-28864
1626,1108774,-2.86865,0.610352,8.36182,-86.1768,-4.01001,-151.458,0.263184,-10.3694,0.722559,-0.156677,0.193024,-0.655334,0.713165,-110.992,90.6583,-17.2417,-7325,-28864
1632,1108780,-0.427246,0.915527,8.17871,-86.1548,-3.92761,-151.348,0.215332,-10.178,0.842188,-0.157898,0.193115,-0.655151,0.713043,-110.917,90.775,-17.3917,-7325,-28864
1638,1108786,1.0376,1.2207,8.17871,-86.1273,-3.84521,-151.238,0.220117,-10.1302,0.947461,-0.159119,0.193207,-0.654938,0.712952,-110.825,90.8667,-17.55,-7325,-28864
1644,1108792,1.95313,1.2207,7.69043,-86.0944,-3.76282,-151.128,0.14834,-10.1589,0.894824,-0.160309,0.193298,-0.654694,0.712891,-110.717,90.95,-17.675,-7325,-28864
1650,1108798,4.63867,1.28174,7.20215,-86.012,-3.6145,-150.914,0.172266,-10.1589,0.952246,-0.161469,0.19339,-0.654419,0.71286,-110.617,91.0083,-17.7667,-7325,-28864
1656,1108804,5.49316,1.77002,6.46973,-85.9625,-3.54858,-150.804,0.13877,-10.044,1.01924,-0.163788,0.193634,-0.653717,0.712891,-110.433,91.15,-17.8583,-7325,-28864
1662,1108810,6.34766,1.70898,6.34766,-85.9131,-3.48267,-150.699,0.177051,-9.90527,1.10059,-0.164917,0.193787,-0.653351,0.712952,-110.383,91.2167,-17.8917,-7325,-28864
1668,1108816,6.89697,1.15967,6.04248,-85.8636,-3.42224,-150.59,0.339746,-9.87178,1.28721,-0.166046,0.193939,-0.652954,0.713013,-110.325,91.2917,-17.9417,-7325,-28864
1674,1108822,6.83594,1.95313,5.79834,-85.8087,-3.36182,-150.485,0.0957031,-9.68994,1.34463,-0.167145,0.194092,-0.652557,0.713074,-110.275,91.3583,-17.9833,-7325,-28864
1680,1108828,5.5542,1.70898,5.49316,-85.7153,-3.24646,-150.276,0.253613,-9.65166,1.32549,-0.168213,0.194244,-0.652161,0.713104,-110.217,91.4083,-18.0167,-7325,-28864
1686,1108834,5.37109,2.2583,5.67627,-85.6714,-3.19153,-150.172,0.382813,-9.68037,1.41162,-0.170319,0.194611,-0.651459,0.713165,-110.083,91.475,-18.0583,-7325,-28864
1692,1108840,4.88281,1.95313,5.5542,-85.6329,-3.1366,-150.068,0.143555,-9.61816,1.29678,-0.171356,0.194824,-0.651123,0.713165,-110.017,91.5,-18.0917,-7325,-28864
1698,1108846,4.39453,2.80762,5.79834,-85.5945,-3.08167,-149.969,0.114844,-9.8335,1.17236,-0.172363,0.194977,-0.650818,0.713135,-109.95,91.5,-18.1167,-7325,-28864
1704,1108852,4.15039,2.19727,5.85938,-85.556,-3.02673,-149.865,0.325391,-10.0919,0.971387,-0.17337,0.19519,-0.650543,0.713135,-109.883,91.4917,-18.15,-7325,-28864
1710,1108858,6.83594,3.11279,5.98145,-85.4681,-2.91687,-149.667,0.234473,-10.2067,0.880469,-0.174377,0.195374,-0.650208,0.713104,-109.808,91.4833,-18.2,-7325,-28864
1716,1108864,8.48389,3.05176,5.85938,-85.4132,-2.86743,-149.568,0.162695,-9.83828,1.26807,-0.176361,0.195679,-0.649414,0.713257,-109.683,91.475,-18.25,-7325,-28864
1722,1108870,9.52148,2.62451,6.04248,-85.3528,-2.81799,-149.469,0.267969,-9.66123,1.2585,-0.177399,0.195862,-0.648956,0.713379,-109.65,91.5,-18.2583,-7325,-28864
1728,1108876,9.27734,2.86865,5.61523,-85.2979,-2.76855,-149.37,0.349316,-9.79521,1.42598,-0.178375,0.196014,-0.648529,0.71347,-109.617,91.525,-18.2667,-7325,-28864
1734,1108882,9.39941,3.54004,5.79834,-85.2374,-2.71912,-149.271,0.16748,-9.76172,1.31113,-0.179352,0.196167,-0.648071,0.713593,-109.608,91.575,-18.2917,-7325,-28864
1740,1108888,9.33838,4.02832,6.53076,-85.1221,-2.62024,-149.09,0.200977,-9.96748,1.27285,-0.180328,0.196289,-0.647675,0.713715,-109.6,91.625,-18.3667,-7325,-28864
1746,1108894,9.8877,4.21143,6.65283,-85.0616,-2.56531,-148.997,0.287109,-10.0488,1.20107,-0.182251,0.196503,-0.64679,0.713928,-109.533,91.75,-18.5583,-7317,-28865
1752,1108900,10.2539,4.15039,6.95801,-85.0012,-2.51587,-148.903,0.368457,-10.178,1.21064,-0.183228,0.196625,-0.646362,0.714081,-109.492,91.775,-18.6417,-7317,-28865
1758,1108906,10.5591,4.45557,8.05664,-84.9353,-2.46094,-148.815,0.263184,-10.4077,0.995313,-0.184204,0.196686,-0.645905,0.714203,-109.467,91.8083,-18.7,-7317,-28865
1764,1108912,11.1084,5.06592,8.8501,-84.8694,-2.40051,-148.727,0.124414,-10.3646,0.880469,-0.185211,0.196686,-0.645447,0.714325,-109.45,91.8167,-18.7417,-7317,-28865
1770,1108918,14.3433,4.08936,9.27734,-84.7156,-2.27966,-148.546,-0.0574219,-10.1062,1.1293,-0.186249,0.196686,-0.644958,0.714508,-109.408,91.85,-18.85,-7317,-28865
1776,1108924,14.6484,3.41797,9.94873,-84.6332,-2.21375,-148.453,0.0430664,-9.77607,1.41162,-0.188385,0.196716,-0.64386,0.714935,-109.383,91.8833,-18.9417,-7317,-28865
1782,1108930,14.5264,3.54004,9.82666,-84.5563,-2.15332,-148.359,-0.13877,-9.76172,1.37334,-0.189453,0.196747,-0.643311,0.715149,-109.333,91.9083,-19.0167,-7317,-28865
1788,1108936,13.855,3.05176,9.94873,-84.4794,-2.0929,-148.26,-0.062207,-10.001,1.26807,-0.190552,0.196777,-0.642792,0.715332,-109.275,91.925,-19.1,-7317,-28865
1794,1108942,13.916,2.0752,10.0098,-84.4025,-2.03247,-148.156,-0.0765625,-10.0967,1.16279,-0.191681,0.196838,-0.642242,0.715485,-109.208,91.95,-19.175,-7317,-28865
1800,1108948,15.9302,1.09863,10.1929,-84.2377,-1.91162,-147.947,0.0143555,-10.245,1.08623,-0.19278,0.19693,-0.641693,0.715668,-109.1,91.9833,-19.3083,-7317,-28865
1806,1108954,17.8223,1.0376,9.8877,-84.1443,-1.8512,-147.843,0.0813477,-10.5943,0.818262,-0.195099,0.197052,-0.640442,0.716125,-109.05,91.9833,-19.375,-7317,-28865
1812,1108960,19.3481,0,10.7422,-84.0454,-1.79077,-147.733,0.00478516,-10.891,0.607715,-0.19632,0.197144,-0.63974,0.7164,-109.008,92.0083,-19.4333,-7317,-28865
1818,1108966,22.2778,-0.427246,11.1084,-83.9301,-1.72485,-147.618,-0.0669922,-10.8767,0.732129,-0.197571,0.197174,-0.638947,0.716736,-108.95,92.025,-19.5083,-7317,-28865
1824,1108972,26.062,-1.64795,12.2681,-83.7982,-1.65894,-147.497,0.00957031,-10.7188,0.722559,-0.198944,0.197205,-0.638031,0.717163,-108.9,92.0417,-19.575,-7317,-28865
1830,1108978,30.1514,-2.62451,14.2212,-83.5071,-1.51611,-147.25,-0.0143555,-10.8719,0.832617,-0.200317,0.197205,-0.637054,0.717651,-108.858,92.075,-19.6833,-7317,-28865
1836,1108984,32.6538,-3.60107,15.5029,-83.3423,-1.43372,-147.118,0.320605,-11.7763,0.535937,-0.203339,0.197113,-0.634949,0.718689,-108.767,92.1333,-19.875,-7317,-28865
1842,1108990,35.4614,-3.17383,17.0898,-83.1665,-1.34583,-146.992,0.497656,-11.9916,0.794336,-0.204956,0.19696,-0.633789,0.719299,-108.725,92.1667,-20,-7317,-28865
1848,1108996,40.5884,-3.72314,19.4702,-82.9688,-1.24695,-146.854,0.44502,-11.092,1.18672,-0.206696,0.196716,-0.632507,0.720001,-108.667,92.1917,-20.0917,-7317,-28865
1854,1109002,44.2505,-3.11279,21.3013,-82.749,-1.14258,-146.722,0.502441,-10.3838,1.94756,-0.208496,0.196411,-0.631104,0.720795,-108.608,92.2167,-20.225,-7317,-28865
1860,1109008,42.7856,-2.38037,25.8179,-82.5238,-1.02722,-146.591,0.808691,-10.4938,2.18682,-0.210358,0.195984,-0.6297,0.721588,-108.542,92.2333,-20.35,-7317,-28865
1866,1109014,40.5884,-1.09863,28.5034,-82.1118,-0.758057,-146.332,1.39727,-12.2883,1.85186,-0.214172,0.194977,-0.627167,0.722931,-108.375,92.275,-20.6667,-7325,-28864
1872,1109020,42.1143,-3.54004,34.0576,-81.9031,-0.593262,-146.184,1.33027,-12.2787,1.804,-0.216339,0.194336,-0.625946,0.723541,-108.275,92.325,-20.8917,-7325,-28864
1878,1109026,42.5415,0.183105,38.0249,-81.6943,-0.406494,-146.058,0.732129,-12.4558,1.76572,-0.218506,0.193451,-0.624756,0.724152,-108.158,92.375,-21.125,-7325,-28864
1884,1109032,43.9453,0,42.6636,-81.4746,-0.197754,-145.926,0.842188,-12.896,1.77529,-0.220856,0.192474,-0.623566,0.724731,-108.042,92.4333,-21.4083,-7325,-28864
1890,1109038,46.1426,-0.549316,51.5747,-81.2604,0.0219727,-145.783,1.02402,-13.5898,1.7083,-0.223358,0.191376,-0.622375,0.725281,-107.925,92.5,-21.65,-7325,-28864
1896,1109044,49.0723,-1.09863,57.7393,-80.788,0.543823,-145.486,1.06709,-13.5994,1.93799,-0.228821,0.188721,-0.619934,0.726349,-107.683,92.6417,-22.1167,-7325,-28864
1902,1109050,51.9409,0,62.439,-80.5298,0.845947,-145.338,1.16279,-13.3649,2.00498,-0.231812,0.187134,-0.618622,0.726929,-107.542,92.7417,-22.375,-7325,-28864
1908,1109056,54.6265,0.549316,67.1997,-80.2606,1.16455,-145.184,1.20586,-13.676,2.02412,-0.234955,0.185364,-0.617279,0.727539,-107.358,92.825,-22.6417,-7325,-28864
1914,1109062,55.8472,2.56348,72.2046,-79.9805,1.51062,-145.036,1.43555,-14.3938,2.13896,-0.23819,0.18338,-0.615936,0.728088,-107.15,92.8917,-22.9333,-7325,-28864
1920,1109068,57.8003,2.80762,86.3037,-79.7003,1.88416,-144.882,1.27285,-14.0779,1.63652,-0.241608,0.181213,-0.614624,0.728638,-106.942,92.95,-23.1833,-7325,-28864
1926,1109074,59.2041,4.39453,93.2007,-79.118,2.7356,-144.553,2.62227,-15.0541,2.9333,-0.249084,0.176239,-0.612061,0.729492,-106.425,93.0583,-23.7917,-7325,-28864
1932,1109080,60.0586,7.69043,99.7314,-78.8159,3.2135,-144.399,2.37822,-15.5565,2.66055,-0.253021,0.17334,-0.61084,0.729858,-106.125,93.125,-24.1083,-7325,-28864
1938,1109086,63.0493,12.0239,107.117,-78.5028,3.72437,-144.25,2.42129,-15.681,2.15811,-0.25708,0.170105,-0.609589,0.730255,-105.792,93.2,-24.4583,-7325,-28864
1944,1109092,65.979,13.3667,115.601,-78.1732,4.27368,-144.102,2.55527,-15.0445,2.51221,-0.261383,0.166565,-0.608307,0.730621,-105.442,93.275,-24.8083,-7325,-28864
1950,1109098,68.9087,19.7144,132.751,-77.8326,4.87793,-143.959,2.10068,-13.6951,2.52178,-0.265869,0.162628,-0.607056,0.730896,-105.05,93.325,-25.175,-7325,-28864
1956,1109104,67.9932,19.4702,139.221,-77.1405,6.17981,-143.663,3.60801,-13.2214,4.14873,-0.27533,0.154053,-0.604675,0.731232,-104.275,93.4833,-25.9583,-7325,-28864
1962,1109110,65.0635,29.2969,146.118,-76.8109,6.88293,-143.542,4.06738,-13.786,5.71348,-0.28006,0.149231,-0.603699,0.731232,-103.808,93.575,-26.4083,-7325,-28864
1968,1109116,60.6689,32.3486,154.785,-76.5033,7.63,-143.427,5.00527,-13.4989,4.36406,-0.284943,0.144165,-0.602936,0.731018,-103.292,93.6667,-26.875,-7325,-28864
1974,1109122,56.9458,34.3018,165.161,-76.2122,8.42651,-143.306,4.24922,-13.9439,4.17266,-0.290039,0.138824,-0.602356,0.73053,-102.708,93.75,-27.3833,-7325,-28864
1980,1109128,53.5278,43.8843,184.509,-75.9375,9.27246,-143.201,3.76113,-15.0445,4.00518,-0.295197,0.133057,-0.601959,0.729858,-102.108,93.825,-27.9083,-7325,-28864
1986,1109134,52.124,46.7529,193.481,-75.3882,11.1017,-142.982,2.64141,-17.1069,1.39248,-0.306091,0.120575,-0.60141,0.727997,-100.883,93.9583,-28.9667,-7325,-28864
1992,1109140,57.4341,42.3584,205.383,-75.0861,12.0905,-142.828,2.44521,-16.5758,0.373242,-0.312073,0.113953,-0.600983,0.726868,-100.217,94.0333,-29.525,-7325,-28864
1998,1109146,62.6831,44.1284,215.393,-74.7565,13.1177,-142.668,2.39736,-16.7959,0.952246,-0.318329,0.106964,-0.600403,0.725677,-99.4917,94.1,-30.0833,-7325,-28864
2004,1109152,65.8569,43.5181,225.281,-74.4049,14.1943,-142.482,2.22988,-18.8918,1.08145,-0.32489,0.0997009,-0.599762,0.724365,-98.7083,94.175,-30.625,-7325,-28864
2010,1109158,71.7773,42.9688,249.512,-73.6414,16.507,-142.048,0.665137,-21.782,-1.60303,-0.331726,0.0921021,-0.59906,0.722839,-96.95,94.2833,-31.6333,-7325,-28864
2016,1109164,87.5854,37.0483,261.78,-73.1525,17.7319,-141.751,-0.722559,-26.1796,-5.56992,-0.34668,0.0758972,-0.596832,0.719543,-96.0417,94.3167,-32.1333,-7325,-28864
2022,1109170,107.056,34.1187,274.841,-72.5537,19.0173,-141.411,0.00478516,-28.041,-6.27334,-0.354919,0.0671082,-0.594788,0.718079,-95.0417,94.3417,-32.65,-7325,-28864
2028,1109176,129.211,24.353,287.659,-71.8176,20.3357,-140.988,2.09111,-29.0555,-6.04365,-0.36377,0.0579529,-0.591888,0.716858,-93.975,94.35,-33.2,-7325,-28864
2034,1109182,152.283,20.2637,304.688,-70.9332,21.72,-140.488,3.35439,-29.1942,-5.04834,-0.37323,0.0481567,-0.588165,0.71579,-92.825,94.3333,-33.8083,-7325,-28864
2040,1109188,187.378,11.2915,346.191,-68.7744,24.7137,-139.23,5.06748,-28.3855,-3.59365,-0.383301,0.0376892,-0.58374,0.714722,-90.35,94.2333,-35.2,-7325,-28864
2046,1109194,194.824,8.72803,369.263,-67.5385,26.3342,-138.444,6.61309,-28.0697,-1.60303,-0.405487,0.0148926,-0.573181,0.711823,-89.1,94.1667,-35.9333,-7325,-28864
2052,1109200,201.416,12.9395,389.526,-66.2201,28.0371,-137.593,5.07227,-29.0794,-1.62695,-0.417267,0.00247192,-0.567474,0.709747,-87.7833,94.0667,-36.7333,-7325,-28864
2058,1109206,210.999,12.085,405.579,-64.7864,29.7894,-136.637,4.84736,-28.8306,-1.6126,-0.429382,-0.0104065,-0.561279,0.707367,-86.375,93.925,-37.6,-7325,-28864
2064,1109212,224.304,9.09424,419.006,-63.2043,31.5637,-135.571,4.04346,-28.9789,-0.363672,-0.441772,-0.0237732,-0.554413,0.704803,-84.8583,93.7167,-38.5667,-7325,-28864
2070,1109218,232.666,-4.45557,449.951,-59.6503,35.1782,-132.968,3.48359,-29.7972,0.143555,-0.467743,-0.0512085,-0.539307,0.698303,-81.55,93.1,-40.7083,-7325,-28864
2076,1109224,239.99,-14.0381,461.792,-57.6178,36.969,-131.385,3.99561,-27.7396,1.43076,-0.481293,-0.0650635,-0.530853,0.694397,-79.8833,92.725,-41.7833,-7325,-28864
2082,1109230,246.643,-24.231,467.773,-55.3986,38.7103,-129.606,4.68945,-28.8354,3.63672,-0.494995,-0.0787964,-0.521759,0.690216,-78.1,92.275,-42.9667,-7325,-28864
2088,1109236,242.92,-28.7476,467.285,-53.0695,40.3748,-127.678,4.29707,-33.7019,2.30645,-0.508545,-0.0922546,-0.512451,0.685669,-76.25,91.725,-44.2,-7325,-28864
2094,1109242,240.967,-28.8086,454.59,-50.658,41.9238,-125.673,6.05322,-35.7978,1.13887,-0.521454,-0.105316,-0.503052,0.681061,-74.3167,91.0667,-45.55,-7325,-28864
2100,1109248,269.592,-8.54492,406.616,-45.5713,44.6594,-121.778,6.21113,-31.9313,0.483301,-0.543427,-0.131714,-0.483398,0.673462,-70.275,89.4667,-48.3833,-7309,-28866
2106,1109254,262.695,1.2207,375.122,-43.1104,45.8405,-120.004,4.9,-18.4611,-6.38818,-0.552155,-0.144501,-0.474152,0.670288,-68.225,88.5167,-49.8917,-7309,-28866
2112,1109260,244.385,-0.549316,346.13,-40.7648,46.8677,-118.29,8.72813,-13.4271,-10.8623,-0.559967,-0.156158,-0.465485,0.667267,-66.2667,87.5583,-51.3333,-7309,-28866
2118,1109266,218.262,-23.0713,306.091,-38.5675,47.6367,-116.631,16.8103,-3.96211,-18.9062,-0.566986,-0.16571,-0.457275,0.664703,-64.325,86.5083,-52.8,-7309,-28866
2124,1109272,201.66,-32.7759,253.235,-36.6174,48.1696,-115.208,19.911,-3.13428,-26.816,-0.572571,-0.173492,-0.449738,0.663086,-62.4083,85.3667,-54.2583,-7309,-28866
2130,1109278,263.55,-16.6626,198.12,-32.959,49.032,-113.022,5.06748,15.1881,-19.5426,-0.579559,-0.189423,-0.434784,0.662628,-58.7417,82.8917,-57.1833,-7309,-28866
2136,1109284,171.082,-56.5186,75.0732,-31.9098,48.9221,-112.599,0.947461,21.4566,4.27793,-0.580261,-0.192352,-0.429047,0.664886,-57.05,81.6,-58.65,-7309,-28866
2142,1109290,47.7905,-94.7876,14.2212,-31.6736,48.4827,-112.429,1.20586,10.6996,-6.26855,-0.580902,-0.189911,-0.426453,0.666718,-55.4917,80.375,-60.0417,-7309,-28866
2148,1109296,-31.5552,-91.6138,-46.2646,-32.1295,47.9059,-112.659,1.52168,6.1585,-7.01025,-0.580322,-0.184448,-0.426758,0.668549,-54.0583,79.1417,-61.3833,-7309,-28866
2154,1109302,-105.225,-112.915,-159.912,-33.0139,47.0764,-113.209,7.39307,2.08154,-5.79961,-0.578491,-0.176331,-0.428223,0.671387,-52.7917,77.9417,-62.7,-7309,-28866
2160,1109308,-127.014,-103.088,-191.589,-35.744,45.0769,-115.027,12.5563,-7.16338,-7.16816,-0.57132,-0.155457,-0.435028,0.678284,-50.8,75.8583,-64.9917,-7309,-28866
