TimeSinceCollection,Timestamp,AngularVelX,AngularVelY,AngularVelZ,AngleRoll,AnglePitch,AngleYaw,AccX,AccY,AccZ,Q1,Q2,Q3,Q4,MagX,MagY,MagZ,Height,Airpressure
0,452593,6.5918,-12.085,-9.0332,-77.58,-18.468,-107.737,2.62705,-10.3694,1.01445,0.372711,-0.465454,0.425873,-0.68042,-126.625,52.8667,-54.4083,-10322,-28501
6,452599,8.48389,-6.16455,-12.3901,-77.5525,-18.5339,-107.787,2.79932,-10.623,0.215332,0.372375,-0.465607,0.425629,-0.680634,-126.633,52.825,-54.4167,-10322,-28501
12,452605,12.4512,-8.8501,-16.5405,-77.5085,-18.6163,-107.831,2.56484,-11.0106,0.933105,0.371857,-0.465637,0.425385,-0.68103,-126.625,52.7833,-54.425,-10322,-28501
18,452611,16.0522,-5.92041,-21.7285,-77.4426,-18.7207,-107.897,3.59365,-10.9532,0.966602,0.371368,-0.465759,0.424927,-0.681519,-126.625,52.725,-54.4333,-10322,-28501
24,452617,23.0713,5.7373,-33.4473,-77.3383,-18.847,-108.012,4.8043,-9.19707,1.6748,0.369843,-0.465668,0.423553,-0.683258,-126.633,52.675,-54.45,-10322,-28501
30,452623,14.4653,16.2354,-36.3159,-77.113,-19.1547,-108.342,5.93359,-6.45039,1.5791,0.368774,-0.465515,0.422668,-0.684509,-126.725,52.5667,-54.5,-10322,-28501
36,452629,-3.96729,35.4004,-36.0718,-77.0691,-19.292,-108.638,6.37383,-4.9957,1.03359,0.367218,-0.46524,0.422119,-0.685852,-126.775,52.4917,-54.5917,-10322,-28501
42,452635,-21.7285,49.3164,-34.729,-77.0911,-19.4073,-109.001,6.06758,-5.26367,0.995313,0.36496,-0.464691,0.422424,-0.687256,-126.833,52.4167,-54.6583,-10322,-28501
48,452641,-35.7056,66.1621,-33.5693,-77.157,-19.5062,-109.451,6.31641,-5.94316,0.468945,0.362091,-0.463989,0.423492,-0.688568,-126.883,52.35,-54.7083,-10322,-28501
54,452647,-59.7534,99.5483,-40.4663,-77.3822,-19.693,-110.638,4.83779,-8.34053,0.00957031,0.354401,-0.46167,0.427673,-0.691528,-126.942,52.2833,-54.7583,-10322,-28501
60,452653,-65.0024,112.793,-45.0439,-77.5085,-19.7974,-111.341,5.13447,-8.7999,-0.200977,0.349609,-0.460175,0.430511,-0.693207,-127.033,52.0583,-54.8583,-10322,-28501
66,452659,-69.7632,121.033,-46.2646,-77.6404,-19.9017,-112.094,5.23018,-8.7999,-0.172266,0.344299,-0.458466,0.433624,-0.695068,-127.067,51.9583,-54.9333,-10322,-28501
72,452665,-73.3032,134.705,-46.2646,-77.7722,-19.9951,-112.912,5.04834,-9.00566,-0.133984,0.338684,-0.456543,0.436951,-0.697021,-127.117,51.8417,-55.0333,-10322,-28501
78,452671,-76.9043,143.25,-44.6777,-77.9041,-20.072,-113.774,4.18701,-8.79033,-0.0334961,0.332703,-0.454254,0.440582,-0.699097,-127.15,51.7083,-55.2083,-10322,-28501
84,452677,-83.9844,151.794,-40.8936,-78.1952,-20.1929,-115.56,2.95723,-8.66592,0.468945,0.32019,-0.448975,0.448486,-0.703308,-127.167,51.5833,-55.4,-10322,-28501
90,452683,-87.5244,155.151,-39.6729,-78.3545,-20.2368,-116.477,2.47393,-9.12051,0.349316,0.313782,-0.446106,0.452698,-0.705322,-127.258,51.3917,-55.8333,-10322,-28501
96,452689,-88.0127,152.71,-38.5742,-78.5248,-20.2753,-117.383,1.94756,-9.72822,1.20586,0.307281,-0.443146,0.457092,-0.707245,-127.283,51.2667,-56.1,-10322,-28501
102,452695,-87.9517,153.076,-38.5132,-78.6896,-20.3192,-118.29,2.20596,-10.2498,0.947461,0.300812,-0.440155,0.461426,-0.709045,-127.317,51.1667,-56.3667,-10322,-28501
108,452701,-86.6089,155.029,-38.3911,-78.8434,-20.3577,-119.207,1.78008,-10.4221,1.18672,0.294342,-0.437134,0.465729,-0.710785,-127.317,51.0583,-56.6167,-10322,-28501
114,452707,-80.8716,151.733,-39.856,-79.1071,-20.4565,-121.025,1.67959,-10.4316,1.30635,0.281372,-0.430786,0.474152,-0.714355,-127.3,50.9583,-56.8583,-10314,-28502
120,452713,-79.1626,154.114,-40.1001,-79.2224,-20.5005,-121.937,1.67002,-10.1445,1.03838,0.274994,-0.427612,0.478119,-0.716095,-127.233,50.725,-57.4833,-10314,-28502
126,452719,-78.0029,149.536,-38.8184,-79.3378,-20.5444,-122.827,1.22979,-9.73779,1.2585,0.268616,-0.424316,0.482025,-0.717865,-127.175,50.6333,-57.775,-10314,-28502
132,452725,-77.6978,146.851,-36.5601,-79.4531,-20.5829,-123.701,1.1293,-9.65645,1.1293,0.26239,-0.421082,0.48584,-0.719513,-127.125,50.5417,-58.1167,-10314,-28502
138,452731,-77.5146,141.052,-33.8135,-79.5795,-20.6104,-124.536,0.669922,-9.63252,1.17715,0.256287,-0.417816,0.489624,-0.721039,-127.058,50.425,-58.5083,-10314,-28502
144,452737,-75.3174,127.563,-26.3672,-79.8541,-20.6323,-126.101,0.727344,-10.0728,1.01445,0.24472,-0.41156,0.497009,-0.723572,-127,50.3167,-58.875,-10314,-28502
150,452743,-72.876,118.896,-22.583,-80.0024,-20.6213,-126.81,1.01445,-10.135,0.799121,0.23941,-0.408569,0.50061,-0.724579,-126.925,50.1083,-59.7083,-10314,-28502
156,452749,-69.9463,113.525,-19.3481,-80.1453,-20.6049,-127.491,1.10059,-10.1732,0.818262,0.234436,-0.405701,0.504089,-0.725403,-126.867,49.9917,-60.15,-10314,-28502
162,452755,-67.1997,104.919,-17.2119,-80.2881,-20.5829,-128.123,0.971387,-10.111,1.03359,0.229736,-0.402893,0.507477,-0.726105,-126.833,49.9167,-60.5583,-10314,-28502
168,452761,-63.9038,96.0693,-15.5029,-80.4309,-20.5554,-128.705,1.54561,-9.86699,1.09102,0.225372,-0.400238,0.510681,-0.726685,-126.792,49.875,-60.925,-10314,-28502
174,452767,-58.7769,85.2051,-13.6108,-80.7111,-20.5115,-129.787,2.12939,-9.36455,1.50254,0.217377,-0.395416,0.516632,-0.72757,-126.633,49.8167,-61.6333,-10314,-28502
180,452773,-56.3965,79.5288,-12.8784,-80.8484,-20.495,-130.281,2.77539,-8.93389,1.60781,0.213715,-0.393188,0.519409,-0.727905,-126.567,49.8167,-62.0083,-10314,-28502
186,452779,-54.3823,77.0874,-12.5122,-80.9747,-20.473,-130.759,3.07686,-8.57022,1.78486,0.210205,-0.391083,0.522034,-0.72818,-126.483,49.8417,-62.3583,-10314,-28502
192,452785,-53.4058,73.9136,-11.9019,-81.1066,-20.462,-131.226,3.2252,-8.33574,2.00977,0.206818,-0.389038,0.524536,-0.728424,-126.392,49.8667,-62.7,-10314,-28502
198,452791,-51.9409,70.3125,-11.4746,-81.2329,-20.4456,-131.666,3.55059,-8.02949,2.15332,0.203522,-0.387054,0.526978,-0.728638,-126.275,49.8583,-63.0417,-10314,-28502
204,452797,-50.7202,68.8477,-11.8408,-81.4801,-20.4291,-132.539,3.8999,-7.75674,2.34473,0.197205,-0.383301,0.531647,-0.728973,-126.067,49.8667,-63.6417,-10314,-28502
210,452803,-50.2319,68.9697,-13.1226,-81.601,-20.4346,-132.979,4.1583,-7.54619,2.43564,0.194031,-0.38147,0.533905,-0.729156,-125.95,49.8583,-63.875,-10314,-28502
216,452809,-50.293,68.4204,-13.9771,-81.7163,-20.4456,-133.412,4.31143,-7.23516,2.51221,0.190857,-0.379669,0.536072,-0.72934,-125.842,49.85,-64.1333,-10305,-28503
222,452815,-50.5981,67.9321,-15.1367,-81.8372,-20.4675,-133.841,4.71816,-6.91455,2.68447,0.187653,-0.377869,0.538239,-0.729523,-125.733,49.85,-64.375,-10305,-28503
228,452821,-51.3306,68.6646,-15.686,-81.9525,-20.495,-134.275,5.14404,-6.57959,2.6749,0.184387,-0.37616,0.540344,-0.729675,-125.65,49.85,-64.575,-10305,-28503
234,452827,-52.002,67.627,-17.0288,-82.1997,-20.5664,-135.143,5.39287,-6.23506,2.56963,0.177734,-0.372742,0.544525,-0.72998,-125.517,49.8667,-64.9667,-10305,-28503
240,452833,-51.8188,65.1855,-18.2495,-82.3206,-20.6158,-135.56,5.19668,-5.88574,2.49307,0.174377,-0.371094,0.546539,-0.730103,-125.442,49.8917,-65.1167,-10305,-28503
246,452839,-51.1475,61.7065,-19.165,-82.4469,-20.6763,-135.961,5.01006,-5.67041,2.55527,0.171021,-0.369568,0.548492,-0.730194,-125.358,49.925,-65.2333,-10305,-28503
252,452845,-50.4761,57.1289,-19.4702,-82.5732,-20.7477,-136.335,4.82822,-5.47422,2.5457,0.167725,-0.368195,0.550354,-0.730255,-125.275,49.95,-65.3583,-10305,-28503
258,452851,-49.8047,50.5981,-18.6157,-82.7051,-20.8191,-136.675,4.76123,-5.38809,2.75625,0.164551,-0.366943,0.552155,-0.730255,-125.183,49.95,-65.5083,-10305,-28503
264,452857,-46.6919,36.1328,-13.7329,-82.9907,-20.9454,-137.236,4.58896,-5.6417,3.17256,0.158752,-0.365021,0.555481,-0.72998,-125.017,50.0083,-65.8,-10305,-28503
270,452863,-44.2505,27.832,-10.2539,-83.1335,-21.0004,-137.45,4.50762,-6.18721,3.4166,0.156311,-0.364288,0.557007,-0.729706,-124.95,50.05,-65.95,-10305,-28503
276,452869,-40.8325,19.9585,-7.38525,-83.2764,-21.0388,-137.615,4.5459,-6.93369,3.38789,0.154205,-0.363739,0.558441,-0.72934,-124.875,50.075,-66.125,-10305,-28503
282,452875,-59.8145,23.6206,-12.207,-83.5071,-21.1047,-137.807,3.27783,-13.1735,-0.641211,0.152466,-0.363373,0.559723,-0.728912,-124.808,50.1083,-66.2833,-10305,-28503
288,452881,-47.6685,-12.146,10.437,-83.7433,-21.0992,-137.785,5.08184,39.1474,-0.669922,0.150146,-0.363068,0.561615,-0.728088,-124.775,50.1417,-66.4417,-10305,-28503
294,452887,110.596,51.4526,28.5034,-82.337,-20.8081,-138.175,-6.54131,6.85713,-0.813477,0.152222,-0.361267,0.559082,-0.730499,-124.692,50.1917,-66.7167,-10305,-28503
300,452893,5.00488,-27.0996,27.71,-82.3425,-20.7202,-138.065,-0.507227,-5.71826,3.69893,0.153168,-0.358093,0.556274,-0.734009,-124.642,50.2083,-66.85,-10305,-28503
306,452899,37.9028,15.3198,17.5171,-82.1063,-20.6543,-138.186,8.22568,-17.0878,6.74707,0.154358,-0.358124,0.556244,-0.733734,-124.592,50.2333,-66.9583,-10305,-28503
312,452905,52.8564,46.0205,9.64355,-81.7273,-20.5994,-138.477,0.411523,-5.92881,1.90928,0.154724,-0.356812,0.555328,-0.735016,-124.533,50.2333,-67.025,-10305,-28503
318,452911,19.5923,13.0615,7.01904,-81.579,-20.5774,-138.593,1.3877,-6.55566,3.94775,0.154144,-0.353699,0.553467,-0.738037,-124.442,50.225,-67.15,-10305,-28503
324,452917,20.813,18.8599,7.69043,-81.2659,-20.5115,-138.906,2.12461,-8.99609,2.3208,0.153717,-0.352539,0.553101,-0.738953,-124.275,50.2083,-67.35,-10305,-28503
330,452923,16.7236,4.39453,5.43213,-81.145,-20.5005,-138.977,3.05293,-8.49844,4.0626,0.153473,-0.35141,0.552582,-0.739929,-124.2,50.2,-67.4583,-10305,-28503
336,452929,9.82666,4.3335,4.76074,-81.0626,-20.495,-139.054,4.10566,-7.91943,2.36387,0.153412,-0.35083,0.552063,-0.740601,-124.133,50.175,-67.575,-10314,-28502
342,452935,4.27246,5.00488,5.12695,-81.0022,-20.484,-139.131,4.07695,-8.64199,1.85186,0.153259,-0.350342,0.551788,-0.741089,-124.067,50.15,-67.675,-10314,-28502
348,452941,2.44141,6.16455,4.57764,-80.9583,-20.473,-139.213,3.48359,-8.99609,1.86143,0.152649,-0.349304,0.551666,-0.741791,-124.008,50.1583,-67.7833,-10314,-28502
354,452947,0.976563,2.13623,2.50244,-80.8868,-20.4675,-139.345,3.03379,-9.1875,2.1916,0.152344,-0.348846,0.551666,-0.742065,-123.875,50.175,-68.0417,-10314,-28502
360,452953,0.366211,0,1.83105,-80.8594,-20.473,-139.4,3.06729,-9.02959,2.16768,0.152039,-0.348511,0.551636,-0.74231,-123.817,50.1917,-68.1833,-10314,-28502
366,452959,-0.549316,-2.19727,0.976563,-80.8429,-20.484,-139.444,3.25869,-8.91953,2.11025,0.151733,-0.348267,0.551636,-0.742493,-123.775,50.2167,-68.3,-10314,-28502
372,452965,-2.13623,-3.17383,0.671387,-80.8429,-20.495,-139.477,3.48359,-8.91475,1.84707,0.151459,-0.348083,0.551605,-0.742615,-123.725,50.2417,-68.3917,-10314,-28502
378,452971,-3.35693,-3.66211,0.732422,-80.8429,-20.506,-139.51,3.56973,-9.02481,1.65566,0.150879,-0.34787,0.551758,-0.742737,-123.683,50.2667,-68.5,-10314,-28502
384,452977,-4.08936,-4.27246,0.366211,-80.8594,-20.5334,-139.576,3.70371,-9.18272,1.33984,0.150574,-0.347809,0.551849,-0.742767,-123.625,50.3083,-68.6167,-10314,-28502
390,452983,-3.96729,-4.08936,0.244141,-80.8704,-20.5444,-139.609,3.77549,-9.21621,1.20107,0.150269,-0.347748,0.551971,-0.742767,-123.608,50.325,-68.6583,-10314,-28502
396,452989,-3.78418,-2.56348,0.366211,-80.8813,-20.5554,-139.647,3.78506,-9.27842,1.0001,0.149963,-0.347687,0.552094,-0.742767,-123.592,50.3083,-68.675,-10314,-28502
402,452995,-3.35693,-0.793457,-0.0610352,-80.8868,-20.5664,-139.697,3.52188,-9.38848,1.03359,0.149597,-0.347565,0.552246,-0.742798,-123.558,50.3,-68.675,-10314,-28502
408,453001,-2.2583,-0.0610352,-0.854492,-80.8813,-20.5774,-139.752,3.24434,-9.37891,1.36855,0.148804,-0.347198,0.55249,-0.74292,-123.525,50.3083,-68.6833,-10314,-28502
414,453007,-0.183105,-0.366211,-2.01416,-80.8649,-20.6104,-139.856,3.48838,-9.14443,1.33506,0.148407,-0.347015,0.552551,-0.743042,-123.475,50.2833,-68.725,-10314,-28502
420,453013,-0.549316,-0.732422,-2.13623,-80.8594,-20.6268,-139.905,3.69414,-9.13008,1.14365,0.14798,-0.346863,0.552582,-0.743164,-123.467,50.2583,-68.7333,-10314,-28502
426,453019,0.0610352,-0.671387,-1.77002,-80.8484,-20.6433,-139.96,3.76113,-9.13008,1.15322,0.147583,-0.34671,0.552643,-0.743286,-123.475,50.2583,-68.7,-10314,-28502
432,453025,0.854492,0.183105,-0.610352,-80.8374,-20.6543,-140.015,3.93818,-9.10137,1.18672,0.147186,-0.346558,0.552673,-0.743408,-123.467,50.2417,-68.6667,-10314,-28502
438,453031,0.793457,1.52588,-0.305176,-80.8209,-20.6598,-140.076,3.79463,-9.02002,1.18193,0.146423,-0.346039,0.552795,-0.743713,-123.425,50.225,-68.6333,-10314,-28502
444,453037,1.83105,1.58691,0.305176,-80.788,-20.6708,-140.197,3.69414,-9.12529,1.40205,0.146057,-0.345764,0.552856,-0.743866,-123.375,50.2333,-68.625,-10314,-28502
450,453043,2.01416,1.89209,0.427246,-80.766,-20.6708,-140.257,3.62715,-9.06787,1.42119,0.145691,-0.34549,0.552917,-0.744049,-123.383,50.2083,-68.65,-10305,-28503
456,453049,1.64795,1.70898,1.09863,-80.7495,-20.6708,-140.317,3.61279,-9.02481,1.4834,0.145325,-0.345154,0.552979,-0.744202,-123.408,50.175,-68.6917,-10305,-28503
462,453055,1.83105,1.70898,0.976563,-80.733,-20.6708,-140.378,3.52188,-9.03438,1.6126,0.144989,-0.344849,0.55304,-0.744354,-123.417,50.1417,-68.75,-10305,-28503
468,453061,1.52588,1.46484,1.46484,-80.7166,-20.6653,-140.438,3.42617,-8.94824,1.7083,0.144348,-0.344208,0.553192,-0.74469,-123.425,50.15,-68.8,-10305,-28503
474,453067,0.427246,0.244141,0.793457,-80.7001,-20.6708,-140.543,3.48359,-9.01523,1.7083,0.144043,-0.343933,0.553284,-0.744781,-123.433,50.1667,-68.8583,-10305,-28503
480,453073,0.244141,-0.183105,0.976563,-80.6946,-20.6708,-140.592,3.50273,-8.94346,1.71787,0.143707,-0.343689,0.553406,-0.744904,-123.442,50.1667,-68.85,-10305,-28503
486,453079,-0.610352,-1.09863,0.610352,-80.6946,-20.6708,-140.636,3.52188,-8.89561,1.7083,0.143402,-0.343445,0.553497,-0.744995,-123.458,50.175,-68.825,-10305,-28503
492,453085,-1.46484,-1.40381,0.610352,-80.7001,-20.6763,-140.68,3.59844,-8.97695,1.58389,0.143097,-0.343231,0.553619,-0.745056,-123.458,50.175,-68.8083,-10305,-28503
498,453091,-1.58691,-1.64795,0.427246,-80.7056,-20.6763,-140.724,3.46445,-9.06787,1.60781,0.142456,-0.342865,0.553955,-0.745087,-123.425,50.1583,-68.825,-10305,-28503
504,453097,-2.01416,-2.19727,0.427246,-80.722,-20.6818,-140.801,3.45488,-9.04873,1.62217,0.142151,-0.342712,0.554108,-0.745117,-123.358,50.1583,-68.8583,-10305,-28503
510,453103,-2.01416,-2.68555,0.183105,-80.733,-20.6873,-140.839,3.43096,-9.04873,1.56953,0.141846,-0.34256,0.55426,-0.745117,-123.325,50.1583,-68.875,-10305,-28503
516,453109,-2.31934,-2.80762,0,-80.744,-20.6927,-140.872,3.46924,-9.12529,1.49775,0.141571,-0.342407,0.554443,-0.745117,-123.308,50.15,-68.8833,-10305,-28503
522,453115,-1.83105,-3.23486,-0.244141,-80.755,-20.7037,-140.911,3.43574,-9.10137,1.51211,0.141266,-0.342285,0.554596,-0.745117,-123.3,50.1417,-68.8667,-10305,-28503
528,453121,-1.83105,-2.99072,-0.732422,-80.766,-20.7092,-140.944,3.49795,-9.14443,1.4834,0.140656,-0.342072,0.554901,-0.745117,-123.292,50.1417,-68.825,-10305,-28503
534,453127,-1.83105,-3.35693,-0.549316,-80.788,-20.7257,-141.01,3.48838,-9.11572,1.43076,0.140381,-0.341949,0.555054,-0.745117,-123.267,50.1083,-68.7667,-10305,-28503
540,453133,-1.2207,-3.90625,-0.732422,-80.799,-20.7312,-141.042,3.50273,-9.10615,1.48818,0.140076,-0.341858,0.555176,-0.745087,-123.267,50.1167,-68.7583,-10305,-28503
546,453139,-0.976563,-3.35693,-0.549316,-80.8044,-20.7422,-141.07,3.54102,-9.13965,1.51211,0.139801,-0.341766,0.555298,-0.745087,-123.258,50.1417,-68.7583,-10305,-28503
552,453145,-0.793457,-3.2959,-0.488281,-80.8099,-20.7477,-141.103,3.49795,-9.09658,1.49297,0.139526,-0.341675,0.55542,-0.745087,-123.267,50.175,-68.7417,-10305,-28503
558,453151,-0.671387,-3.35693,-0.366211,-80.8154,-20.7532,-141.136,3.5793,-9.06309,1.40205,0.138977,-0.341461,0.555664,-0.745117,-123.267,50.175,-68.725,-10305,-28503
564,453157,-0.854492,-3.90625,-0.183105,-80.8374,-20.7697,-141.196,3.69893,-9.07266,1.43555,0.138733,-0.34137,0.555786,-0.745117,-123.242,50.1917,-68.65,-10305,-28503
570,453163,-0.549316,-2.92969,-0.12207,-80.8429,-20.7751,-141.229,3.66543,-9.01523,1.40684,0.138489,-0.341278,0.555908,-0.745117,-123.242,50.1917,-68.6417,-10305,-28503
576,453169,-0.610352,-2.50244,0.366211,-80.8484,-20.7751,-141.262,3.75156,-9.01523,1.42119,0.138214,-0.341156,0.55603,-0.745117,-123.233,50.1667,-68.6833,-10305,-28503
582,453175,-0.915527,-2.74658,0.427246,-80.8539,-20.7806,-141.295,3.7085,-9.02002,1.40205,0.137939,-0.341003,0.556183,-0.745148,-123.233,50.15,-68.7083,-10305,-28503
588,453181,-1.0376,-1.40381,1.40381,-80.8649,-20.7806,-141.334,3.70371,-9.05352,1.3542,0.137421,-0.340698,0.556488,-0.745148,-123.242,50.1417,-68.725,-10305,-28503
594,453187,-1.2207,-0.915527,1.2207,-80.8759,-20.7751,-141.416,3.54102,-9.01523,1.4834,0.137177,-0.340485,0.556641,-0.745178,-123.233,50.0917,-68.725,-10305,-28503
600,453193,-1.15967,-1.15967,1.46484,-80.8813,-20.7697,-141.46,3.42139,-9.14922,1.55518,0.136902,-0.340271,0.556824,-0.745178,-123.233,50.0833,-68.725,-10305,-28503
606,453199,-1.58691,-1.46484,1.09863,-80.8923,-20.7697,-141.498,3.38311,-9.01523,1.60781,0.136627,-0.340057,0.557007,-0.745209,-123.242,50.1083,-68.6917,-10305,-28503
612,453205,-1.95313,-2.19727,0.549316,-80.9033,-20.7697,-141.531,3.42617,-9.06787,1.63174,0.136353,-0.339874,0.55719,-0.745209,-123.25,50.1333,-68.6417,-10305,-28503
618,453211,-2.13623,-1.83105,0.305176,-80.9143,-20.7697,-141.57,3.51709,-9.06787,1.44512,0.135803,-0.339539,0.557556,-0.745178,-123.267,50.15,-68.625,-10305,-28503
624,453217,-2.01416,-2.0752,-0.0610352,-80.9418,-20.7751,-141.647,3.52666,-9.17314,1.43555,0.135498,-0.339386,0.557739,-0.745178,-123.283,50.1917,-68.5667,-10305,-28503
630,453223,-1.58691,-2.0752,0,-80.9473,-20.7806,-141.68,3.50752,-9.14922,1.4499,0.135223,-0.339233,0.557922,-0.745148,-123.283,50.2,-68.5583,-10305,-28503
636,453229,-1.46484,-1.46484,-0.12207,-80.9583,-20.7806,-141.724,3.53623,-9.11094,1.43076,0.134918,-0.339111,0.558075,-0.745148,-123.275,50.175,-68.5083,-10305,-28503
642,453235,-1.64795,-1.70898,-0.0610352,-80.9692,-20.7861,-141.762,3.4501,-9.10615,1.45469,0.134613,-0.338928,0.558228,-0.745148,-123.3,50.1667,-68.4833,-10305,-28503
648,453241,-1.52588,-2.2583,-0.244141,-80.9747,-20.7861,-141.795,3.46924,-9.10615,1.46904,0.134033,-0.338623,0.558563,-0.745148,-123.325,50.1583,-68.4417,-10305,-28503
654,453247,-1.34277,-1.95313,-0.732422,-80.9967,-20.7971,-141.866,3.56494,-9.10137,1.47383,0.133759,-0.338501,0.558716,-0.745148,-123.358,50.1083,-68.3917,-10305,-28503
660,453253,-1.28174,-1.89209,-0.610352,-81.0022,-20.8026,-141.905,3.50752,-9.08223,1.4499,0.133453,-0.338379,0.558868,-0.745148,-123.35,50.075,-68.3833,-10305,-28503
666,453259,-1.0376,-2.13623,-0.610352,-81.0132,-20.8081,-141.943,3.53623,-9.07266,1.46904,0.133148,-0.338226,0.559021,-0.745148,-123.367,50.0583,-68.375,-10305,-28503
672,453265,-1.28174,-2.19727,-0.427246,-81.0187,-20.8136,-141.976,3.58887,-9.04395,1.46904,0.132874,-0.338104,0.559143,-0.745178,-123.375,50.0417,-68.375,-10305,-28503
678,453271,-1.52588,-2.19727,-0.671387,-81.0297,-20.8191,-142.015,3.62715,-9.06787,1.40684,0.132294,-0.33783,0.559448,-0.745178,-123.383,50.025,-68.3583,-10305,-28503
684,453277,-1.58691,-2.0752,-0.610352,-81.0516,-20.8301,-142.081,3.65586,-9.0583,1.41162,0.132019,-0.337708,0.559601,-0.745178,-123.425,50.025,-68.3,-10305,-28503
690,453283,-1.46484,-1.83105,-0.0610352,-81.0626,-20.8356,-142.119,3.63193,-9.06309,1.43076,0.131714,-0.337585,0.559753,-0.745148,-123.433,50.0333,-68.2583,-10305,-28503
696,453289,-2.01416,-1.89209,0,-81.0736,-20.8411,-142.158,3.60322,-9.07266,1.42119,0.131439,-0.337433,0.559906,-0.745148,-123.425,50.025,-68.2417,-10305,-28503
702,453295,-2.01416,-1.46484,-0.12207,-81.0846,-20.8411,-142.191,3.61758,-9.08223,1.39727,0.131134,-0.33728,0.560089,-0.745148,-123.408,50.025,-68.2583,-10305,-28503
708,453301,-1.52588,-1.40381,0.183105,-81.0956,-20.8466,-142.229,3.56973,-9.12529,1.41641,0.130554,-0.336975,0.560425,-0.745117,-123.4,50.0417,-68.2667,-10305,-28503
714,453307,-1.46484,-1.40381,0.183105,-81.1121,-20.8466,-142.306,3.5458,-9.07266,1.41162,0.13028,-0.336823,0.560577,-0.745117,-123.383,50.0667,-68.2583,-10305,-28503
720,453313,-1.28174,-1.46484,-0.183105,-81.1176,-20.8521,-142.344,3.5793,-9.09658,1.44033,0.130005,-0.336639,0.56076,-0.745117,-123.367,50.075,-68.2583,-10305,-28503
726,453319,-1.46484,-1.34277,0,-81.1285,-20.8521,-142.383,3.59365,-9.13486,1.43076,0.1297,-0.336487,0.560913,-0.745117,-123.358,50.0833,-68.225,-10305,-28503
732,453325,-1.34277,-1.09863,0.12207,-81.134,-20.8521,-142.421,3.59844,-9.09658,1.44033,0.129425,-0.336334,0.561066,-0.745117,-123.35,50.0917,-68.2083,-10305,-28503
738,453331,-1.2207,-1.09863,0,-81.1505,-20.8575,-142.498,3.59365,-9.08701,1.46426,0.128876,-0.335999,0.561371,-0.745148,-123.342,50.1,-68.25,-10305,-28503
744,453337,-1.46484,-1.15967,-0.183105,-81.1615,-20.863,-142.537,3.58408,-9.10137,1.4499,0.128571,-0.335815,0.561523,-0.745148,-123.358,50.1583,-68.3167,-10305,-28503
750,453343,-1.64795,-1.15967,0.0610352,-81.167,-20.863,-142.575,3.56973,-9.09658,1.46904,0.128296,-0.335663,0.561707,-0.745148,-123.392,50.1917,-68.3167,-10305,-28503
756,453349,-1.77002,-0.854492,0.244141,-81.178,-20.863,-142.614,3.60322,-9.06787,1.46426,0.127991,-0.33551,0.561859,-0.745148,-123.4,50.1917,-68.2917,-10305,-28503
762,453355,-2.01416,-1.0376,0.0610352,-81.189,-20.8685,-142.652,3.62236,-9.08223,1.42119,0.127716,-0.335327,0.562042,-0.745148,-123.408,50.1917,-68.225,-10305,-28503
768,453361,-1.89209,-1.34277,0.427246,-81.2109,-20.8685,-142.723,3.65586,-9.07266,1.34463,0.127136,-0.334991,0.562408,-0.745117,-123.433,50.2167,-68.175,-10305,-28503
774,453367,-2.13623,-0.976563,0.671387,-81.2219,-20.8685,-142.762,3.64629,-9.0918,1.33027,0.126862,-0.334808,0.562561,-0.745117,-123.458,50.2417,-68.1583,-10305,-28503
780,453373,-2.01416,-0.793457,0.671387,-81.2329,-20.863,-142.8,3.58887,-9.08701,1.3877,0.126587,-0.334656,0.562775,-0.745087,-123.467,50.25,-68.15,-10305,-28503
786,453379,-2.01416,-0.671387,0.793457,-81.2439,-20.863,-142.839,3.56016,-9.08701,1.43076,0.126312,-0.334442,0.562958,-0.745087,-123.492,50.2667,-68.1167,-10305,-28503
792,453385,-2.2583,-0.976563,0.976563,-81.2604,-20.863,-142.877,3.5793,-9.08223,1.42119,0.126038,-0.334259,0.563141,-0.745087,-123.5,50.2583,-68.1167,-10305,-28503
798,453391,-2.74658,-1.15967,1.34277,-81.2878,-20.8521,-142.949,3.66543,-9.0583,1.34941,0.125519,-0.333923,0.563538,-0.745026,-123.5,50.2333,-68.1083,-10305,-28503
804,453397,-3.05176,-0.915527,1.15967,-81.3043,-20.8521,-142.987,3.60801,-9.08223,1.40684,0.125275,-0.33374,0.563751,-0.744965,-123.5,50.1917,-68.1417,-10305,-28503
810,453403,-3.05176,-1.0376,1.70898,-81.3208,-20.8466,-143.02,3.53145,-9.08701,1.42598,0.125,-0.333557,0.563995,-0.744934,-123.517,50.1917,-68.1667,-10305,-28503
816,453409,-3.17383,-1.52588,1.52588,-81.3428,-20.8411,-143.053,3.52188,-9.05352,1.44033,0.124756,-0.333344,0.564209,-0.744873,-123.517,50.1667,-68.1917,-10305,-28503
822,453415,-3.35693,-2.01416,1.34277,-81.3593,-20.8356,-143.086,3.5123,-9.06787,1.4834,0.124512,-0.333191,0.564453,-0.744812,-123.517,50.1583,-68.2,-10305,-28503
828,453421,-3.72314,-2.74658,0.976563,-81.4032,-20.8301,-143.141,3.46924,-9.07266,1.47383,0.124023,-0.332886,0.564911,-0.74469,-123.525,50.1667,-68.175,-10305,-28503
834,453427,-3.72314,-3.11279,0.793457,-81.4307,-20.8301,-143.168,3.47402,-9.04395,1.47383,0.12381,-0.332764,0.565155,-0.744598,-123.525,50.1833,-68.1333,-10305,-28503
840,453433,-3.84521,-3.11279,0.366211,-81.4526,-20.8356,-143.19,3.47881,-9.11094,1.42119,0.123566,-0.332672,0.565369,-0.744507,-123.533,50.1917,-68.125,-10305,-28503
846,453439,-3.96729,-3.23486,0.854492,-81.4801,-20.8301,-143.218,3.49316,-9.07266,1.39727,0.123322,-0.332581,0.565613,-0.744415,-123.542,50.2167,-68.1,-10305,-28503
852,453445,-3.84521,-3.2959,0.427246,-81.5021,-20.8356,-143.24,3.55059,-9.10615,1.37334,0.123108,-0.332489,0.565826,-0.744324,-123.55,50.2417,-68.0583,-10305,-28503
858,453451,-3.84521,-1.83105,0.366211,-81.546,-20.8356,-143.295,3.73242,-9.06309,1.03838,0.12262,-0.332306,0.566254,-0.744141,-123.558,50.2333,-68.0417,-10305,-28503
864,453457,-2.99072,-0.366211,0.427246,-81.5625,-20.8356,-143.333,3.71807,-9.19707,1.03359,0.122345,-0.332184,0.566498,-0.74408,-123.567,50.2667,-68.0083,-10305,-28503
870,453463,-2.0752,0.671387,0.854492,-81.568,-20.8356,-143.377,3.62715,-9.15879,1.15801,0.12207,-0.332001,0.566711,-0.744049,-123.567,50.3,-68.0083,-10305,-28503
876,453469,-1.46484,1.64795,0.732422,-81.5735,-20.8301,-143.427,3.55059,-9.04873,1.13887,0.121765,-0.331787,0.566895,-0.744049,-123.567,50.3083,-68.0167,-10305,-28503
882,453475,-1.70898,2.44141,0.976563,-81.579,-20.8246,-143.481,3.52666,-9.12051,1.24414,0.12146,-0.331512,0.567078,-0.74408,-123.558,50.3417,-68.0083,-10305,-28503
888,453481,-1.09863,2.01416,0.732422,-81.579,-20.8191,-143.586,3.50273,-9.04395,1.32549,0.120819,-0.330963,0.567444,-0.744141,-123.55,50.3833,-67.9417,-10305,-28503
894,453487,-0.915527,1.77002,0.793457,-81.5845,-20.8136,-143.635,3.5793,-9.07744,1.31113,0.120483,-0.330688,0.567627,-0.744202,-123.533,50.3917,-67.925,-10305,-28503
900,453493,-0.976563,1.95313,0.854492,-81.5845,-20.8081,-143.685,3.65586,-9.07744,1.16758,0.120178,-0.330414,0.56778,-0.744232,-123.525,50.4083,-67.9083,-10305,-28503
906,453499,-0.976563,2.92969,0.793457,-81.5845,-20.8026,-143.74,3.63193,-9.10137,1.17715,0.119873,-0.330139,0.567932,-0.744263,-123.533,50.45,-67.8917,-10305,-28503
912,453505,-0.732422,2.68555,1.2207,-81.5845,-20.7971,-143.795,3.50752,-9.11094,1.26807,0.119568,-0.329865,0.568115,-0.744324,-123.533,50.475,-67.9,-10305,-28503
918,453511,-0.549316,1.83105,0.732422,-81.5845,-20.7916,-143.893,3.45967,-9.07744,1.37813,0.118927,-0.329285,0.568451,-0.744446,-123.525,50.45,-67.8917,-10305,-28503
924,453517,-0.610352,1.52588,0.793457,-81.5845,-20.7861,-143.937,3.46924,-9.04873,1.34941,0.118652,-0.32901,0.568604,-0.744476,-123.525,50.45,-67.8583,-10305,-28503
930,453523,-0.366211,1.46484,0.793457,-81.5845,-20.7861,-143.987,3.44053,-9.04395,1.47861,0.118347,-0.328766,0.568756,-0.744537,-123.533,50.45,-67.8333,-10305,-28503
936,453529,-0.305176,0.671387,0.183105,-81.5845,-20.7806,-144.031,3.39746,-9.03916,1.47383,0.118073,-0.328491,0.568878,-0.744568,-123.542,50.4333,-67.8167,-10305,-28503
942,453535,-0.183105,0.366211,0.183105,-81.5845,-20.7806,-144.069,3.40225,-9.05352,1.46904,0.117798,-0.328278,0.569,-0.744629,-123.542,50.4167,-67.8,-10305,-28503
948,453541,-0.12207,-0.12207,0.0610352,-81.5845,-20.7861,-144.146,3.4501,-9.08223,1.3877,0.117279,-0.327911,0.569244,-0.74469,-123.592,50.4167,-67.8,-10305,-28503
954,453547,-0.0610352,0,-0.366211,-81.5845,-20.7861,-144.185,3.5123,-9.06787,1.23936,0.117004,-0.327698,0.569366,-0.74472,-123.592,50.4167,-67.8,-10305,-28503
960,453553,0,0.793457,-0.549316,-81.5845,-20.7916,-144.229,3.53623,-9.13008,1.21543,0.11673,-0.327515,0.569458,-0.744781,-123.592,50.4083,-67.8083,-10305,-28503
966,453559,0.183105,1.52588,-0.915527,-81.579,-20.7916,-144.278,3.35918,-9.17793,1.31592,0.116455,-0.327332,0.56958,-0.744843,-123.592,50.425,-67.7917,-10305,-28503
972,453565,1.09863,1.34277,-1.15967,-81.5735,-20.7971,-144.327,3.32568,-9.24492,1.3207,0.116119,-0.327118,0.569672,-0.744904,-123.583,50.45,-67.7917,-10305,-28503
978,453571,2.19727,1.40381,-1.95313,-81.546,-20.8136,-144.421,3.54102,-9.17314,1.23936,0.115509,-0.326691,0.569763,-0.745117,-123.558,50.4333,-67.8083,-10305,-28503
984,453577,2.62451,1.58691,-1.77002,-81.5295,-20.8246,-144.465,3.5793,-9.13008,1.29678,0.115173,-0.326508,0.569794,-0.745239,-123.525,50.4583,-67.8667,-10305,-28503
990,453583,2.99072,1.64795,-1.58691,-81.5131,-20.8301,-144.514,3.59844,-9.0918,1.35898,0.114868,-0.326294,0.569794,-0.745361,-123.5,50.4833,-67.875,-10305,-28503
996,453589,2.68555,1.2207,-1.70898,-81.4966,-20.8411,-144.564,3.63193,-9.03916,1.36855,0.114563,-0.32608,0.569794,-0.745514,-123.483,50.4833,-67.875,-10305,-28503
1002,453595,2.38037,1.64795,-1.40381,-81.4801,-20.8466,-144.608,3.60801,-9.06309,1.40684,0.113953,-0.325653,0.569824,-0.745758,-123.45,50.4833,-67.8833,-10305,-28503
1008,453601,2.13623,1.0376,-1.15967,-81.4581,-20.8575,-144.695,3.58408,-9.02002,1.4499,0.113678,-0.32547,0.569855,-0.74585,-123.45,50.4667,-67.85,-10305,-28503
1014,453607,1.89209,0.732422,-0.915527,-81.4471,-20.863,-144.739,3.57451,-9.03438,1.43076,0.113403,-0.325256,0.569885,-0.745972,-123.458,50.4667,-67.85,-10305,-28503
1020,453613,1.70898,0.610352,-0.671387,-81.4362,-20.863,-144.783,3.60322,-9.01523,1.45469,0.113129,-0.325073,0.569916,-0.746063,-123.467,50.45,-67.8917,-10305,-28503
1026,453619,1.2207,0.671387,-0.549316,-81.4307,-20.8685,-144.822,3.63672,-8.98174,1.44512,0.112854,-0.32486,0.569946,-0.746155,-123.483,50.45,-67.8917,-10305,-28503
1032,453625,0.976563,0.549316,-0.183105,-81.4197,-20.8685,-144.866,3.5793,-8.99131,1.46426,0.112335,-0.324463,0.570099,-0.746307,-123.508,50.4583,-67.9167,-10305,-28503
1038,453631,0.610352,0,0.305176,-81.4142,-20.8685,-144.943,3.59365,-9.00088,1.45469,0.112091,-0.32428,0.57016,-0.746368,-123.517,50.3833,-67.9167,-10305,-28503
1044,453637,0.244141,-0.0610352,0.610352,-81.4142,-20.863,-144.976,3.6415,-8.98174,1.39248,0.111877,-0.324066,0.570251,-0.746429,-123.533,50.375,-67.925,-10305,-28503
1050,453643,-0.427246,-0.427246,0.488281,-81.4142,-20.863,-145.009,3.63672,-9.03438,1.31113,0.111664,-0.323883,0.570374,-0.74646,-123.542,50.3583,-67.9083,-10305,-28503
1056,453649,-0.793457,-0.366211,0.610352,-81.4197,-20.863,-145.047,3.52188,-9.08223,1.37334,0.11142,-0.3237,0.570465,-0.74649,-123.55,50.3583,-67.9333,-10305,-28503
1062,453655,-0.488281,-0.915527,0.854492,-81.4252,-20.8575,-145.074,3.46924,-9.13008,1.44033,0.110992,-0.323364,0.57074,-0.74649,-123.542,50.3583,-67.95,-10305,-28503
1068,453661,-0.488281,-1.2207,0.366211,-81.4307,-20.8575,-145.135,3.59844,-9.03438,1.33027,0.110779,-0.323212,0.570831,-0.746521,-123.583,50.3917,-67.95,-10305,-28503
1074,453667,-0.488281,-1.40381,0.793457,-81.4362,-20.8575,-145.162,3.61758,-9.04395,1.33984,0.110565,-0.32309,0.570953,-0.746521,-123.592,50.4,-67.9583,-10305,-28503
1080,453673,-0.427246,-1.0376,1.15967,-81.4417,-20.8521,-145.195,3.65586,-9.02481,1.31592,0.110382,-0.322937,0.571075,-0.746521,-123.617,50.4083,-67.9583,-10305,-28503
1086,453679,-0.732422,-0.488281,1.15967,-81.4471,-20.8521,-145.228,3.5793,-9.05352,1.34941,0.110199,-0.322754,0.571198,-0.746521,-123.633,50.4333,-67.9667,-10305,-28503
1092,453685,-0.488281,-1.28174,1.0376,-81.4526,-20.8466,-145.256,3.48359,-9.08223,1.35898,0.109833,-0.322418,0.571442,-0.746521,-123.633,50.4667,-67.95,-10305,-28503
1098,453691,0.0610352,-1.15967,0.915527,-81.4581,-20.8411,-145.311,3.53623,-9.14922,1.30156,0.10965,-0.322266,0.571564,-0.746521,-123.608,50.4833,-67.9333,-10305,-28503
1104,453697,0.305176,-1.15967,1.40381,-81.4581,-20.8356,-145.338,3.59365,-9.154,1.28242,0.109467,-0.322113,0.571686,-0.746552,-123.608,50.4917,-67.9167,-10305,-28503
1110,453703,0.671387,-1.0376,1.58691,-81.4581,-20.8301,-145.371,3.63193,-9.12051,1.30635,0.109314,-0.32193,0.571777,-0.746552,-123.608,50.4667,-67.925,-10305,-28503
1116,453709,0.305176,-0.854492,1.2207,-81.4581,-20.8246,-145.399,3.63672,-9.08223,1.32549,0.109161,-0.321747,0.571869,-0.746582,-123.6,50.4417,-67.9583,-10305,-28503
1122,453715,0.12207,-1.0376,1.83105,-81.4636,-20.8191,-145.426,3.56973,-9.10615,1.33506,0.108826,-0.321411,0.572083,-0.746613,-123.583,50.4167,-67.9917,-10305,-28503
1128,453721,-0.12207,-1.70898,1.28174,-81.4691,-20.8081,-145.481,3.44053,-9.04395,1.50254,0.108673,-0.321228,0.572205,-0.746643,-123.55,50.425,-68.0083,-10305,-28503
1134,453727,-0.244141,-2.38037,1.40381,-81.4746,-20.8026,-145.503,3.45488,-9.02959,1.49297,0.108521,-0.321075,0.572327,-0.746643,-123.533,50.3917,-68,-10305,-28503
1140,453733,-0.610352,-2.38037,1.58691,-81.4801,-20.7971,-145.525,3.49316,-8.95303,1.51689,0.108398,-0.320953,0.572418,-0.746613,-123.533,50.3667,-67.9833,-10305,-28503
1146,453739,-1.28174,-2.68555,1.34277,-81.4966,-20.7971,-145.541,3.59844,-8.95303,1.47861,0.108276,-0.320831,0.57254,-0.746613,-123.542,50.3667,-67.9583,-10305,-28503
1152,453745,-1.89209,-2.62451,1.58691,-81.5076,-20.7916,-145.563,3.55537,-9.02481,1.43076,0.107971,-0.320618,0.572845,-0.746521,-123.567,50.375,-67.9417,-10305,-28503
1158,453751,-2.74658,-3.11279,2.01416,-81.546,-20.7806,-145.602,3.53623,-9.01523,1.48818,0.107819,-0.320496,0.573029,-0.746429,-123.583,50.4083,-68.0083,-10305,-28503
1164,453757,-2.92969,-3.23486,1.89209,-81.568,-20.7751,-145.618,3.65107,-8.99609,1.42598,0.107697,-0.320404,0.573212,-0.746368,-123.583,50.45,-68.0167,-10305,-28503
1170,453763,-3.479,-2.68555,2.31934,-81.59,-20.7642,-145.635,3.66064,-8.95303,1.3877,0.107574,-0.320282,0.573425,-0.746277,-123.583,50.4583,-68.0167,-10305,-28503
1176,453769,-4.02832,-2.92969,2.44141,-81.6119,-20.7587,-145.651,3.59365,-9.07266,1.33027,0.107452,-0.32019,0.573639,-0.746185,-123.567,50.4333,-68.0167,-10305,-28503
1182,453775,-3.78418,-2.74658,2.74658,-81.6339,-20.7477,-145.668,3.50752,-9.14443,1.27764,0.107178,-0.319946,0.574097,-0.745941,-123.55,50.4167,-68.0333,-10305,-28503
1188,453781,-3.41797,-2.56348,2.68555,-81.6833,-20.7312,-145.706,3.51709,-9.13008,1.28242,0.107025,-0.319824,0.574341,-0.74585,-123.567,50.4417,-68.0167,-10305,-28503
1194,453787,-3.479,-2.62451,2.56348,-81.7053,-20.7202,-145.723,3.58408,-9.03916,1.30635,0.106903,-0.319702,0.574554,-0.745758,-123.55,50.45,-67.9917,-10305,-28503
1200,453793,-4.02832,-1.83105,2.86865,-81.7273,-20.7092,-145.745,3.56016,-9.00566,1.39248,0.106781,-0.31958,0.574768,-0.745636,-123.533,50.4417,-67.9667,-10305,-28503
1206,453799,-4.27246,-1.89209,2.56348,-81.7493,-20.6982,-145.767,3.53145,-9.03438,1.3542,0.106659,-0.319427,0.575012,-0.745544,-123.517,50.475,-67.925,-10305,-28503
1212,453805,-4.21143,-2.13623,2.62451,-81.7767,-20.6873,-145.789,3.33525,-9.13008,1.38291,0.106354,-0.319122,0.5755,-0.745331,-123.483,50.5,-67.8833,-10305,-28503
1218,453811,-3.78418,-2.62451,2.01416,-81.8207,-20.6763,-145.827,3.27783,-9.12051,1.53604,0.106201,-0.319,0.575745,-0.745239,-123.458,50.5417,-67.825,-10305,-28503
1224,453817,-3.54004,-2.62451,0.976563,-81.8427,-20.6708,-145.844,3.29219,-9.06309,1.53604,0.106049,-0.318909,0.575958,-0.745117,-123.467,50.5583,-67.8333,-10305,-28503
1230,453823,-3.35693,-3.78418,1.28174,-81.8646,-20.6708,-145.86,3.38311,-9.02481,1.51689,0.105865,-0.318817,0.576172,-0.745026,-123.475,50.5667,-67.8583,-10305,-28503
1236,453829,-4.02832,-4.02832,0.976563,-81.8921,-20.6708,-145.871,3.4501,-9.03438,1.51689,0.105743,-0.318756,0.576355,-0.744934,-123.467,50.5333,-67.9,-10305,-28503
1242,453835,-4.08936,-4.45557,0.366211,-81.9196,-20.6708,-145.876,3.51709,-9.10615,1.33506,0.105469,-0.318695,0.576752,-0.74469,-123.45,50.5417,-67.9333,-10305,-28503
1248,453841,-3.54004,-4.57764,0.915527,-81.969,-20.6708,-145.893,3.56494,-9.13965,1.24893,0.105347,-0.318695,0.576935,-0.744537,-123.425,50.6,-67.95,-10305,-28503
1254,453847,-3.479,-5.18799,1.34277,-81.9965,-20.6708,-145.898,3.61279,-9.10137,1.23936,0.105255,-0.318695,0.577118,-0.744446,-123.433,50.6167,-67.9417,-10305,-28503
1260,453853,-3.60107,-5.24902,1.64795,-82.0239,-20.6653,-145.898,3.71328,-9.01523,1.21064,0.105164,-0.318665,0.577301,-0.744293,-123.417,50.65,-67.9167,-10305,-28503
1266,453859,-4.27246,-4.5166,2.31934,-82.0514,-20.6598,-145.904,3.68936,-9.07744,1.19629,0.105072,-0.318665,0.577484,-0.744171,-123.425,50.6833,-67.8417,-10305,-28503
1272,453865,-3.96729,-4.45557,2.80762,-82.0789,-20.6488,-145.909,3.55537,-9.24014,1.10537,0.104919,-0.318573,0.577942,-0.743896,-123.433,50.7,-67.7833,-10305,-28503
1278,453871,-3.60107,-4.5166,2.80762,-82.1338,-20.6323,-145.926,3.56016,-9.19229,1.15322,0.104858,-0.318512,0.578186,-0.743744,-123.383,50.675,-67.6583,-10305,-28503
1284,453877,-3.479,-4.39453,2.99072,-82.1613,-20.6213,-145.931,3.61758,-9.10137,1.10537,0.104797,-0.318451,0.5784,-0.743622,-123.375,50.6917,-67.6417,-10305,-28503
1290,453883,-3.66211,-3.84521,3.35693,-82.1832,-20.6104,-145.942,3.53623,-9.02481,1.17715,0.104736,-0.318359,0.578613,-0.7435,-123.358,50.7167,-67.6167,-10305,-28503
1296,453889,-3.84521,-3.78418,3.54004,-82.2107,-20.5939,-145.948,3.41182,-9.08701,1.26328,0.104706,-0.318268,0.578827,-0.743378,-123.358,50.75,-67.625,-10305,-28503
1302,453895,-4.57764,-4.69971,2.19727,-82.2382,-20.5829,-145.959,3.2252,-9.03438,1.4499,0.104553,-0.318085,0.579285,-0.743103,-123.358,50.7833,-67.6333,-10305,-28503
1308,453901,-4.76074,-5.06592,1.70898,-82.3041,-20.5719,-145.964,3.20127,-9.10137,1.4499,0.104492,-0.318054,0.579529,-0.74295,-123.425,50.8917,-67.5833,-10305,-28503
1314,453907,-5.31006,-5.5542,1.40381,-82.337,-20.5719,-145.964,3.23477,-9.07744,1.37334,0.104401,-0.318054,0.579742,-0.742798,-123.442,50.9333,-67.525,-10305,-28503
1320,453913,-6.04248,-5.67627,0,-82.3755,-20.5774,-145.97,3.37354,-9.0918,1.40684,0.104309,-0.318054,0.579987,-0.742615,-123.442,50.9583,-67.5,-10305,-28503
1326,453919,-6.16455,-5.37109,0.244141,-82.4139,-20.5774,-145.97,3.44053,-9.15879,1.2585,0.104156,-0.318115,0.580231,-0.742401,-123.45,51,-67.4667,-10305,-28503
1332,453925,-6.10352,-5.12695,0.366211,-82.4524,-20.5829,-145.975,3.69893,-9.17314,1.02402,0.103882,-0.318207,0.580719,-0.742035,-123.442,51.0167,-67.45,-10305,-28503
1338,453931,-6.04248,-4.02832,0.976563,-82.5293,-20.5829,-145.986,3.7085,-9.25928,0.957031,0.103729,-0.318237,0.580994,-0.741821,-123.392,51.025,-67.4167,-10305,-28503
1344,453937,-5.61523,-3.54004,0.610352,-82.5623,-20.5829,-145.997,3.69893,-9.31191,0.942676,0.103577,-0.318207,0.581238,-0.741669,-123.392,51.0417,-67.35,-10305,-28503
1350,453943,-4.94385,-3.17383,0.976563,-82.5897,-20.5829,-146.014,3.65586,-9.32148,0.995313,0.103394,-0.318176,0.581482,-0.741486,-123.383,51.05,-67.3,-10305,-28503
1356,453949,-4.3335,-3.17383,1.77002,-82.6172,-20.5774,-146.025,3.68457,-9.29277,1.04795,0.103241,-0.318115,0.581726,-0.741364,-123.392,51.0333,-67.2583,-10305,-28503
1362,453955,-2.99072,-1.64795,1.15967,-82.6392,-20.5719,-146.041,3.66543,-9.33584,0.947461,0.102966,-0.317932,0.582153,-0.74115,-123.408,51.0333,-67.2083,-10305,-28503
1368,453961,-2.19727,-0.915527,2.0752,-82.6721,-20.5609,-146.091,3.71807,-9.26885,0.842188,0.102783,-0.317841,0.582336,-0.741058,-123.483,51.0833,-67.1333,-10305,-28503
1374,453967,-1.28174,0,2.62451,-82.6776,-20.5499,-146.118,3.675,-9.23535,0.923535,0.102661,-0.317688,0.58252,-0.741028,-123.508,51.1,-67.1417,-10305,-28503
1380,453973,-0.610352,0.12207,2.74658,-82.6831,-20.5389,-146.146,3.65107,-9.25449,0.995313,0.102509,-0.317474,0.582672,-0.740997,-123.525,51.1083,-67.1167,-10305,-28503
1386,453979,-0.183105,0.427246,3.23486,-82.6831,-20.5225,-146.179,3.63672,-9.1875,1.08623,0.102386,-0.317261,0.582825,-0.740997,-123.517,51.125,-67.0917,-10305,-28503
1392,453985,0.732422,0.610352,3.479,-82.6831,-20.506,-146.206,3.46924,-9.25928,1.17715,0.102142,-0.316772,0.583069,-0.741028,-123.517,51.1417,-67.05,-10305,-28503
1398,453991,0.976563,0.854492,2.80762,-82.6721,-20.4785,-146.272,3.37354,-9.27842,1.22021,0.102051,-0.316498,0.583191,-0.741089,-123.458,51.1083,-66.8917,-10305,-28503
1404,453997,1.34277,0.0610352,2.62451,-82.6666,-20.4675,-146.299,3.36396,-9.23057,1.29678,0.101929,-0.316254,0.583282,-0.741119,-123.442,51.1333,-66.8417,-10305,-28503
1410,454003,1.46484,-0.0610352,2.68555,-82.6611,-20.4565,-146.327,3.44053,-9.17314,1.3877,0.101837,-0.31604,0.583344,-0.74118,-123.433,51.1667,-66.8,-10305,-28503
1416,454009,1.28174,0.0610352,2.31934,-82.6556,-20.4456,-146.354,3.39268,-9.11094,1.39727,0.101746,-0.315826,0.583405,-0.741241,-123.425,51.2,-66.8,-10305,-28503
1422,454015,1.09863,-0.427246,0.854492,-82.6447,-20.4346,-146.409,3.31611,-9.21621,1.41162,0.101501,-0.31543,0.583557,-0.741333,-123.408,51.2417,-66.8583,-10305,-28503
1428,454021,0.915527,-0.671387,0.366211,-82.6392,-20.4346,-146.437,3.35918,-9.20186,1.31592,0.101349,-0.315277,0.583588,-0.741364,-123.408,51.3667,-66.9083,-10305,-28503
1434,454027,0.976563,-0.671387,-0.244141,-82.6337,-20.4401,-146.464,3.46924,-9.221,1.22021,0.101196,-0.315155,0.583649,-0.741425,-123.392,51.4,-66.95,-10305,-28503
1440,454033,1.09863,-0.305176,-0.427246,-82.6282,-20.4401,-146.492,3.52666,-9.24492,1.1915,0.101044,-0.315033,0.583679,-0.741455,-123.367,51.4,-66.9667,-10305,-28503
1446,454039,1.64795,-0.12207,-0.427246,-82.6227,-20.4456,-146.519,3.56973,-9.29277,1.10537,0.100861,-0.31488,0.58371,-0.741516,-123.375,51.4417,-66.975,-10305,-28503
1452,454045,2.50244,0.549316,-0.305176,-82.5952,-20.451,-146.58,3.55537,-9.25928,0.990527,0.100494,-0.314606,0.58371,-0.741669,-123.392,51.4417,-66.9583,-10305,-28503
1458,454051,3.11279,0.976563,-0.610352,-82.5787,-20.451,-146.618,3.55059,-9.25449,0.990527,0.100311,-0.314453,0.58371,-0.74176,-123.4,51.4417,-66.9583,-10305,-28503
1464,454057,3.84521,1.58691,-0.366211,-82.5568,-20.451,-146.656,3.59844,-9.2832,1.0001,0.100128,-0.31427,0.583679,-0.741882,-123.408,51.4417,-66.9417,-10305,-28503
1470,454063,4.94385,1.64795,-0.12207,-82.5293,-20.4565,-146.689,3.65107,-9.22578,1.02881,0.0999146,-0.314056,0.583649,-0.742035,-123.425,51.4667,-66.9583,-10305,-28503
1476,454069,5.49316,2.50244,0.12207,-82.5018,-20.451,-146.733,3.68457,-9.14922,0.985742,0.099762,-0.313873,0.583588,-0.742218,-123.425,51.4833,-66.9833,-10305,-28503
1482,454075,6.34766,3.66211,0.732422,-82.4304,-20.4456,-146.827,3.51709,-9.1875,1.07187,0.0993958,-0.313324,0.583405,-0.742615,-123.433,51.4917,-67.0083,-10305,-28503
1488,454081,6.53076,3.78418,1.2207,-82.392,-20.4346,-146.871,3.55059,-9.13486,1.12451,0.0992126,-0.313049,0.583313,-0.742828,-123.442,51.5,-67.0083,-10305,-28503
1494,454087,7.14111,4.15039,1.46484,-82.348,-20.4291,-146.92,3.5123,-9.11094,1.07666,0.0990601,-0.312714,0.583221,-0.743073,-123.45,51.5,-66.9917,-10305,-28503
1500,454093,7.32422,4.21143,1.89209,-82.3096,-20.4181,-146.97,3.5793,-9.14443,1.08145,0.0989075,-0.312378,0.583099,-0.743317,-123.45,51.4833,-67.0167,-10305,-28503
1506,454099,7.69043,4.5166,2.68555,-82.2656,-20.4016,-147.019,3.61279,-9.08223,1.0623,0.0987549,-0.312042,0.583008,-0.743561,-123.442,51.5,-67.0167,-10314,-28502
1512,454105,7.50732,4.88281,3.54004,-82.1777,-20.3687,-147.123,3.56494,-9.08701,1.11973,0.0985107,-0.311249,0.582794,-0.74408,-123.442,51.5167,-67.025,-10314,-28502
1518,454111,7.87354,4.94385,4.3335,-82.1283,-20.3467,-147.173,3.58887,-9.09658,1.10059,0.0984192,-0.310852,0.582703,-0.744354,-123.383,51.475,-67.075,-10314,-28502
1524,454117,7.99561,4.94385,4.82178,-82.0844,-20.3192,-147.222,3.58887,-9.0583,1.08623,0.0983276,-0.310394,0.582611,-0.744598,-123.358,51.45,-67.0667,-10314,-28502
1530,454123,8.17871,5.00488,5.61523,-82.0404,-20.2917,-147.277,3.59844,-9.04873,1.16758,0.0982971,-0.309967,0.58252,-0.744873,-123.358,51.425,-67.05,-10314,-28502
1536,454129,8.60596,5.18799,7.01904,-81.991,-20.2533,-147.327,3.71807,-9.04395,1.17236,0.0982361,-0.309509,0.582428,-0.745117,-123.35,51.3917,-67.05,-10314,-28502
1542,454135,8.23975,7.01904,8.36182,-81.8976,-20.1709,-147.437,3.69893,-9.12529,1.13408,0.0982361,-0.308441,0.582306,-0.745667,-123.333,51.35,-67.0667,-10314,-28502
1548,454141,8.30078,6.40869,9.21631,-81.8481,-20.127,-147.491,3.62715,-9.02002,1.24893,0.0982361,-0.307861,0.582275,-0.745941,-123.283,51.3417,-67.125,-10314,-28502
1554,454147,7.93457,6.53076,10.437,-81.8042,-20.072,-147.546,3.74199,-9.0918,1.31592,0.0982971,-0.307251,0.582245,-0.746185,-123.242,51.3167,-67.1667,-10314,-28502
1560,454153,8.36182,6.65283,10.9253,-81.7548,-20.0171,-147.601,3.72764,-9.09658,1.21543,0.0983582,-0.306641,0.582245,-0.74646,-123.192,51.2833,-67.225,-10314,-28502
1566,454159,8.11768,6.95801,12.146,-81.7108,-19.9567,-147.651,3.67021,-9.08223,1.3207,0.0984497,-0.305969,0.582214,-0.746704,-123.142,51.275,-67.25,-10314,-28502
1572,454165,7.38525,6.53076,12.8784,-81.6284,-19.8303,-147.761,3.56973,-9.10615,1.37334,0.0986938,-0.304626,0.582275,-0.747192,-123.033,51.25,-67.2917,-10314,-28502
1578,454171,6.89697,6.28662,13.4277,-81.59,-19.7589,-147.81,3.47881,-9.25928,1.40205,0.0988464,-0.303925,0.582336,-0.747437,-122.967,51.25,-67.3583,-10314,-28502
1584,454177,7.01904,5.5542,13.7329,-81.5515,-19.693,-147.854,3.67979,-9.19229,1.33506,0.098999,-0.303253,0.582397,-0.74762,-122.925,51.2667,-67.425,-10314,-28502
1590,454183,6.7749,5.7373,14.7705,-81.5131,-19.6216,-147.898,3.66064,-9.21621,1.29678,0.0992126,-0.302582,0.582428,-0.747833,-122.883,51.3083,-67.5,-10314,-28502
1596,454189,6.89697,5.79834,15.564,-81.4746,-19.5447,-147.942,3.59844,-9.21621,1.33984,0.0994263,-0.30188,0.58252,-0.748016,-122.842,51.35,-67.6083,-10314,-28502
1602,454195,6.65283,5.06592,17.2119,-81.4032,-19.3854,-148.024,3.6415,-9.21621,1.4834,0.0999146,-0.300446,0.582703,-0.748383,-122.783,51.4667,-67.7167,-10314,-28502
1608,454201,5.98145,4.82178,17.7612,-81.3757,-19.2975,-148.063,3.46924,-9.09658,1.62217,0.10022,-0.299713,0.582794,-0.748566,-122.767,51.5083,-67.775,-10314,-28502
1614,454207,5.12695,4.57764,18.1274,-81.3483,-19.2096,-148.096,3.44053,-9.20186,1.73223,0.100555,-0.298981,0.582916,-0.748718,-122.733,51.5333,-67.8417,-10314,-28502
1620,454213,4.88281,2.74658,18.9209,-81.3263,-19.1217,-148.123,3.48359,-9.27363,1.7418,0.100891,-0.298248,0.583099,-0.74884,-122.7,51.5667,-67.9333,-10322,-28501
1626,454219,4.15039,2.99072,18.9209,-81.3098,-19.0338,-148.151,3.63193,-9.16836,1.67959,0.101288,-0.297577,0.583252,-0.748932,-122.667,51.6167,-68,-10322,-28501
1632,454225,2.31934,2.68555,21.3013,-81.2933,-18.9349,-148.178,3.67979,-9.31191,1.6126,0.102051,-0.296143,0.583679,-0.749054,-122.633,51.6833,-68.0583,-10322,-28501
1638,454231,2.31934,2.31934,22.3389,-81.2769,-18.7317,-148.222,3.49316,-9.45068,1.40205,0.102509,-0.29541,0.583954,-0.749084,-122.525,51.7833,-68.175,-10322,-28501
1644,454237,3.41797,0,23.5596,-81.2659,-18.6218,-148.228,3.76592,-9.5751,1.30635,0.102997,-0.294678,0.584229,-0.749084,-122.475,51.8333,-68.2,-10322,-28501
1650,454243,3.54004,0.427246,25.6348,-81.2549,-18.501,-148.239,4.11045,-9.53682,1.21543,0.103577,-0.293976,0.584473,-0.749084,-122.417,51.8917,-68.2167,-10322,-28501
1656,454249,4.08936,1.64795,27.0996,-81.2439,-18.3746,-148.25,3.94775,-9.8957,1.0623,0.104248,-0.293213,0.584747,-0.749084,-122.358,51.9083,-68.2167,-10322,-28501
1662,454255,6.10352,0.671387,32.7148,-81.2219,-18.2373,-148.25,4.4502,-9.72822,1.66523,0.105743,-0.291504,0.585266,-0.749146,-122.283,51.9583,-68.2167,-10322,-28501
1668,454261,5.06592,1.95313,35.4614,-81.1835,-17.9187,-148.26,4.254,-9.91006,1.58867,0.106628,-0.290558,0.585541,-0.749176,-122.167,52.1167,-68.2,-10322,-28501
1674,454267,6.04248,0.915527,39.1846,-81.167,-17.7374,-148.26,4.72295,-10.2067,2.12461,0.107574,-0.28949,0.585876,-0.749176,-122.083,52.175,-68.2083,-10322,-28501
1680,454273,4.88281,3.96729,42.7246,-81.145,-17.5397,-148.271,4.34014,-9.86221,1.97627,0.108673,-0.288391,0.586212,-0.749176,-122.008,52.25,-68.2167,-10322,-28501
1686,454279,3.17383,3.66211,46.3257,-81.1395,-17.3199,-148.277,4.53154,-10.202,2.51699,0.109772,-0.287079,0.58667,-0.749146,-121.933,52.325,-68.2167,-10322,-28501
1692,454285,-0.12207,5.06592,55.7861,-81.145,-16.8201,-148.293,5.41201,-11.0681,2.55527,0.112274,-0.284241,0.58783,-0.748962,-121.858,52.4,-68.2,-10322,-28501
1698,454291,0.793457,5.92041,61.5845,-81.145,-16.5289,-148.299,5.27324,-10.8671,2.51221,0.113708,-0.282623,0.588562,-0.748779,-121.65,52.55,-68.1917,-10322,-28501
1704,454297,-1.28174,7.14111,66.1011,-81.156,-16.2158,-148.304,4.91436,-10.4651,2.58877,0.115326,-0.280823,0.589325,-0.748596,-121.558,52.675,-68.175,-10322,-28501
1710,454303,-3.78418,7.08008,70.8618,-81.178,-15.8807,-148.31,4.66074,-10.7618,2.59834,0.117035,-0.2789,0.59021,-0.748383,-121.458,52.8167,-68.1667,-10322,-28501
1716,454309,-5.49316,7.20215,75.4395,-81.2054,-15.5237,-148.31,5.08662,-10.8958,2.75625,0.118835,-0.276855,0.591217,-0.748047,-121.358,52.95,-68.1583,-10322,-28501
1722,454315,-9.94873,8.36182,84.3506,-81.2933,-14.7491,-148.315,4.45498,-10.6278,2.45,0.122772,-0.2724,0.593536,-0.747192,-121.233,53.1,-68.1917,-10322,-28501
1728,454321,-13.4888,7.87354,87.8296,-81.3647,-14.3372,-148.315,4.68467,-10.9915,2.53613,0.124908,-0.27002,0.594879,-0.746643,-120.942,53.4833,-68.2583,-10322,-28501
1734,454327,-14.4653,8.54492,92.7734,-81.4417,-13.8977,-148.31,5.11055,-11.5035,2.61748,0.127106,-0.267578,0.596375,-0.745972,-120.767,53.6917,-68.3583,-10322,-28501
1740,454333,-13.0005,10.8643,97.3511,-81.5021,-13.4363,-148.315,4.59854,-11.1351,2.4835,0.129456,-0.265015,0.5979,-0.74527,-120.592,53.9,-68.4333,-10322,-28501
1746,454339,-15.3809,9.82666,100.891,-81.579,-12.9584,-148.31,4.37363,-10.7283,2.51221,0.131866,-0.262238,0.599457,-0.744568,-120.408,54.1167,-68.45,-10322,-28501
1752,454345,-21.9727,11.4136,110.596,-81.7822,-11.9421,-148.293,4.97178,-11.1686,2.63662,0.137085,-0.256531,0.602875,-0.742828,-120.2,54.3667,-68.475,-10322,-28501
1758,454351,-23.1934,10.9253,114.685,-81.8976,-11.3983,-148.288,4.57939,-11.7954,2.07197,0.139832,-0.253448,0.604828,-0.741821,-119.725,54.8667,-68.4833,-10322,-28501
1764,454357,-22.3999,7.26318,120.667,-82.0129,-10.8325,-148.26,4.90479,-11.982,1.83271,0.14267,-0.250305,0.606812,-0.740723,-119.483,55.1833,-68.4833,-10322,-28501
1770,454363,-21.3623,6.7749,127.136,-82.1228,-10.2338,-148.228,5.23018,-11.6997,1.59346,0.145782,-0.247101,0.608826,-0.739532,-119.225,55.5333,-68.4583,-10322,-28501
1776,454369,-21.4233,5.12695,134.46,-82.2327,-9.60754,-148.184,5.03877,-11.427,1.21543,0.152771,-0.240265,0.612885,-0.73703,-118.925,55.8667,-68.45,-10322,-28501
1782,454375,-22.4609,0.0610352,148.193,-82.4799,-8.25073,-148.046,4.63203,-11.8385,0.952246,0.156647,-0.236664,0.615021,-0.735596,-118.3,56.575,-68.4167,-10322,-28501
1788,454381,-21.3013,-3.11279,154.297,-82.5952,-7.53662,-147.953,4.40234,-11.9677,1.12451,0.160797,-0.232971,0.617188,-0.73407,-117.942,56.9583,-68.4083,-10322,-28501
1794,454387,-21.1182,-6.71387,159.851,-82.7161,-6.79504,-147.832,4.74209,-11.6471,1.21543,0.165222,-0.229218,0.619324,-0.732452,-117.55,57.3417,-68.4167,-10322,-28501
1800,454393,-23.0713,-7.75146,166.382,-82.8424,-6.026,-147.711,4.79951,-11.6854,1.4499,0.169891,-0.225433,0.621429,-0.730774,-117.15,57.7417,-68.425,-10322,-28501
1806,454399,-25.5737,-8.91113,172.974,-82.9797,-5.224,-147.579,4.89043,-11.9581,1.65566,0.17984,-0.217499,0.625946,-0.726929,-116.725,58.1667,-68.4167,-10322,-28501
1812,454405,-28.4424,-11.7798,188.416,-83.2764,-3.51563,-147.283,5.47422,-12.5658,1.36377,0.185211,-0.213348,0.628326,-0.724762,-115.875,58.9833,-68.3417,-10322,-28501
1818,454411,-30.7617,-11.7188,196.96,-83.4357,-2.60376,-147.129,5.62256,-13.2836,0.957031,0.190765,-0.209045,0.630737,-0.722473,-115.4,59.425,-68.2917,-10322,-28501
1824,454417,-29.1138,-15.1367,207.581,-83.5895,-1.64795,-146.959,5.68955,-13.4319,0.502441,0.196564,-0.204498,0.633301,-0.719971,-114.875,59.9333,-68.275,-10322,-28501
1830,454423,-30.4565,-15.2588,217.712,-83.7433,-0.637207,-146.783,5.78047,-13.81,0.258398,0.202759,-0.199738,0.635803,-0.717377,-114.325,60.45,-68.225,-10322,-28501
1836,454429,-31.4941,-17.334,227.6,-83.8971,0.411987,-146.591,6.59873,-14.4416,1.21543,0.216034,-0.189545,0.641022,-0.711609,-113.725,60.9583,-68.175,-10322,-28501
1842,454435,-35.2783,-18.6768,249.39,-84.2267,2.66968,-146.184,6.72793,-14.6521,0.923535,0.223206,-0.184113,0.643677,-0.708405,-112.492,61.9583,-68.0917,-10322,-28501
1848,454441,-36.9873,-18.7988,261.597,-84.397,3.87817,-145.981,6.32598,-14.8771,1.10537,0.230591,-0.178375,0.646423,-0.704987,-111.808,62.4917,-68.0667,-10322,-28501
1854,454447,-37.5366,-19.2261,271.667,-84.5673,5.1416,-145.772,6.23984,-14.5517,2.47871,0.238312,-0.172333,0.649261,-0.701324,-111.075,63.0333,-68.05,-10322,-28501
1860,454453,-40.2832,-21.9727,282.471,-84.7375,6.44897,-145.547,7.14902,-13.1975,2.75146,0.246307,-0.166046,0.6521,-0.697449,-110.283,63.5917,-68,-10322,-28501
1866,454459,-52.2461,-18.8599,293.396,-84.9683,7.80579,-145.338,6.17764,-15.5996,1.18672,0.263031,-0.152771,0.658173,-0.688599,-109.458,64.2,-67.9333,-10322,-28501
1872,454465,-52.7954,-21.3013,312.866,-85.4187,10.6732,-144.904,5.06748,-16.4418,0.789551,0.271759,-0.145691,0.661407,-0.683624,-107.7,65.4,-67.6167,-10322,-28501
1878,454471,-53.772,-26.001,320.74,-85.6329,12.1564,-144.662,4.27793,-16.1547,1.05273,0.280701,-0.138428,0.66452,-0.678497,-106.8,66,-67.475,-10322,-28501
1884,454477,-56.1523,-33.7524,326.843,-85.8472,13.667,-144.377,3.92383,-15.0876,1.28242,0.289948,-0.131104,0.667511,-0.673096,-105.817,66.625,-67.2917,-10322,-28501
1890,454483,-68.2373,-37.3535,331.36,-86.1053,15.1996,-144.08,3.65107,-15.3604,2.07676,0.29953,-0.12381,0.67041,-0.667358,-104.775,67.2417,-67.0917,-10322,-28501
1896,454489,-73.4863,-48.7061,334.229,-86.369,16.7377,-143.729,4.69902,-17.0064,1.85186,0.319183,-0.109833,0.676453,-0.65451,-103.658,67.8417,-66.9083,-10322,-28501
1902,454495,-83.252,-53.4058,340.393,-86.9348,19.8578,-142.998,5.01006,-18.6334,0.842188,0.329224,-0.103058,0.679413,-0.647522,-101.317,69,-66.4667,-10322,-28501
1908,454501,-78.6133,-53.4058,342.957,-87.1875,21.4343,-142.635,5.73262,-19.4756,1.21543,0.339294,-0.096283,0.682312,-0.640259,-100.1,69.5833,-66.2333,-10322,-28501
1914,454507,-74.4019,-49.2554,343.811,-87.4237,23.0164,-142.295,6.01973,-19.1646,0.732129,0.349396,-0.089386,0.684937,-0.632965,-98.825,70.1,-66.0083,-10322,-28501
1920,454513,-71.4111,-46.814,342.529,-87.6379,24.5874,-141.971,6.62744,-19.0928,0.282324,0.359314,-0.0823059,0.687378,-0.625702,-97.5083,70.625,-65.7917,-10322,-28501
1926,454519,-70.7397,-39.3677,339.355,-87.8632,26.1365,-141.691,7.56533,-19.7292,0.105273,0.378357,-0.0678711,0.691833,-0.611145,-96.1333,71.15,-65.5083,-10322,-28501
1932,454525,-46.2646,-32.3486,329.529,-88.1268,29.1687,-141.136,8.14434,-17.3701,-0.0287109,0.387543,-0.0606079,0.693604,-0.604095,-93.3083,72.0833,-64.9417,-10322,-28501
1938,454531,-34.8511,-28.9307,320.435,-88.1708,30.6134,-140.883,7.47441,-13.6808,-0.401953,0.396484,-0.0532532,0.694885,-0.597504,-91.8917,72.5083,-64.6167,-10322,-28501
1944,454537,-28.8696,-29.1138,308.35,-88.1763,31.9977,-140.636,6.81406,-10.1493,0.124414,0.404968,-0.0458984,0.69577,-0.591309,-90.4083,72.925,-64.2917,-10322,-28501
1950,454543,-15.686,-40.6494,293.335,-88.0829,33.2996,-140.323,7.36436,-5.70391,-0.320605,0.413086,-0.0388184,0.696411,-0.585449,-88.9,73.3167,-63.9667,-10322,-28501
1956,454549,-4.08936,-44.6777,272.278,-87.9126,34.4806,-139.993,9.34541,5.23496,-3.029,0.428467,-0.0262451,0.695892,-0.575623,-87.3833,73.65,-63.6917,-10322,-28501
1962,454555,15.5029,-42.2363,244.263,-87.4347,36.5955,-139.329,10.2402,9.65166,-0.650781,0.435547,-0.020813,0.695099,-0.571472,-84.4083,74.2167,-63.2583,-10322,-28501
1968,454561,-35.4004,41.1377,171.021,-87.7533,37.2766,-139.57,-7.84766,0.090918,0.650781,0.441895,-0.0151978,0.694092,-0.567993,-82.9667,74.4333,-63.0667,-10322,-28501
1974,454567,-31.4941,-55.1147,89.0503,-87.6874,37.5403,-139.208,-14.1066,-11.671,0.995313,0.443878,-0.0107117,0.695862,-0.564362,-81.55,74.6083,-62.9,-10322,-28501
1980,454573,-17.1509,-90.4541,18.1885,-87.4237,37.4414,-138.642,1.31113,-11.1638,0.368457,0.446869,-0.0110168,0.695587,-0.562347,-80.1833,74.75,-62.7583,-10322,-28501
1986,454579,-5.49316,-37.2314,-38.8794,-87.3248,37.0624,-138.439,6.25898,-6.87627,-0.866113,0.448486,-0.0172119,0.693573,-0.563385,-78.8667,74.8917,-62.6,-10322,-28501
1992,454585,20.6299,-8.78906,-130.676,-87.1216,35.6177,-138.362,7.67539,-6.91934,-2.2251,0.446136,-0.0213013,0.69278,-0.566101,-76.6083,75.0917,-62.3417,-10322,-28501
1998,454591,38.8184,8.36182,-158.203,-87.0117,34.6564,-138.505,8.81904,-8.69941,-2.41172,0.4422,-0.026001,0.692017,-0.569916,-75.6917,75.1667,-62.275,-10322,-28501
2004,454597,60.6689,20.9961,-171.692,-86.8414,33.6346,-138.741,9.5416,-7.996,-1.43555,0.437012,-0.0307312,0.691071,-0.574799,-74.95,75.25,-62.1833,-10322,-28501
2010,454603,68.6646,29.2358,-175.049,-86.6656,32.5964,-139.032,8.72334,-5.37852,-0.607715,0.43103,-0.0351257,0.689789,-0.580566,-74.375,75.3333,-62.1417,-10322,-28501
2016,454609,65.979,28.3203,-177.612,-86.4954,31.5582,-139.345,4.58896,-0.693848,-0.406738,0.418182,-0.0432434,0.687042,-0.592529,-73.9583,75.4083,-62.175,-10322,-28501
2022,454615,60.4858,18.5547,-181.641,-86.1548,29.4434,-139.894,2.90459,1.24414,-0.234473,0.411652,-0.0474548,0.685638,-0.598389,-73.475,75.5167,-62.3083,-10322,-28501
2028,454621,50.1099,6.83594,-187.683,-86.0065,28.3392,-140.087,2.00977,2.35908,0.105273,0.405212,-0.0520935,0.684174,-0.604065,-73.3667,75.575,-62.425,-10322,-28501
2034,454627,35.6445,-9.64355,-193.42,-85.8911,27.2021,-140.191,2.08154,2.61748,0.425879,0.398926,-0.0574036,0.682678,-0.609436,-73.3917,75.6083,-62.55,-10322,-28501
2040,454633,21.7285,-22.0337,-197.51,-85.8142,26.0431,-140.229,2.78496,1.82314,0.248828,0.392853,-0.0635681,0.681213,-0.61438,-73.5083,75.65,-62.7167,-10322,-28501
2046,454639,7.99561,-35.2783,-209.9,-85.7703,24.8566,-140.24,3.55059,-0.92832,-0.267969,0.381012,-0.0776978,0.678589,-0.623047,-73.7417,75.7167,-62.8667,-10322,-28501
2052,454645,7.87354,-39.4897,-217.712,-85.7098,22.3682,-140.191,4.46455,-2.08633,-0.60293,0.375,-0.0853882,0.677246,-0.627136,-74.4417,75.8083,-63.1833,-10322,-28501
2058,454651,10.5591,-37.2314,-225.83,-85.6769,21.0663,-140.18,5.45029,-3.0625,-0.808691,0.368835,-0.0934448,0.675781,-0.631226,-74.8667,75.8167,-63.3167,-10322,-28501
2064,454657,16.1743,-32.2876,-234.131,-85.6329,19.726,-140.202,5.61777,-3.8999,-0.784766,0.362335,-0.101563,0.674164,-0.635437,-75.375,75.8167,-63.4167,-10322,-28501
2070,454663,22.7051,-29.3579,-242.126,-85.5615,18.3527,-140.246,5.7709,-4.40234,-0.325391,0.355408,-0.10968,0.672363,-0.639893,-75.9583,75.8,-63.5,-10322,-28501
2076,454669,29.7852,-18.6768,-257.202,-85.4736,16.9464,-140.328,5.2876,-3.95732,0.47373,0.340546,-0.125946,0.668121,-0.649353,-76.65,75.75,-63.5917,-10322,-28501
2082,454675,29.2358,-17.5781,-264.038,-85.3033,14.0295,-140.554,5.05791,-3.59365,0.875684,0.33252,-0.134064,0.665771,-0.654297,-78.2667,75.6167,-63.8583,-10322,-28501
2088,454681,26.6113,-16.0522,-269.897,-85.2319,12.5299,-140.68,5.06748,-3.26826,1.10059,0.324219,-0.142365,0.6633,-0.65918,-79.1833,75.5417,-64.0167,-10314,-28502
2094,454687,21.4233,-13.9771,-274.841,-85.1825,11.0083,-140.817,5.07705,-3.1917,1.4499,0.315674,-0.150787,0.660797,-0.663971,-80.0833,75.45,-64.175,-10314,-28502
2100,454693,15.2588,-12.2681,-279.053,-85.166,9.46472,-140.96,5.0627,-3.4166,1.56953,0.306854,-0.159332,0.658295,-0.668549,-81.075,75.35,-64.3583,-10314,-28502
2106,454699,5.43213,-8.72803,-284.302,-85.166,7.91016,-141.108,5.58428,-4.70381,1.65566,0.288544,-0.176788,0.653442,-0.677063,-82.125,75.2417,-64.5,-10314,-28502
2112,454705,2.62451,-7.08008,-286.194,-85.2209,4.78455,-141.438,5.58906,-5.73262,1.69873,0.279083,-0.185547,0.651031,-0.680969,-84.375,74.925,-64.675,-10314,-28502
2118,454711,1.89209,-4.21143,-288.757,-85.2484,3.2135,-141.619,5.38809,-6.90977,1.73223,0.26947,-0.194305,0.648621,-0.684692,-85.575,74.6667,-64.7417,-10314,-28502
2124,454717,2.92969,-3.17383,-291.26,-85.2704,1.63696,-141.801,4.90957,-7.9625,1.78008,0.259674,-0.203003,0.646088,-0.688354,-86.7417,74.4167,-64.7833,-10314,-28502
2130,454723,5.18799,-4.3335,-294.373,-85.2704,0.0439453,-141.982,4.27314,-8.98652,1.871,0.249786,-0.211639,0.643402,-0.691895,-87.9583,74.125,-64.8167,-10314,-28502
2136,454729,12.085,-14.0381,-302.246,-85.21,-3.16406,-142.278,3.00986,-10.5178,2.24424,0.22995,-0.229034,0.637299,-0.698853,-89.2083,73.7833,-64.8917,-10314,-28502
2142,454735,15.0146,-20.874,-305.786,-85.1495,-4.79004,-142.383,2.78018,-11.0968,2.34473,0.220123,-0.237946,0.633759,-0.70224,-91.8,73.0083,-64.975,-10314,-28502
2148,454741,17.8223,-26.9165,-309.021,-85.0726,-6.42151,-142.46,2.73232,-11.6423,2.7084,0.210388,-0.24704,0.629913,-0.705536,-93.1417,72.5833,-65.0333,-10314,-28502
2154,454747,20.4468,-33.6914,-311.951,-84.9847,-8.06396,-142.509,3.00029,-11.7763,2.65098,0.200806,-0.256256,0.625793,-0.70871,-94.45,72.15,-65.0583,-10314,-28502
2160,454753,21.5454,-37.5366,-314.209,-84.8914,-9.71741,-142.537,3.47881,-12.1064,2.85674,0.191345,-0.265656,0.621399,-0.711761,-95.7917,71.6667,-65.1333,-10314,-28502
2166,454759,23.5596,-41.5039,-317.749,-84.6881,-13.0188,-142.581,4.23965,-13.1687,2.98115,0.172546,-0.284576,0.611969,-0.717377,-97.1583,71.15,-65.1833,-10314,-28502
2172,454765,24.231,-41.5039,-320.251,-84.5837,-14.6777,-142.603,4.30664,-13.7573,3.00986,0.163177,-0.294037,0.606995,-0.719971,-99.9333,69.9417,-65.2167,-10314,-28502
