TimeSinceCollection,Timestamp,AngularVelX,AngularVelY,AngularVelZ,AngleRoll,AnglePitch,AngleYaw,AccX,AccY,AccZ,Q1,Q2,Q3,Q4,MagX,MagY,MagZ,Height,Airpressure
0,704866,0.488281,-0.427246,-0.488281,-82.3865,-3.81226,-119.811,0.650781,-9.88613,1.15801,0.358093,-0.351654,0.556976,-0.661652,-114.317,24.2667,-101.975,-10281,-28506
6,704872,0.305176,-0.244141,-0.305176,-82.381,-3.81226,-119.811,0.6125,-9.79043,1.3207,0.358093,-0.351685,0.556915,-0.661682,-114.308,24.2917,-101.95,-10281,-28506
12,704878,0.671387,-0.366211,0.12207,-82.381,-3.81226,-119.811,0.693848,-9.68994,1.31113,0.358093,-0.351685,0.556915,-0.661682,-114.275,24.2833,-101.842,-10281,-28506
18,704884,0.12207,-0.366211,-0.244141,-82.3755,-3.81226,-119.811,0.62207,-9.68994,1.35898,0.358124,-0.351685,0.556885,-0.661682,-114.258,24.3167,-101.85,-10281,-28506
24,704890,0.244141,-0.183105,0,-82.3755,-3.81226,-119.806,0.645996,-9.80479,1.1915,0.358124,-0.351685,0.556885,-0.661682,-114.242,24.3417,-101.842,-10281,-28506
30,704896,0.549316,-0.183105,-0.0610352,-82.3755,-3.81226,-119.806,0.665137,-9.72822,1.3207,0.358124,-0.351685,0.556854,-0.661682,-114.25,24.3667,-101.842,-10281,-28506
36,704902,-0.12207,-0.183105,0,-82.3755,-3.81226,-119.806,0.626855,-9.74258,1.31592,0.358154,-0.351685,0.556824,-0.661713,-114.258,24.3833,-101.942,-10281,-28506
42,704908,0.244141,-0.488281,0,-82.3755,-3.81226,-119.8,0.641211,-9.74736,1.31592,0.358154,-0.351715,0.556824,-0.661682,-114.275,24.4083,-101.95,-10281,-28506
48,704914,-0.0610352,-0.12207,0,-82.3755,-3.81226,-119.8,0.674707,-9.64688,1.39727,0.358185,-0.351715,0.556824,-0.661682,-114.283,24.4083,-101.942,-10281,-28506
54,704920,-0.305176,-0.244141,-0.12207,-82.3755,-3.81775,-119.8,0.6125,-9.73301,1.27764,0.358185,-0.351715,0.556824,-0.661682,-114.275,24.3917,-101.892,-10281,-28506
60,704926,-0.305176,-0.305176,0,-82.3755,-3.81775,-119.8,0.674707,-9.73301,1.31113,0.358185,-0.351715,0.556824,-0.661682,-114.275,24.3917,-101.85,-10281,-28506
66,704932,-0.305176,-0.610352,-0.0610352,-82.381,-3.81775,-119.795,0.645996,-9.75215,1.27764,0.358185,-0.351746,0.556824,-0.661652,-114.275,24.4417,-101.758,-10281,-28506
72,704938,0,-0.305176,-0.244141,-82.381,-3.81775,-119.795,0.631641,-9.80957,1.23457,0.358185,-0.351776,0.556824,-0.661652,-114.275,24.4333,-101.75,-10281,-28506
78,704944,0.0610352,-0.488281,0.183105,-82.381,-3.81775,-119.789,0.636426,-9.77607,1.22021,0.358185,-0.351807,0.556824,-0.661652,-114.292,24.425,-101.75,-10281,-28506
84,704950,0.12207,-0.183105,-0.244141,-82.381,-3.81775,-119.789,0.62207,-9.8,1.24414,0.358215,-0.351807,0.556824,-0.661621,-114.308,24.4333,-101.75,-10281,-28506
90,704956,0.366211,-0.366211,-0.305176,-82.3755,-3.81775,-119.789,0.631641,-9.73779,1.24893,0.358215,-0.351807,0.556793,-0.661621,-114.308,24.4,-101.75,-10281,-28506
96,704962,0.488281,-0.0610352,-0.12207,-82.3755,-3.82324,-119.784,0.631641,-9.7665,1.28721,0.358215,-0.351837,0.556763,-0.661652,-114.342,24.3583,-101.775,-10281,-28506
102,704968,0.610352,-0.305176,-0.427246,-82.37,-3.82324,-119.784,0.665137,-9.7043,1.34463,0.358215,-0.351837,0.556763,-0.661652,-114.383,24.3583,-101.767,-10281,-28506
108,704974,0.305176,-0.183105,-0.244141,-82.37,-3.82324,-119.784,0.665137,-9.62773,1.41162,0.358246,-0.351837,0.556732,-0.661682,-114.417,24.35,-101.775,-10281,-28506
114,704980,-0.0610352,0.0610352,-0.305176,-82.37,-3.82874,-119.784,0.689063,-9.69473,1.37334,0.358246,-0.351837,0.556702,-0.661682,-114.417,24.325,-101.825,-10281,-28506
120,704986,0.12207,-0.183105,-0.244141,-82.37,-3.82874,-119.784,0.650781,-9.74258,1.31592,0.358215,-0.351837,0.556702,-0.661682,-114.417,24.3333,-101.85,-10281,-28506
126,704992,-0.366211,-0.183105,-0.12207,-82.37,-3.82874,-119.784,0.703418,-9.64688,1.44033,0.358215,-0.351868,0.556702,-0.661682,-114.375,24.375,-101.825,-10281,-28506
132,704998,-0.793457,0,-0.183105,-82.3755,-3.82874,-119.784,0.631641,-9.71865,1.35898,0.358215,-0.351898,0.556702,-0.661682,-114.317,24.375,-101.833,-10281,-28506
138,705004,-0.671387,-0.0610352,0,-82.3755,-3.82874,-119.784,0.674707,-9.7043,1.32549,0.358215,-0.351898,0.556702,-0.661682,-114.275,24.3833,-101.808,-10281,-28506
144,705010,-0.793457,0,0.183105,-82.381,-3.82874,-119.784,0.636426,-9.74736,1.29199,0.358185,-0.351898,0.556732,-0.661652,-114.242,24.4083,-101.8,-10281,-28506
150,705016,-0.793457,-0.183105,-0.244141,-82.3865,-3.82874,-119.784,0.626855,-9.75215,1.22979,0.358185,-0.351929,0.556763,-0.661621,-114.233,24.4417,-101.8,-10281,-28506
156,705022,-0.305176,0,-0.12207,-82.3865,-3.83423,-119.778,0.660352,-9.77607,1.26807,0.358154,-0.351959,0.556793,-0.661591,-114.233,24.475,-101.783,-10281,-28506
162,705028,-0.305176,0.0610352,-0.244141,-82.392,-3.83423,-119.784,0.626855,-9.80957,1.22979,0.358154,-0.351959,0.556793,-0.661591,-114.242,24.5,-101.758,-10281,-28506
168,705034,0.12207,0.12207,-0.305176,-82.392,-3.83423,-119.784,0.665137,-9.80957,1.21543,0.358154,-0.351959,0.556793,-0.661591,-114.25,24.4833,-101.733,-10281,-28506
174,705040,0.0610352,0.366211,0,-82.3865,-3.83423,-119.784,0.641211,-9.77129,1.23457,0.358124,-0.35199,0.556793,-0.661591,-114.258,24.4667,-101.75,-10281,-28506
180,705046,0.488281,0.244141,-0.488281,-82.3865,-3.83423,-119.784,0.607715,-9.79043,1.22021,0.358124,-0.351959,0.556763,-0.661621,-114.258,24.4583,-101.733,-10281,-28506
186,705052,1.0376,0.12207,-0.488281,-82.3755,-3.83972,-119.784,0.641211,-9.81436,1.25371,0.358124,-0.351959,0.556732,-0.661652,-114.317,24.5167,-101.75,-10281,-28506
192,705058,1.15967,0.183105,-0.488281,-82.37,-3.84521,-119.789,0.641211,-9.74736,1.34463,0.358124,-0.351959,0.556702,-0.661682,-114.317,24.5083,-101.75,-10281,-28506
198,705064,0.976563,0.244141,-0.183105,-82.3645,-3.84521,-119.789,0.689063,-9.73301,1.3542,0.358124,-0.351929,0.556671,-0.661743,-114.317,24.5167,-101.742,-10281,-28506
204,705070,0.915527,0.244141,-0.12207,-82.3645,-3.84521,-119.789,0.669922,-9.74258,1.35898,0.358124,-0.351929,0.556641,-0.661774,-114.308,24.5417,-101.742,-10281,-28506
210,705076,0.732422,0.366211,0.0610352,-82.359,-3.84521,-119.795,0.746484,-9.73301,1.3877,0.358124,-0.351868,0.55661,-0.661804,-114.258,24.55,-101.75,-10281,-28506
216,705082,0.183105,0.671387,0.183105,-82.3535,-3.83972,-119.795,0.674707,-9.74736,1.34941,0.358124,-0.351837,0.55661,-0.661804,-114.217,24.5167,-101.825,-10281,-28506
222,705088,0,0.732422,0.427246,-82.3535,-3.83972,-119.8,0.698633,-9.74258,1.35898,0.358124,-0.351837,0.55661,-0.661835,-114.2,24.5333,-101.858,-10281,-28506
228,705094,0.12207,0.732422,0.427246,-82.3535,-3.83423,-119.806,0.674707,-9.71387,1.38291,0.358124,-0.351807,0.556641,-0.661835,-114.217,24.5083,-101.875,-10281,-28506
234,705100,-0.183105,0.549316,0.427246,-82.3535,-3.83423,-119.806,0.684277,-9.75215,1.30156,0.358124,-0.351746,0.556671,-0.661835,-114.233,24.475,-101.892,-10281,-28506
240,705106,-0.183105,0.793457,0.366211,-82.359,-3.82874,-119.811,0.631641,-9.8335,1.20586,0.358093,-0.351715,0.556702,-0.661835,-114.225,24.45,-101.908,-10281,-28506
246,705112,0.671387,1.09863,0.488281,-82.348,-3.82324,-119.817,0.669922,-9.79521,1.25371,0.358093,-0.351654,0.556702,-0.661865,-114.208,24.3833,-101.867,-10281,-28506
252,705118,0.671387,0.854492,0.610352,-82.348,-3.82324,-119.822,0.665137,-9.80479,1.28242,0.358093,-0.351624,0.556702,-0.661865,-114.175,24.3333,-101.85,-10281,-28506
258,705124,1.15967,0.915527,0.488281,-82.3425,-3.81775,-119.828,0.660352,-9.83828,1.23457,0.358093,-0.351563,0.556702,-0.661896,-114.158,24.3083,-101.842,-10281,-28506
264,705130,1.28174,0.915527,0.793457,-82.337,-3.81226,-119.833,0.674707,-9.72822,1.3207,0.358124,-0.351501,0.556702,-0.661926,-114.158,24.3083,-101.808,-10281,-28506
270,705136,0.915527,0.915527,0.671387,-82.3315,-3.80676,-119.833,0.660352,-9.80957,1.26807,0.358154,-0.351379,0.556702,-0.661987,-114.158,24.3333,-101.833,-10281,-28506
276,705142,1.64795,0.915527,1.0376,-82.3151,-3.80127,-119.844,0.598145,-9.70908,1.37334,0.358154,-0.351318,0.556671,-0.662018,-114.167,24.3083,-101.892,-10281,-28506
282,705148,1.34277,0.915527,0.671387,-82.3096,-3.79578,-119.844,0.617285,-9.68994,1.34463,0.358185,-0.351257,0.556671,-0.662079,-114.183,24.325,-101.917,-10281,-28506
288,705154,1.34277,0.915527,0.610352,-82.2986,-3.79578,-119.85,0.655566,-9.78086,1.28242,0.358215,-0.351196,0.556641,-0.662109,-114.2,24.325,-101.942,-10281,-28506
294,705160,1.70898,0.793457,0.732422,-82.2931,-3.79028,-119.855,0.617285,-9.84307,1.24893,0.358215,-0.351135,0.556641,-0.66214,-114.208,24.3083,-101.958,-10281,-28506
300,705166,1.77002,0.671387,0.732422,-82.2821,-3.78479,-119.855,0.617285,-9.77607,1.26807,0.358276,-0.351013,0.55658,-0.662231,-114.225,24.3083,-101.983,-10281,-28506
306,705172,2.19727,1.09863,0.427246,-82.2601,-3.7793,-119.866,0.607715,-9.7665,1.31592,0.358307,-0.350922,0.556549,-0.662262,-114.267,24.325,-101.975,-10281,-28506
312,705178,2.2583,0.732422,0.671387,-82.2491,-3.7738,-119.866,0.665137,-9.79043,1.32549,0.358337,-0.350861,0.556519,-0.662323,-114.275,24.3083,-101.967,-10281,-28506
318,705184,2.2583,0.915527,0.915527,-82.2382,-3.76831,-119.872,0.708203,-9.77607,1.28242,0.358368,-0.3508,0.556458,-0.662384,-114.292,24.3083,-101.95,-10281,-28506
324,705190,2.0752,0.854492,0.854492,-82.2327,-3.76831,-119.877,0.698633,-9.78564,1.28242,0.358398,-0.350708,0.556427,-0.662445,-114.283,24.325,-101.9,-10281,-28506
330,705196,2.56348,1.09863,1.40381,-82.2162,-3.75732,-119.883,0.693848,-9.80957,1.29199,0.35849,-0.350525,0.556366,-0.662537,-114.283,24.3417,-101.867,-10281,-28506
336,705202,2.80762,1.2207,1.70898,-82.1942,-3.74084,-119.888,0.689063,-9.87656,1.26807,0.358521,-0.350433,0.556335,-0.662598,-114.292,24.3417,-101.9,-10281,-28506
342,705208,3.05176,1.15967,1.2207,-82.1777,-3.73535,-119.894,0.645996,-9.87656,1.29199,0.358582,-0.350311,0.556305,-0.662659,-114.3,24.3333,-101.925,-10281,-28506
348,705214,3.41797,1.46484,1.95313,-82.1613,-3.72437,-119.899,0.674707,-9.8,1.31113,0.358643,-0.35022,0.556244,-0.66272,-114.325,24.325,-101.958,-10281,-28506
354,705220,3.2959,1.34277,1.70898,-82.1448,-3.71887,-119.905,0.641211,-9.74736,1.3542,0.358704,-0.350067,0.556213,-0.662781,-114.35,24.2917,-101.983,-10281,-28506
360,705226,3.41797,1.34277,2.19727,-82.1283,-3.70789,-119.91,0.660352,-9.85742,1.27285,0.358856,-0.349823,0.556122,-0.662933,-114.375,24.2667,-101.983,-10281,-28506
366,705232,3.96729,1.34277,2.01416,-82.0898,-3.68591,-119.921,0.6125,-9.80957,1.33027,0.358917,-0.34967,0.556091,-0.662994,-114.4,24.25,-101.917,-10281,-28506
372,705238,3.78418,1.40381,1.95313,-82.0734,-3.67493,-119.927,0.60293,-9.71865,1.41162,0.359009,-0.349518,0.55603,-0.663086,-114.392,24.225,-101.892,-10281,-28506
378,705244,3.72314,1.2207,1.89209,-82.0569,-3.66394,-119.932,0.617285,-9.73301,1.4499,0.35907,-0.349396,0.555969,-0.663147,-114.383,24.1917,-101.867,-10281,-28506
384,705250,3.60107,1.15967,2.13623,-82.0404,-3.65295,-119.938,0.6125,-9.73779,1.37813,0.359161,-0.349243,0.555908,-0.663239,-114.383,24.2,-101.867,-10281,-28506
390,705256,3.41797,1.34277,1.95313,-82.0239,-3.64197,-119.938,0.6125,-9.8,1.40205,0.359314,-0.348969,0.555817,-0.663361,-114.383,24.1833,-101.858,-10281,-28506
396,705262,3.66211,1.52588,2.13623,-81.9855,-3.62,-119.954,0.569434,-9.84307,1.29199,0.359406,-0.348846,0.555786,-0.663422,-114.375,24.125,-101.892,-10281,-28506
402,705268,3.90625,0.976563,2.2583,-81.969,-3.60901,-119.954,0.574219,-9.86221,1.24414,0.359467,-0.348694,0.555725,-0.663513,-114.392,24.1167,-101.875,-10281,-28506
408,705274,4.15039,1.2207,1.89209,-81.947,-3.59802,-119.96,0.6125,-9.74258,1.3877,0.359558,-0.348541,0.555664,-0.663574,-114.392,24.1,-101.85,-10281,-28506
414,705280,4.02832,1.40381,2.01416,-81.9305,-3.58704,-119.965,0.626855,-9.64688,1.4499,0.35965,-0.348419,0.555603,-0.663666,-114.367,24.0833,-101.875,-10281,-28506
420,705286,3.66211,1.0376,2.19727,-81.9141,-3.57605,-119.971,0.574219,-9.66123,1.44033,0.359833,-0.348114,0.555481,-0.663818,-114.325,24.0583,-101.858,-10281,-28506
426,705292,3.60107,1.09863,1.70898,-81.8756,-3.55408,-119.976,0.583789,-9.72822,1.41162,0.359924,-0.347992,0.55545,-0.663879,-114.242,24.0333,-101.858,-10281,-28506
432,705298,3.84521,0.915527,1.70898,-81.8591,-3.54858,-119.982,0.607715,-9.78086,1.34941,0.359985,-0.347839,0.555389,-0.66394,-114.2,23.9917,-101.875,-10281,-28506
438,705304,3.90625,0.732422,1.95313,-81.8372,-3.5376,-119.982,0.583789,-9.81914,1.35898,0.360077,-0.347717,0.555328,-0.664032,-114.175,23.975,-101.917,-10281,-28506
444,705310,4.08936,0.915527,1.70898,-81.8207,-3.52661,-119.987,0.598145,-9.7665,1.3877,0.360168,-0.347595,0.555237,-0.664093,-114.183,23.975,-101.942,-10281,-28506
450,705316,4.08936,0.854492,2.01416,-81.7987,-3.52112,-119.987,0.593359,-9.79043,1.3877,0.360352,-0.347351,0.555084,-0.664276,-114.183,23.9667,-101.975,-10281,-28506
456,705322,4.3335,0.854492,1.70898,-81.7603,-3.49915,-119.993,0.593359,-9.80479,1.33984,0.360443,-0.347198,0.555023,-0.664337,-114.175,23.9167,-102.017,-10281,-28506
462,705328,4.63867,0.488281,1.77002,-81.7383,-3.48816,-119.998,0.6125,-9.72344,1.4499,0.360535,-0.347076,0.554932,-0.664429,-114.167,23.9,-102.017,-10281,-28506
468,705334,4.39453,0.671387,2.19727,-81.7163,-3.47717,-119.998,0.626855,-9.75215,1.43076,0.360626,-0.346954,0.55484,-0.66452,-114.158,23.8917,-102,-10281,-28506
474,705340,4.45557,0.854492,1.95313,-81.6943,-3.47168,-119.998,0.588574,-9.79521,1.39727,0.360748,-0.346832,0.554779,-0.664612,-114.15,23.8583,-102,-10281,-28506
480,705346,5.06592,0.793457,1.70898,-81.6724,-3.46069,-120.004,0.555078,-9.76172,1.4499,0.360962,-0.346558,0.554596,-0.664764,-114.142,23.825,-102,-10281,-28506
486,705352,4.94385,0.732422,1.46484,-81.6229,-3.44421,-120.009,0.607715,-9.75215,1.43076,0.361053,-0.346405,0.554504,-0.664886,-114.158,23.8083,-101.942,-10281,-28506
492,705358,5.12695,0.610352,1.89209,-81.5955,-3.43323,-120.009,0.598145,-9.82393,1.43555,0.361145,-0.346283,0.554382,-0.664978,-114.175,23.7833,-101.942,-10281,-28506
498,705364,5.12695,1.0376,1.95313,-81.5735,-3.42224,-120.015,0.583789,-9.82393,1.37334,0.361267,-0.34613,0.554291,-0.66507,-114.183,23.775,-101.975,-10281,-28506
504,705370,5.12695,0.488281,2.01416,-81.5515,-3.41675,-120.015,0.583789,-9.75693,1.45947,0.361359,-0.345978,0.554199,-0.665192,-114.208,23.7833,-102,-10281,-28506
510,705376,5.06592,0.915527,1.89209,-81.5021,-3.39478,-120.02,0.545508,-9.7043,1.47861,0.361603,-0.345703,0.553986,-0.665375,-114.2,23.7917,-102.017,-10281,-28506
516,705382,4.88281,0.671387,1.83105,-81.4746,-3.38379,-120.02,0.617285,-9.69951,1.56475,0.361694,-0.345551,0.553894,-0.665466,-114.167,23.75,-102.108,-10281,-28506
522,705388,4.63867,0.610352,1.83105,-81.4526,-3.3728,-120.02,0.588574,-9.61338,1.6126,0.361816,-0.345428,0.553772,-0.665558,-114.158,23.7333,-102.125,-10281,-28506
528,705394,4.27246,0.793457,1.77002,-81.4362,-3.36731,-120.026,0.588574,-9.65166,1.52168,0.361908,-0.345306,0.55368,-0.665649,-114.15,23.6917,-102.142,-10281,-28506
534,705400,4.27246,0.610352,1.77002,-81.4142,-3.35632,-120.026,0.526367,-9.67559,1.48818,0.362,-0.345154,0.553619,-0.665741,-114.15,23.6333,-102.192,-10281,-28506
540,705406,4.02832,0.732422,1.34277,-81.3757,-3.33984,-120.031,0.545508,-9.64688,1.57432,0.362183,-0.34491,0.553436,-0.665894,-114.15,23.575,-102.208,-10281,-28506
546,705412,3.60107,0.549316,1.77002,-81.3538,-3.33435,-120.037,0.583789,-9.78564,1.47861,0.362274,-0.344788,0.553375,-0.665985,-114.15,23.5167,-102.25,-10281,-28506
552,705418,4.08936,0.793457,1.83105,-81.3373,-3.32336,-120.037,0.574219,-9.87656,1.41162,0.362366,-0.344696,0.553284,-0.666046,-114.15,23.4667,-102.233,-10281,-28506
558,705424,4.5166,0.671387,1.40381,-81.3153,-3.31787,-120.037,0.545508,-9.91484,1.36377,0.362457,-0.344574,0.553223,-0.666138,-114.158,23.4583,-102.242,-10281,-28506
564,705430,5.24902,0.671387,1.46484,-81.2878,-3.30688,-120.042,0.531152,-9.87178,1.36377,0.362518,-0.344452,0.553131,-0.666229,-114.15,23.4667,-102.225,-10281,-28506
570,705436,5.92041,0.976563,1.0376,-81.2329,-3.2959,-120.048,0.526367,-9.86699,1.37813,0.362732,-0.344147,0.552887,-0.666443,-114.15,23.475,-102.175,-10281,-28506
576,705442,6.46973,0.732422,0.854492,-81.2054,-3.29041,-120.053,0.579004,-9.90527,1.38291,0.362823,-0.344025,0.552765,-0.666595,-114.133,23.45,-102.233,-10281,-28506
582,705448,7.14111,1.28174,0.854492,-81.167,-3.28491,-120.059,0.540723,-9.85264,1.36377,0.362915,-0.343872,0.552612,-0.666748,-114.133,23.4417,-102.258,-10281,-28506
588,705454,7.56836,1.09863,0.488281,-81.134,-3.28491,-120.064,0.46416,-9.91963,1.40205,0.363007,-0.343719,0.55246,-0.666901,-114.142,23.425,-102.3,-10281,-28506
594,705460,8.23975,1.2207,0.183105,-81.0956,-3.27942,-120.07,0.559863,-9.95313,1.3877,0.363098,-0.343567,0.552277,-0.667084,-114.125,23.3917,-102.342,-10281,-28506
600,705466,9.27734,1.09863,0.0610352,-81.0077,-3.27942,-120.081,0.526367,-9.80957,1.45947,0.363312,-0.343231,0.551849,-0.667511,-114.1,23.35,-102.358,-10281,-28506
606,705472,9.33838,0.915527,0,-80.9637,-3.27942,-120.081,0.492871,-9.80479,1.54082,0.363403,-0.343048,0.551605,-0.667725,-114.042,23.3333,-102.425,-10281,-28506
612,705478,9.46045,0.732422,-0.183105,-80.9198,-3.27942,-120.086,0.526367,-9.73301,1.55039,0.363525,-0.342896,0.551361,-0.667938,-114.008,23.3,-102.492,-10281,-28506
618,705484,9.15527,0.976563,0,-80.8759,-3.27393,-120.092,0.478516,-9.68516,1.64609,0.363647,-0.342743,0.551117,-0.668182,-114,23.2833,-102.567,-10281,-28506
624,705490,9.0332,0.732422,0.12207,-80.8319,-3.27393,-120.097,0.507227,-9.61338,1.65088,0.363739,-0.34256,0.550873,-0.668396,-114.008,23.275,-102.642,-10281,-28506
630,705496,8.60596,0.488281,-0.183105,-80.7495,-3.27393,-120.103,0.545508,-9.65645,1.68438,0.363953,-0.342255,0.550385,-0.668823,-114.025,23.2,-102.733,-10281,-28506
636,705502,8.23975,0.732422,0,-80.7111,-3.27393,-120.108,0.555078,-9.58945,1.69395,0.364075,-0.342102,0.550171,-0.669037,-114.025,23.1417,-102.75,-10281,-28506
642,705508,7.99561,0.671387,0,-80.6726,-3.27393,-120.108,0.540723,-9.55596,1.71787,0.364166,-0.341949,0.549957,-0.66925,-114.025,23.1,-102.758,-10281,-28506
648,705514,7.62939,0.488281,-0.305176,-80.6342,-3.27393,-120.114,0.598145,-9.56553,1.74658,0.364288,-0.341797,0.549744,-0.669434,-114.025,23.05,-102.75,-10281,-28506
654,705520,7.08008,0.854492,-0.12207,-80.6012,-3.27393,-120.114,0.6125,-9.56074,1.77529,0.364349,-0.341675,0.54953,-0.669617,-114.008,22.975,-102.767,-10281,-28506
660,705526,6.5918,0.793457,0.183105,-80.5353,-3.26843,-120.125,0.583789,-9.68994,1.66045,0.364532,-0.341431,0.549164,-0.669952,-113.975,22.8583,-102.775,-10281,-28506
666,705532,6.83594,0.915527,0.244141,-80.5023,-3.26843,-120.13,0.555078,-9.6708,1.65566,0.364594,-0.341309,0.549011,-0.670135,-113.958,22.7917,-102.742,-10281,-28506
672,705538,6.53076,1.09863,0.671387,-80.4694,-3.26294,-120.135,0.502441,-9.65645,1.65566,0.364685,-0.341156,0.548828,-0.670288,-113.925,22.6917,-102.733,-10281,-28506
678,705544,6.71387,0.915527,0.0610352,-80.4364,-3.26294,-120.135,0.492871,-9.64688,1.65088,0.364777,-0.341003,0.548676,-0.670441,-113.9,22.6083,-102.733,-10281,-28506
684,705550,6.46973,0.671387,0.183105,-80.4089,-3.26294,-120.141,0.497656,-9.64688,1.64609,0.364838,-0.340881,0.548492,-0.670624,-113.892,22.5583,-102.717,-10281,-28506
690,705556,6.71387,0.549316,0.244141,-80.343,-3.25745,-120.146,0.488086,-9.62773,1.65088,0.365021,-0.340637,0.548157,-0.670929,-113.875,22.425,-102.75,-10281,-28506
696,705562,6.89697,0.793457,0,-80.3101,-3.25745,-120.152,0.521582,-9.5751,1.71309,0.365112,-0.340515,0.547974,-0.671082,-113.867,22.35,-102.808,-10281,-28506
702,705568,6.46973,0.549316,0.0610352,-80.2771,-3.25745,-120.152,0.512012,-9.52725,1.77529,0.365173,-0.340363,0.547791,-0.671265,-113.867,22.3,-102.875,-10281,-28506
708,705574,5.85938,0.366211,0.0610352,-80.2496,-3.25745,-120.157,0.588574,-9.52725,1.77051,0.365265,-0.34024,0.547638,-0.671417,-113.875,22.2417,-102.933,-10281,-28506
714,705580,5.49316,0.549316,0.305176,-80.2222,-3.25195,-120.157,0.588574,-9.51289,1.84707,0.365326,-0.340149,0.547485,-0.671539,-113.875,22.1917,-103.017,-10281,-28506
720,705586,5.00488,0.610352,0.0610352,-80.1727,-3.25195,-120.163,0.507227,-9.6708,1.72744,0.365479,-0.339935,0.547211,-0.671783,-113.875,22.1167,-103.1,-10281,-28506
726,705592,4.63867,0.305176,0.12207,-80.1508,-3.25195,-120.163,0.535937,-9.73779,1.59346,0.36554,-0.339844,0.547089,-0.671906,-113.867,22.0667,-103.092,-10281,-28506
732,705598,5.12695,0.549316,0.366211,-80.1288,-3.24646,-120.168,0.559863,-9.90527,1.55518,0.365601,-0.339783,0.546967,-0.672028,-113.842,21.9917,-103.05,-10281,-28506
738,705604,5.49316,0.793457,0.366211,-80.1013,-3.24646,-120.168,0.631641,-10.202,1.51211,0.365662,-0.339661,0.546814,-0.67215,-113.817,21.9333,-103.008,-10281,-28506
744,705610,6.53076,0.671387,1.09863,-80.0739,-3.24097,-120.174,0.799121,-10.4316,1.4499,0.365753,-0.339539,0.546692,-0.672272,-113.808,21.8917,-102.967,-10281,-28506
750,705616,9.0332,1.09863,2.56348,-79.9915,-3.21899,-120.179,0.75127,-10.3981,1.4834,0.365967,-0.339203,0.546356,-0.672577,-113.792,21.7917,-102.992,-10281,-28506
756,705622,10.0708,0.976563,3.17383,-79.942,-3.20251,-120.179,0.631641,-10.1302,1.56475,0.36615,-0.338989,0.546173,-0.67276,-113.792,21.7417,-103.033,-10281,-28506
762,705628,10.437,1.15967,3.84521,-79.8926,-3.18054,-120.185,0.550293,-9.87656,1.64609,0.366364,-0.338745,0.545959,-0.672943,-113.8,21.7,-103.083,-10281,-28506
768,705634,10.3149,0.854492,3.72314,-79.8431,-3.16406,-120.185,0.497656,-9.61816,1.77051,0.366577,-0.33847,0.545715,-0.673126,-113.825,21.6583,-103.1,-10281,-28506
774,705640,10.0098,0.976563,3.23486,-79.7992,-3.14758,-120.185,0.521582,-9.58467,1.85664,0.367035,-0.337921,0.545288,-0.673523,-113.833,21.6083,-103.142,-10281,-28506
780,705646,9.58252,1.09863,3.23486,-79.7058,-3.11462,-120.19,0.435449,-9.52246,1.82314,0.367218,-0.337677,0.545074,-0.673706,-113.833,21.5083,-103.183,-10281,-28506
786,705652,9.27734,0.854492,3.17383,-79.6619,-3.09814,-120.196,0.507227,-9.53682,1.871,0.367432,-0.337433,0.544891,-0.673889,-113.817,21.4583,-103.2,-10281,-28506
792,705658,8.8501,0.976563,2.99072,-79.6179,-3.08167,-120.196,0.540723,-9.5416,1.88057,0.367615,-0.337189,0.544678,-0.674072,-113.808,21.3833,-103.233,-10281,-28506
798,705664,8.54492,0.854492,3.2959,-79.5795,-3.06519,-120.196,0.564648,-9.59902,1.89492,0.367798,-0.336945,0.544495,-0.674225,-113.8,21.3333,-103.283,-10281,-28506
804,705670,8.42285,0.854492,3.2959,-79.541,-3.04871,-120.201,0.598145,-9.59902,1.89971,0.368195,-0.336487,0.544128,-0.67453,-113.8,21.3,-103.317,-10281,-28506
810,705676,7.93457,1.28174,3.60107,-79.4586,-3.01575,-120.201,0.631641,-9.43154,2.00977,0.368378,-0.336273,0.543976,-0.674683,-113.817,21.2333,-103.4,-10281,-28506
816,705682,7.14111,1.0376,3.60107,-79.4257,-2.99927,-120.207,0.540723,-9.37412,2.0624,0.368561,-0.336029,0.543823,-0.674835,-113.817,21.2,-103.458,-10281,-28506
822,705688,6.5918,1.15967,3.2959,-79.3927,-2.98279,-120.207,0.535937,-9.37891,1.99541,0.368744,-0.335815,0.543671,-0.674957,-113.817,21.1833,-103.508,-10281,-28506
828,705694,5.98145,1.15967,3.60107,-79.3652,-2.96631,-120.212,0.516797,-9.47939,1.99541,0.368896,-0.335602,0.543549,-0.675079,-113.817,21.1583,-103.567,-10281,-28506
834,705700,5.61523,1.09863,3.35693,-79.3378,-2.94983,-120.212,0.545508,-9.62295,1.97148,0.369202,-0.335205,0.543365,-0.675262,-113.792,21.1083,-103.642,-10281,-28506
840,705706,5.49316,1.46484,3.78418,-79.2883,-2.91138,-120.218,0.555078,-9.75215,1.91885,0.369354,-0.334991,0.543274,-0.675323,-113.758,21.0333,-103.692,-10281,-28506
846,705712,5.43213,1.15967,3.84521,-79.2609,-2.8894,-120.218,0.555078,-9.72822,1.97148,0.369507,-0.334778,0.543182,-0.675415,-113.758,20.9917,-103.675,-10281,-28506
852,705718,5.00488,1.83105,4.08936,-79.2334,-2.87292,-120.223,0.550293,-9.74736,1.9332,0.369659,-0.334564,0.543121,-0.675507,-113.767,20.9167,-103.667,-10281,-28506
858,705724,5.12695,1.34277,4.3335,-79.2114,-2.85095,-120.229,0.507227,-9.74736,1.91406,0.369812,-0.334351,0.54306,-0.675598,-113.767,20.8583,-103.65,-10281,-28506
864,705730,4.94385,1.70898,4.21143,-79.184,-2.82898,-120.234,0.502441,-9.8335,1.89492,0.370117,-0.333923,0.542938,-0.67572,-113.783,20.825,-103.617,-10281,-28506
870,705736,5.37109,1.58691,4.45557,-79.1345,-2.78503,-120.24,0.535937,-10.0871,1.81357,0.3703,-0.33371,0.542877,-0.675812,-113.8,20.7583,-103.625,-10281,-28506
876,705742,6.16455,1.46484,5.00488,-79.1071,-2.75757,-120.24,0.516797,-10.1589,1.77529,0.370453,-0.333466,0.542786,-0.675873,-113.792,20.7167,-103.642,-10281,-28506
882,705748,6.5918,1.46484,5.49316,-79.0741,-2.7301,-120.245,0.516797,-10.2594,1.75615,0.370667,-0.333221,0.542725,-0.675964,-113.8,20.7083,-103.675,-10281,-28506
888,705754,7.32422,1.52588,5.49316,-79.0356,-2.70264,-120.245,0.540723,-10.2737,1.72266,0.37088,-0.332947,0.542633,-0.676056,-113.8,20.6917,-103.725,-10281,-28506
894,705760,8.23975,1.15967,5.61523,-78.9972,-2.67517,-120.245,0.535937,-10.178,1.72266,0.371338,-0.332397,0.542389,-0.67627,-113.792,20.6583,-103.792,-10281,-28506
900,705766,9.39941,0.671387,7.14111,-78.9093,-2.61475,-120.24,0.60293,-9.95313,1.98105,0.371613,-0.332062,0.542236,-0.676392,-113.8,20.625,-103.85,-10281,-28506
906,705772,9.15527,0.854492,7.56836,-78.8654,-2.57629,-120.24,0.789551,-9.69951,2.23945,0.371918,-0.331757,0.542084,-0.676483,-113.8,20.5917,-103.833,-10281,-28506
912,705778,8.17871,1.2207,7.87354,-78.8269,-2.53784,-120.234,0.784766,-9.58945,2.35908,0.372253,-0.331421,0.541931,-0.676605,-113.8,20.5333,-103.842,-10281,-28506
918,705784,7.87354,1.58691,8.30078,-78.7885,-2.49939,-120.234,0.693848,-9.58945,2.32559,0.372559,-0.331085,0.54184,-0.676666,-113.775,20.4667,-103.842,-10281,-28506
924,705790,7.69043,1.83105,8.30078,-78.75,-2.46094,-120.24,0.325391,-9.52246,2.08154,0.373138,-0.330353,0.541656,-0.676819,-113.75,20.4417,-103.867,-10281,-28506
930,705796,6.53076,1.95313,8.05664,-78.6841,-2.37854,-120.245,0.177051,-9.60381,1.96191,0.373413,-0.330017,0.541595,-0.67691,-113.717,20.3417,-103.95,-10281,-28506
936,705802,6.04248,1.58691,7.87354,-78.6566,-2.34009,-120.245,0.200977,-9.72822,1.86143,0.373688,-0.329651,0.541565,-0.676941,-113.692,20.2833,-104,-10281,-28506
942,705808,6.34766,1.34277,7.93457,-78.6237,-2.30164,-120.24,0.258398,-9.73779,1.84707,0.373962,-0.329346,0.541504,-0.677002,-113.692,20.25,-104.05,-10281,-28506
948,705814,6.22559,1.52588,7.99561,-78.5962,-2.26318,-120.24,0.258398,-9.74258,1.93799,0.374237,-0.329041,0.541473,-0.677032,-113.683,20.2,-104.083,-10281,-28506
954,705820,6.04248,2.13623,8.30078,-78.5687,-2.22473,-120.245,0.200977,-9.93398,1.85186,0.374786,-0.328369,0.541412,-0.677094,-113.658,20.1417,-104.1,-10281,-28506
960,705826,6.16455,1.83105,8.17871,-78.5083,-2.14233,-120.245,0.15791,-9.98662,1.85664,0.375061,-0.328033,0.541382,-0.677155,-113.625,20.05,-104.1,-10281,-28506
966,705832,5.85938,2.2583,8.48389,-78.4808,-2.10388,-120.251,0.16748,-10.0201,1.80879,0.375336,-0.327698,0.541351,-0.677185,-113.608,20.0083,-104.125,-10281,-28506
972,705838,5.24902,2.74658,8.42285,-78.4589,-2.05994,-120.256,-0.0430664,-10.0871,1.80879,0.37561,-0.327332,0.541321,-0.677216,-113.592,19.9583,-104.175,-10281,-28506
978,705844,4.82178,2.31934,9.0332,-78.4369,-2.0105,-120.256,-0.339746,-10.0919,1.63174,0.375854,-0.326996,0.541351,-0.677216,-113.567,19.9,-104.258,-10281,-28506
984,705850,4.69971,0.976563,9.09424,-78.4149,-1.96655,-120.251,-0.990527,-9.93877,1.39727,0.376434,-0.326324,0.541412,-0.677185,-113.558,19.8667,-104.342,-10272,-28507
990,705856,2.80762,-2.92969,10.5591,-78.3875,-1.86768,-120.218,-1.10059,-9.76172,1.34941,0.37677,-0.32605,0.541443,-0.677094,-113.575,19.7833,-104.467,-10272,-28507
996,705862,0.732422,-5.18799,12.207,-78.3875,-1.80725,-120.179,-1.4834,-9.5751,1.58389,0.377197,-0.325836,0.541504,-0.67691,-113.575,19.7417,-104.525,-10272,-28507
1002,705868,-2.31934,-9.39941,14.5264,-78.4094,-1.74133,-120.119,-1.73701,-9.06309,1.72744,0.377686,-0.325684,0.541595,-0.676636,-113.583,19.7083,-104.558,-10281,-28506
1008,705874,-6.5918,-13.4888,15.9912,-78.4479,-1.66992,-120.037,-2.24424,-8.63721,1.98584,0.378326,-0.325623,0.541748,-0.676178,-113.592,19.7,-104.617,-10281,-28506
1014,705880,-12.146,-24.1699,18.3716,-78.5028,-1.59302,-119.927,-3.17256,-9.10615,2.6749,0.379883,-0.325989,0.542297,-0.674713,-113.592,19.6417,-104.65,-10281,-28506
1020,705886,-12.3291,-28.0762,17.5781,-78.6346,-1.4447,-119.636,-4.05781,-10.245,3.56016,0.38089,-0.326416,0.542542,-0.673737,-113.6,19.6417,-104.708,-10281,-28506
1026,705892,-3.72314,-34.8511,13.0005,-78.6566,-1.40076,-119.454,-4.39277,-11.7332,4.72773,0.381958,-0.326935,0.542755,-0.672699,-113.608,19.6417,-104.708,-10281,-28506
1032,705898,7.8125,-38.4521,6.83594,-78.6182,-1.38428,-119.257,-4.00039,-11.7858,5.22061,0.383179,-0.327606,0.542511,-0.671875,-113.608,19.6417,-104.717,-10281,-28506
1038,705904,18.6157,-41.626,-1.83105,-78.5193,-1.41174,-119.059,-3.96211,-10.3742,5.89053,0.384521,-0.328308,0.541779,-0.671356,-113.642,19.6417,-104.717,-10281,-28506
1044,705910,16.7236,-42.1753,-24.7192,-78.3875,-1.48865,-118.861,-4.83301,-3.89512,7.74238,0.386993,-0.330017,0.53894,-0.671387,-113.667,19.6333,-104.7,-10281,-28506
1050,705916,3.96729,-47.4243,-36.8652,-78.2556,-1.81824,-118.488,-4.72773,-3.39746,7.06289,0.387695,-0.331329,0.537384,-0.67157,-113.775,19.55,-104.642,-10281,-28506
1056,705922,-5.49316,-49.0723,-48.4619,-78.2666,-2.07092,-118.301,-3.81377,-4.63682,5.84268,0.38797,-0.333221,0.535919,-0.671631,-113.833,19.4917,-104.592,-10281,-28506
1062,705928,-10.498,-50.293,-56.7627,-78.2996,-2.36206,-118.114,-3.13906,-6.36426,5.10576,0.387848,-0.335602,0.534546,-0.671631,-113.908,19.4583,-104.517,-10281,-28506
1068,705934,-12.146,-49.9268,-61.1572,-78.338,-2.66968,-117.938,-2.78496,-8.09648,4.9,0.387451,-0.338226,0.533173,-0.671631,-113.975,19.4333,-104.442,-10281,-28506
1074,705940,-7.87354,-50.293,-58.96,-78.371,-2.98279,-117.751,-2.0002,-10.3264,5.03398,0.386353,-0.343719,0.530273,-0.671783,-114.042,19.3917,-104.333,-10281,-28506
1080,705946,-4.02832,-49.0112,-54.5654,-78.3875,-3.55408,-117.389,-1.84707,-10.4986,5.18232,0.385956,-0.346313,0.528748,-0.671875,-114.225,19.4083,-104.067,-10281,-28506
1086,705952,-1.2207,-47.1802,-49.2554,-78.3765,-3.79578,-117.213,-1.83271,-10.1254,5.27803,0.385681,-0.348724,0.527191,-0.671997,-114.308,19.4167,-103.883,-10281,-28506
1092,705958,0.488281,-46.0205,-44.6777,-78.349,-4.021,-117.037,-1.84229,-9.45547,5.479,0.38559,-0.350861,0.525665,-0.67215,-114.392,19.3917,-103.725,-10281,-28506
1098,705964,1.15967,-44.4336,-40.0391,-78.3215,-4.21875,-116.867,-1.78965,-8.91475,5.68477,0.38562,-0.352844,0.52417,-0.672241,-114.45,19.3833,-103.575,-10281,-28506
1104,705970,2.38037,-41.0767,-34.2407,-78.2941,-4.39453,-116.702,-1.78486,-8.67549,5.90488,0.385956,-0.356323,0.521393,-0.672394,-114.508,19.3833,-103.442,-10272,-28507
1110,705976,4.27246,-39.5508,-32.2266,-78.2062,-4.71313,-116.389,-1.804,-8.94824,5.97666,0.38623,-0.357849,0.52005,-0.672455,-114.667,19.3917,-103.175,-10272,-28507
1116,705982,7.01904,-38.3301,-30.1514,-78.1458,-4.85596,-116.235,-1.871,-9.24014,6.0915,0.386536,-0.359253,0.518707,-0.672577,-114.742,19.4167,-103.05,-10272,-28507
1122,705988,10.5591,-36.5601,-28.3203,-78.0634,-4.98779,-116.093,-2.0002,-9.35977,6.23027,0.386932,-0.360504,0.517334,-0.672729,-114.842,19.475,-102.892,-10272,-28507
1128,705994,13.6719,-35.2173,-27.1606,-77.959,-5.10864,-115.955,-2.29209,-9.11094,6.41211,0.38739,-0.361603,0.5159,-0.672943,-114.917,19.525,-102.733,-10272,-28507
1134,706000,16.1743,-34.1187,-27.2217,-77.8546,-5.22949,-115.823,-3.03379,-8.25439,6.45518,0.388489,-0.363464,0.512909,-0.673615,-114.95,19.5667,-102.583,-10272,-28507
1140,706006,15.0757,-34.79,-28.3813,-77.6294,-5.47668,-115.565,-3.4166,-7.84287,6.44082,0.389008,-0.364349,0.511353,-0.674011,-115.008,19.7417,-102.317,-10272,-28507
1146,706012,12.5732,-36.1938,-30.8838,-77.5305,-5.61401,-115.433,-3.73242,-7.66582,6.46953,0.389526,-0.365265,0.509827,-0.674408,-115.033,19.8417,-102.133,-10272,-28507
1152,706018,9.82666,-38.269,-33.1421,-77.4426,-5.76782,-115.291,-3.70371,-7.96729,6.35947,0.389984,-0.366302,0.50827,-0.674744,-115.067,19.9333,-101.992,-10272,-28507
1158,706024,8.23975,-40.0391,-34.9121,-77.3712,-5.92712,-115.142,-3.61758,-8.76162,6.04365,0.39035,-0.367462,0.506744,-0.675018,-115.083,20.025,-101.842,-10272,-28507
1164,706030,11.3525,-44.3115,-36.0107,-77.2009,-6.25671,-114.824,-3.1917,-10.2211,5.52207,0.391052,-0.370117,0.503601,-0.675537,-115.1,20.1417,-101.642,-10272,-28507
1170,706036,14.8926,-46.3257,-33.1421,-77.1021,-6.41602,-114.642,-2.92852,-10.7044,5.39287,0.39151,-0.37146,0.501892,-0.675781,-115.092,20.3417,-101.3,-10272,-28507
1176,706042,18.2495,-48.3398,-29.2358,-76.9812,-6.55334,-114.45,-2.80889,-11.0441,5.24932,0.392181,-0.372772,0.500092,-0.676056,-115.067,20.4583,-101.108,-10272,-28507
1182,706048,21.8506,-50.354,-23.0103,-76.8494,-6.66321,-114.241,-2.59834,-11.1925,5.25889,0.393005,-0.373962,0.49823,-0.67627,-115.042,20.6,-100.908,-10272,-28507
1188,706054,24.8413,-52.7344,-16.9067,-76.7065,-6.7511,-114.016,-2.44521,-11.1973,5.26846,0.394165,-0.375031,0.496338,-0.676392,-115.033,20.7667,-100.667,-10272,-28507
1194,706060,31.5552,-55.9082,-2.01416,-76.3824,-6.82251,-113.516,-2.14375,-11.427,4.9335,0.397247,-0.376801,0.492493,-0.676422,-115.025,20.9333,-100.425,-10272,-28507
1200,706066,34.9121,-56.7627,3.96729,-76.2012,-6.81152,-113.242,-2.15811,-11.269,5.0292,0.399261,-0.377411,0.49054,-0.6763,-115.008,21.35,-99.95,-10272,-28507
1206,706072,37.5977,-58.4717,9.64355,-76.0034,-6.77856,-112.956,-2.12939,-11.4126,4.84736,0.401489,-0.377899,0.488617,-0.676117,-115.008,21.6,-99.6667,-10272,-28507
1212,706078,40.9546,-60.0586,14.7705,-75.7947,-6.72363,-112.659,-2.14854,-11.2499,4.74209,0.403992,-0.378235,0.486633,-0.675842,-114.983,21.825,-99.3917,-10272,-28507
1218,706084,43.8232,-61.2793,18.4326,-75.575,-6.65771,-112.346,-2.46914,-11.2068,4.62246,0.406708,-0.378479,0.48465,-0.675537,-114.992,22.0833,-99.1,-10272,-28507
1224,706090,48.3398,-65.6738,24.353,-75.108,-6.48193,-111.676,-2.71318,-11.025,4.26357,0.412659,-0.378723,0.480499,-0.674744,-115.008,22.3667,-98.8083,-10248,-28510
1230,706096,49.1943,-68.4204,26.001,-74.8663,-6.39404,-111.319,-3.14863,-10.891,4.17744,0.415863,-0.378784,0.478333,-0.674286,-115.033,22.9417,-98.2167,-10248,-28510
1236,706102,49.5605,-72.7539,26.7944,-74.6301,-6.30066,-110.94,-3.34004,-10.8001,4.16309,0.419189,-0.378906,0.476135,-0.673737,-115.025,23.2417,-97.9333,-10248,-28510
1242,706108,49.9878,-76.416,26.6724,-74.3939,-6.21826,-110.544,-3.46924,-10.9054,3.9334,0.422607,-0.379089,0.473846,-0.673065,-115.017,23.5667,-97.6167,-10248,-28510
1248,706114,51.6968,-81.1768,26.7944,-74.1522,-6.14136,-110.121,-3.28262,-11.226,3.77549,0.426086,-0.379395,0.471497,-0.672363,-115.008,23.8917,-97.325,-10248,-28510
1254,706120,55.603,-88.4399,27.9541,-73.6523,-6.00403,-109.226,-2.95244,-11.4126,3.70371,0.433411,-0.38028,0.466431,-0.670746,-115,24.1917,-97.0333,-10248,-28510
1260,706126,56.8848,-91.1865,29.7852,-73.3942,-5.93811,-108.754,-2.72754,-11.4652,3.79463,0.437225,-0.380798,0.463684,-0.66983,-115.05,24.8167,-96.4167,-10248,-28510
1266,706132,58.4717,-93.6279,31.6772,-73.136,-5.86121,-108.265,-2.26338,-11.6279,3.73242,0.441162,-0.381348,0.460907,-0.668854,-115.075,25.1333,-96.0917,-10248,-28510
1272,706138,61.0352,-94.8486,34.9731,-72.8613,-5.77881,-107.759,-1.77529,-11.9581,3.62236,0.445221,-0.381897,0.458069,-0.667816,-115.083,25.45,-95.7833,-10248,-28510
1278,706144,64.209,-95.459,38.5742,-72.5757,-5.68542,-107.254,-1.47861,-12.183,3.63672,0.449402,-0.382355,0.45517,-0.666718,-115.108,25.775,-95.4333,-10248,-28510
1284,706150,69.2139,-94.5435,45.9595,-71.9659,-5.44922,-106.221,-1.03359,-12.116,3.48838,0.458221,-0.382935,0.449249,-0.664398,-115.158,26.4333,-94.6833,-10248,-28510
1290,706156,71.2891,-93.6279,49.3164,-71.6473,-5.31189,-105.699,-0.861328,-12.1495,3.42139,0.462799,-0.383057,0.446289,-0.663177,-115.183,26.7417,-94.2833,-10248,-28510
1296,706162,73.4253,-92.4683,52.6733,-71.3232,-5.15808,-105.183,-0.77041,-12.2787,3.33047,0.467438,-0.383026,0.443329,-0.661926,-115.208,27.05,-93.8917,-10248,-28510
1302,706168,75.5005,-91.2476,55.1758,-70.9827,-4.99878,-104.661,-0.813477,-12.3266,3.15342,0.472168,-0.382843,0.440369,-0.660645,-115.258,27.3833,-93.5083,-10248,-28510
1308,706174,77.8198,-90.3931,56.8237,-70.6311,-4.83398,-104.145,-0.818262,-12.4223,3.08164,0.476959,-0.382538,0.437408,-0.659332,-115.308,27.725,-93.125,-10248,-28510
1314,706180,82.2144,-88.9282,60.6689,-69.906,-4.48792,-103.107,-0.904395,-12.6232,2.62227,0.486664,-0.381653,0.431427,-0.656677,-115.4,28.375,-92.4667,-10248,-28510
1320,706186,84.7168,-88.6841,62.5,-69.527,-4.30664,-102.585,-0.913965,-12.3983,2.44521,0.491608,-0.381073,0.428375,-0.655334,-115.442,28.7,-92.125,-10248,-28510
1326,706192,86.2427,-88.501,64.27,-69.137,-4.12537,-102.057,-1.10059,-12.0012,2.40215,0.496582,-0.380402,0.425293,-0.653992,-115.5,29.0417,-91.7917,-10248,-28510
1332,706198,87.1582,-88.562,65.979,-68.7469,-3.9386,-101.525,-1.06709,-11.6327,2.22988,0.501617,-0.379669,0.422211,-0.652588,-115.533,29.35,-91.45,-10248,-28510
1338,706204,86.853,-88.1348,67.1387,-68.3624,-3.75183,-100.997,-1.00967,-11.2547,2.21074,0.506653,-0.378876,0.419098,-0.651154,-115.567,29.675,-91.1083,-10248,-28510
1344,706210,83.4961,-87.7686,68.3594,-67.6099,-3.3728,-99.9261,-1.11016,-10.69,2.34473,0.516724,-0.377228,0.412994,-0.648071,-115.65,30.35,-90.4833,-10248,-28510
1350,706216,81.2378,-86.853,68.0542,-67.2473,-3.19153,-99.3933,-0.856543,-10.9006,2.29688,0.521698,-0.376465,0.410004,-0.646423,-115.675,30.65,-90.2167,-10248,-28510
1356,706222,80.8716,-85.8154,67.749,-66.8903,-3.01575,-98.866,-0.6125,-11.427,2.22031,0.52655,-0.375702,0.407104,-0.644745,-115.717,30.9583,-89.95,-10248,-28510
1362,706228,81.9702,-83.6182,67.5049,-66.5277,-2.83997,-98.3496,-0.277539,-11.8624,2.21074,0.531372,-0.374969,0.404236,-0.643066,-115.742,31.2917,-89.7,-10248,-28510
1368,706234,83.8623,-81.2988,68.1763,-66.1542,-2.65869,-97.8442,0.0813477,-12.1543,2.28252,0.540833,-0.373169,0.398499,-0.639771,-115.767,31.6167,-89.45,-10248,-28510
1374,706240,87.7686,-74.585,69.7632,-65.3796,-2.29065,-96.8665,0.29668,-11.9246,2.33516,0.545502,-0.37207,0.39563,-0.638214,-115.783,32.2,-88.9333,-10248,-28510
1380,706246,89.0503,-71.2891,70.5566,-64.9786,-2.0929,-96.394,0.397168,-11.7188,2.36387,0.550171,-0.37085,0.392822,-0.636688,-115.792,32.4917,-88.6833,-10248,-28510
1386,706252,89.3555,-67.0166,71.2891,-64.5776,-1.88965,-95.9436,0.416309,-11.5849,2.4165,0.554749,-0.369476,0.390045,-0.635193,-115.8,32.7833,-88.425,-10248,-28510
1392,706258,89.2944,-63.2324,71.7163,-64.1766,-1.6864,-95.5042,0.29668,-11.4365,2.39258,0.559296,-0.36795,0.38739,-0.633728,-115.792,33.05,-88.2,-10248,-28510
1398,706264,88.562,-59.6313,72.0825,-63.7811,-1.47217,-95.0812,0.244043,-11.2403,2.33037,0.568054,-0.364655,0.382324,-0.63089,-115.767,33.325,-87.9667,-10248,-28510
1404,706270,87.0361,-51.8188,73.7915,-62.9956,-1.02722,-94.2792,0.177051,-11.6471,2.06719,0.572296,-0.362854,0.379974,-0.629517,-115.683,33.8917,-87.525,-10248,-28510
1410,706276,86.9141,-48.3398,75.1343,-62.6056,-0.785522,-93.8947,0.191406,-11.5609,2.00977,0.576477,-0.360962,0.377747,-0.628143,-115.633,34.15,-87.3333,-10248,-28510
1416,706282,86.4868,-44.9219,77.1484,-62.2211,-0.532837,-93.5156,0.105273,-11.3647,1.98105,0.580627,-0.358978,0.37561,-0.62674,-115.583,34.4083,-87.1,-10248,-28510
1422,706288,85.7544,-42.0532,78.7964,-61.8365,-0.274658,-93.1531,0.00478516,-11.1829,1.84707,0.584717,-0.356873,0.373627,-0.625336,-115.533,34.6833,-86.8333,-10248,-28510
1428,706294,84.9609,-39.3066,80.8105,-61.4575,0,-92.7905,-0.0717773,-11.0298,1.78486,0.592804,-0.352386,0.369965,-0.622437,-115.45,34.9583,-86.5583,-10248,-28510
1434,706300,83.1909,-35.9497,84.3506,-60.7104,0.565796,-92.0709,-0.311035,-10.6805,1.64131,0.596802,-0.350098,0.368256,-0.620911,-115.242,35.4667,-86.2,-10248,-28510
1440,706306,82.3364,-35.1563,85.9375,-60.3424,0.856934,-91.7084,-0.521582,-10.4604,1.50732,0.6008,-0.347717,0.366669,-0.619324,-115.125,35.7167,-86.0833,-10248,-28510
1446,706312,81.4209,-34.729,87.2803,-59.9799,1.15906,-91.3458,-0.502441,-10.3503,1.36855,0.604767,-0.345337,0.365143,-0.617676,-115.017,35.975,-86.0083,-10248,-28510
1452,706318,81.2988,-34.9121,89.4775,-59.6173,1.46118,-90.9778,-0.727344,-10.2354,1.23457,0.608734,-0.342957,0.363678,-0.615997,-114.908,36.1917,-85.95,-10264,-28508
1458,706324,80.8105,-34.9121,91.2476,-59.2603,1.77429,-90.5988,-0.77998,-10.1445,1.13887,0.61673,-0.338104,0.36084,-0.612366,-114.8,36.3917,-85.8917,-10264,-28508
1464,706330,78.5522,-37.6587,93.9941,-58.5516,2.39502,-89.8132,-1.26807,-9.48897,1.28242,0.620789,-0.335693,0.359436,-0.610413,-114.55,36.9,-85.8167,-10264,-28508
1470,706336,76.355,-39.1846,94.1162,-58.2111,2.69714,-89.4067,-1.56475,-9.30234,1.16279,0.624817,-0.333374,0.358063,-0.608398,-114.425,37.1333,-85.8333,-10264,-28508
1476,706342,74.0967,-42.1143,93.9331,-57.8815,2.98828,-88.9838,-1.8375,-9.26406,1.17236,0.628845,-0.331116,0.356689,-0.606262,-114.292,37.3667,-85.8333,-10264,-28508
1482,706348,71.9604,-45.3491,92.3462,-57.5574,3.26294,-88.5553,-2.06719,-9.11094,1.16279,0.632843,-0.329041,0.355286,-0.604065,-114.133,37.625,-85.8,-10264,-28508
1488,706354,69.397,-49.3774,89.9048,-57.2498,3.51563,-88.1104,-2.19639,-8.9626,1.16279,0.640686,-0.325378,0.352325,-0.599487,-113.967,37.8833,-85.75,-10264,-28508
1494,706360,66.04,-57.7393,85.144,-56.6565,3.94958,-87.1875,-2.16289,-9.52246,0.827832,0.644531,-0.323853,0.350708,-0.597137,-113.617,38.325,-85.6083,-10264,-28508
1500,706366,65.5518,-61.7676,83.9844,-56.3599,4.13635,-86.7096,-2.13418,-9.8335,0.741699,0.648346,-0.32251,0.348969,-0.594757,-113.442,38.5417,-85.5417,-10264,-28508
1506,706372,65.7959,-66.3452,83.4351,-56.0687,4.30115,-86.2042,-2.04805,-9.87178,0.645996,0.652161,-0.32132,0.347137,-0.592316,-113.275,38.7333,-85.4667,-10264,-28508
1512,706378,65.3687,-70.8008,84.3506,-55.7721,4.46045,-85.6824,-1.97148,-9.72344,0.45459,0.656006,-0.320221,0.345123,-0.589813,-113.117,38.9167,-85.4,-10264,-28508
1518,706384,64.5142,-74.8901,86.4868,-55.481,4.61426,-85.1385,-1.9332,-9.52725,0.358887,0.66391,-0.318359,0.340881,-0.584412,-112.967,39.1167,-85.3583,-10264,-28508
1524,706390,61.3403,-82.9468,88.562,-54.9152,4.89441,-83.985,-1.99063,-9.32148,0.229688,0.667938,-0.317627,0.338684,-0.581482,-112.658,39.5833,-85.325,-10264,-28508
1530,706396,59.021,-86.731,89.3555,-54.646,5.02075,-83.3807,-1.871,-9.20664,0.110059,0.672028,-0.316986,0.336395,-0.578461,-112.517,39.8,-85.3083,-10264,-28508
1536,706402,57.1899,-90.271,89.4775,-54.3878,5.13062,-82.76,-1.73223,-9.21621,0.0382813,0.676117,-0.316528,0.334076,-0.575287,-112.392,40.0083,-85.3,-10264,-28508
1542,706408,55.4199,-93.3228,90.1489,-54.1351,5.23499,-82.1283,-1.57432,-9.34541,0.0382813,0.680206,-0.316223,0.331696,-0.572021,-112.267,40.2083,-85.1917,-10264,-28508
1548,706414,54.0161,-95.5811,90.332,-53.8934,5.32837,-81.4801,-1.40205,-9.33584,0.0191406,0.688385,-0.315887,0.326843,-0.565155,-112.142,40.4083,-85.0583,-10264,-28508
1554,706420,52.3682,-99.4263,93.811,-53.41,5.50964,-80.1508,-1.3542,-9.08223,0.0861328,0.692505,-0.315826,0.324341,-0.561584,-111.858,40.7583,-84.75,-10264,-28508
1560,706426,50.6592,-100.769,96.4966,-53.1793,5.60852,-79.4696,-1.30635,-8.87646,0.229688,0.696625,-0.315796,0.321869,-0.557922,-111.725,40.9833,-84.6083,-10264,-28508
1566,706432,48.645,-101.99,99.1211,-52.9596,5.7074,-78.772,-1.28721,-8.6707,0.311035,0.700806,-0.315826,0.319427,-0.554077,-111.608,41.1917,-84.475,-10264,-28508
1572,706438,46.6309,-103.516,101.746,-52.7454,5.80627,-78.0634,-1.25371,-8.48887,0.435449,0.704987,-0.315887,0.317017,-0.550079,-111.5,41.3833,-84.375,-10248,-28510
1578,706444,43.9453,-104.431,103.394,-52.5421,5.91064,-77.3383,-0.985742,-8.31182,0.641211,0.713379,-0.316193,0.312317,-0.541718,-111.408,41.575,-84.2333,-10248,-28510
1584,706450,39.5508,-106.384,104.431,-52.1686,6.1084,-75.8826,-0.890039,-8.46016,0.645996,0.717529,-0.316467,0.309998,-0.537384,-111.217,41.9917,-83.8667,-10248,-28510
1590,706456,37.6587,-105.957,103.821,-51.9983,6.19629,-75.1575,-0.555078,-8.44102,0.77041,0.721649,-0.316833,0.307709,-0.532959,-111.133,42.15,-83.6583,-10248,-28510
1596,706462,36.1938,-105.774,103.088,-51.8335,6.28418,-74.4324,-0.564648,-8.3166,0.775195,0.725677,-0.31723,0.30545,-0.528534,-111.042,42.3333,-83.45,-10248,-28510
1602,706468,34.0576,-106.079,101.685,-51.6742,6.36108,-73.7128,-0.244043,-8.15869,0.784766,0.729614,-0.317657,0.303223,-0.524078,-110.958,42.525,-83.2667,-10248,-28510
1608,706474,30.9448,-105.591,99.7314,-51.5369,6.4325,-73.0042,-0.105273,-7.97686,0.712988,0.737213,-0.318817,0.298798,-0.515228,-110.858,42.7417,-83.0667,-10248,-28510
1614,706480,24.4751,-104.553,96.1914,-51.3062,6.54785,-71.6034,-0.186621,-7.64668,0.77041,0.740845,-0.31955,0.296661,-0.510773,-110.725,43.1917,-82.75,-10248,-28510
1620,706486,20.1416,-105.103,93.811,-51.2238,6.5863,-70.9113,-0.248828,-7.53662,0.6125,0.744324,-0.320404,0.294586,-0.506378,-110.65,43.4333,-82.5583,-10248,-28510
1626,706492,16.6626,-105.835,91.98,-51.1578,6.61926,-70.2246,-0.29668,-7.64668,0.354102,0.747681,-0.321442,0.292542,-0.501953,-110.6,43.6583,-82.375,-10248,-28510
1632,706498,13.9771,-106.689,90.7593,-51.1029,6.63574,-69.538,-0.177051,-7.84287,0.200977,0.750916,-0.322601,0.290497,-0.497528,-110.542,43.8583,-82.1667,-10248,-28510
1638,706504,9.15527,-108.887,91.6138,-51.0645,6.65771,-68.8513,-0.114844,-7.8668,0.0430664,0.757141,-0.325287,0.286499,-0.488586,-110.5,44.05,-81.975,-10248,-28510
1644,706510,6.89697,-110.168,93.2007,-51.0205,6.69067,-67.4506,-0.129199,-7.90508,-0.0334961,0.760193,-0.326782,0.284485,-0.484009,-110.367,44.475,-81.525,-10248,-28510
1650,706516,5.7373,-111.877,95.2759,-51.0095,6.70715,-66.731,-0.0430664,-8.01514,-0.172266,0.763245,-0.328339,0.282501,-0.479309,-110.308,44.6667,-81.275,-10248,-28510
1656,706522,5.06592,-113.22,97.4121,-50.9985,6.72913,-66.0004,0.0334961,-8.11563,-0.162695,0.766296,-0.329926,0.280518,-0.474457,-110.267,44.8583,-80.9833,-10248,-28510
1662,706528,4.82178,-114.685,100.464,-50.9875,6.75659,-65.2533,0.133984,-8.12998,-0.277539,0.769379,-0.331543,0.278503,-0.469513,-110.217,45.075,-80.725,-10248,-28510
1668,706534,4.08936,-117.126,107.422,-50.9766,6.79504,-64.5007,0.363672,-8.35488,-0.349316,0.775635,-0.334747,0.274506,-0.459229,-110.158,45.2917,-80.45,-10248,-28510
1674,706540,4.3335,-117.737,112.854,-50.9546,6.90491,-62.9297,0.574219,-8.69463,-0.44502,0.778809,-0.336334,0.272491,-0.453827,-110.017,45.7083,-79.7583,-10248,-28510
1680,706546,5.31006,-118.713,118.835,-50.9381,6.9873,-62.1112,0.870898,-8.9626,-0.483301,0.782074,-0.33786,0.270538,-0.448242,-109.925,45.9583,-79.4083,-10248,-28510
1686,706552,6.16455,-118.774,125.61,-50.9106,7.09717,-61.2762,1.15322,-9.14922,-0.497656,0.785431,-0.339264,0.268585,-0.442413,-109.842,46.2,-79.0583,-10239,-28511
1692,706558,7.44629,-118.286,132.263,-50.8722,7.229,-60.4248,1.24414,-9.21143,-0.564648,0.788879,-0.340576,0.266693,-0.436371,-109.767,46.425,-78.7417,-10239,-28511
1698,706564,5.37109,-116.577,140.503,-50.8282,7.38281,-59.5569,0.794336,-7.53184,-0.090918,0.79599,-0.342834,0.263184,-0.423645,-109.708,46.65,-78.4583,-10239,-28511
1704,706570,-1.64795,-117.31,139.343,-50.8008,7.70691,-57.8101,0.421094,-6.27813,0.090918,0.79953,-0.343933,0.261566,-0.417053,-109.525,47.2,-77.9,-10239,-28511
1710,706576,-10.376,-117.676,135.986,-50.8447,7.84973,-56.9531,0.516797,-5.6417,-0.062207,0.802887,-0.345276,0.26001,-0.4104,-109.425,47.4667,-77.6,-10239,-28511
1716,706582,-19.7144,-117.493,130.005,-50.9326,7.97058,-56.1127,0.674707,-5.03398,-0.119629,0.806,-0.346954,0.258545,-0.403748,-109.292,47.7417,-77.2917,-10239,-28511
1722,706588,-31.1279,-116.882,122.009,-51.0864,8.06396,-55.2997,0.913965,-4.14873,0.0861328,0.808807,-0.34903,0.257111,-0.397217,-109.142,48.05,-76.9667,-10239,-28511
1728,706594,-59.021,-114.868,99.1821,-51.6028,8.12988,-53.7946,1.94277,-3.31611,-0.177051,0.813263,-0.354614,0.254547,-0.384613,-108.983,48.3417,-76.625,-10239,-28511
1734,706600,-83.5571,-128.967,85.022,-52.0313,8.06396,-53.053,-10.958,17.5711,-7.40264,0.814789,-0.358307,0.253357,-0.378723,-108.642,48.9333,-75.9167,-10239,-28511
1740,706606,-184.57,-177.307,44.0674,-52.9541,7.7124,-52.2345,-9.221,8.8334,-0.062207,0.815796,-0.36322,0.251953,-0.372742,-108.45,49.25,-75.525,-10239,-28511
1746,706612,-211.487,-203.125,20.6299,-54.0143,7.19604,-51.3776,3.30176,-9.58945,-6.94326,0.815063,-0.372864,0.249878,-0.366211,-108.258,49.5833,-75.1,-10239,-28511
1752,706618,-173.584,-195.923,15.9912,-54.9097,6.69067,-50.5646,9.32627,-20.0498,-11.3695,0.813599,-0.384155,0.246887,-0.359741,-108.108,49.9,-74.6167,-10239,-28511
1758,706624,-101.257,-189.026,14.7705,-56.1237,5.72388,-49.0045,5.13447,-9.81436,-2.46914,0.81189,-0.402039,0.23941,-0.348969,-107.983,50.2083,-74.1167,-10239,-28511
1764,706630,-110.046,-188.232,24.9023,-56.7279,5.28992,-48.186,3.35439,-6.66094,0.631641,0.811646,-0.409271,0.234955,-0.344116,-107.808,50.875,-72.9333,-10239,-28511
1770,706636,-125.488,-194.702,35.8887,-57.3981,4.88892,-47.3016,0.756055,-6.70879,1.69395,0.81134,-0.416626,0.230774,-0.338776,-107.8,51.1667,-72.275,-10239,-28511
1776,706642,-136.658,-200.623,43.1519,-58.1232,4.52087,-46.3733,-0.564648,-7.55576,2.78975,0.810913,-0.424438,0.226776,-0.332764,-107.8,51.4583,-71.6167,-10239,-28511
1782,706648,-140.869,-204.285,45.8984,-58.8647,4.16931,-45.412,-0.311035,-8.57022,3.92383,0.810364,-0.432587,0.222809,-0.326233,-107.817,51.7833,-70.9333,-10239,-28511
1788,706654,-137.207,-202.026,40.5884,-60.3149,3.47717,-43.5059,1.13408,-9.78564,6.54131,0.809052,-0.448822,0.214691,-0.312653,-107.842,52.0917,-70.2667,-10239,-28511
1794,706660,-132.813,-198.181,33.2031,-61.0071,3.12012,-42.5885,1.84229,-9.55117,7.20166,0.808289,-0.456665,0.21051,-0.306091,-107.892,52.65,-68.775,-10239,-28511
1800,706666,-129.7,-193.42,24.1089,-61.6827,2.74658,-41.7151,2.19639,-8.87646,7.33086,0.807434,-0.464233,0.206177,-0.299896,-107.917,52.925,-67.95,-10239,-28511
1806,706672,-129.883,-187.378,15.8081,-62.3584,2.35657,-40.8801,2.33037,-7.8668,7.0916,0.806396,-0.471588,0.201721,-0.294098,-107.95,53.2,-67.0833,-10281,-28506
1812,706678,-134.521,-183.96,8.66699,-63.056,1.95557,-40.0726,2.15332,-7.40742,6.16328,0.805176,-0.478851,0.197266,-0.288727,-108,53.4417,-66.1833,-10281,-28506
1818,706684,-142.7,-182.983,3.84521,-64.5172,1.14258,-38.4686,3.0625,-8.83818,3.51709,0.801971,-0.493622,0.188293,-0.278564,-108.075,53.7167,-65.3083,-10281,-28506
1824,706690,-142.029,-182.922,3.11279,-65.2533,0.741577,-37.6611,3.98125,-9.58467,2.7084,0.80011,-0.501129,0.183777,-0.273529,-108.175,54.2333,-63.6,-10281,-28506
1830,706696,-139.954,-179.565,3.17383,-65.9839,0.357056,-36.8646,4.87129,-10.0201,2.66533,0.798187,-0.508514,0.179199,-0.268494,-108.233,54.45,-62.7167,-10281,-28506
1836,706702,-136.597,-176.697,3.17383,-66.7035,-0.00549316,-36.0791,5.50293,-10.0058,2.95244,0.796173,-0.515747,0.174683,-0.26355,-108.292,54.65,-61.7917,-10281,-28506
1842,706708,-135.376,-170.715,2.44141,-67.4176,-0.362549,-35.3156,6.27813,-9.19229,3.46445,0.794189,-0.522766,0.170166,-0.258698,-108.333,54.85,-60.8583,-10281,-28506
1848,706714,-135.62,-154.785,-5.5542,-68.8403,-1.06567,-33.9038,7.54141,-9.82871,5.20625,0.789856,-0.536316,0.16156,-0.249573,-108.342,55.025,-59.9167,-10281,-28506
1854,706720,-133.667,-145.203,-11.6577,-69.5435,-1.42273,-33.2721,8.19219,-10.2546,5.75176,0.787445,-0.542908,0.157471,-0.245514,-108.383,55.2917,-58.1083,-10281,-28506
1860,706726,-129.333,-135.62,-20.2026,-70.2191,-1.80176,-32.6953,9.8,-10.8719,6.29248,0.784912,-0.549316,0.153473,-0.241913,-108.392,55.4167,-57.2083,-10281,-28506
1866,706732,-123.23,-118.347,-30.3955,-70.8618,-2.19727,-32.2119,11.6854,-11.427,7.20645,0.782288,-0.55545,0.149506,-0.238892,-108.383,55.5333,-56.3167,-10281,-28506
1872,706738,-113.892,-101.196,-39.978,-71.4551,-2.60925,-31.8164,12.9773,-11.3982,7.66582,0.779541,-0.561188,0.145752,-0.236664,-108.383,55.6,-55.4417,-10281,-28506
1878,706744,-103.027,-60.0586,-55.0537,-72.5262,-3.4552,-31.355,13.5324,-10.2737,9.53682,0.773987,-0.57132,0.139069,-0.234741,-108.392,55.7333,-53.7083,-10281,-28506
1884,706750,-105.347,-40.8325,-57.9834,-73.0426,-3.86719,-31.2616,14.0588,-10.6996,11.9725,0.771088,-0.575806,0.136322,-0.234955,-108.392,55.7833,-52.8667,-10281,-28506
1890,706756,-116.089,-30.3955,-45.166,-73.6084,-4.20776,-31.1957,20.3656,-15.614,19.0976,0.767975,-0.580109,0.134125,-0.235748,-108.408,55.7833,-52.025,-10281,-28506
1896,706762,-143.127,-13.3057,29.7241,-74.2896,-4.16931,-31.0968,32.8836,-13.4415,28.3808,0.764709,-0.584503,0.132629,-0.236328,-108.458,55.7583,-51.175,-10281,-28506
1902,706768,-199.768,42.3584,55.0537,-75.2289,-3.94409,-31.2341,5.66084,10.7522,5.88096,0.761475,-0.589111,0.133789,-0.234711,-108.517,55.7417,-50.3667,-10281,-28506
1908,706774,-282.837,-21.4844,83.4351,-77.9041,-3.33984,-31.0144,1.26328,-14.9536,5.6082,0.750458,-0.602905,0.142517,-0.230011,-108.55,55.7167,-48.8083,-10281,-28506
1914,706780,-287.231,-1.09863,70.9839,-79.2883,-3.07617,-30.943,-2.40215,-17.7912,-4.98135,0.74411,-0.611542,0.146149,-0.225494,-108.525,55.7333,-48.0417,-10281,-28506
1920,706786,-253.845,-14.0381,63.9038,-80.5133,-2.84546,-30.8276,-2.72754,-26.572,-7.82852,0.737244,-0.620148,0.150208,-0.221832,-108.467,55.8,-47.275,-10305,-28503
1926,706792,-197.388,-17.395,51.6968,-81.4801,-2.66968,-30.7123,-3.20605,-29.0507,-14.2023,0.73114,-0.627808,0.153412,-0.218231,-108.367,55.8583,-46.4667,-10305,-28503
1932,706798,-128.479,-5.18799,31.0669,-82.1063,-2.57629,-30.6848,-3.05293,-30.4527,-14.0731,0.726349,-0.633789,0.155762,-0.215271,-108.258,55.8917,-45.6167,-10314,-28502
1938,706804,-50.9033,12.3291,18.6768,-82.6886,-2.43896,-30.7452,-2.78496,-17.1404,-6.0915,0.721375,-0.639648,0.158447,-0.212769,-108.042,55.975,-43.9833,-10314,-28502
1944,706810,-29.2969,3.05176,15.625,-82.8369,-2.40601,-30.7727,-1.36855,-15.523,-3.46924,0.71994,-0.641022,0.159637,-0.212555,-107.917,56.025,-43.225,-10314,-28502
1950,706816,-20.0806,2.0752,15.3198,-82.9358,-2.36755,-30.7892,0.741699,-12.3074,-0.732129,0.719147,-0.641846,0.160278,-0.212311,-107.808,56.0667,-42.5333,-10314,-28502
1956,706822,-18.7988,9.52148,14.4043,-83.0292,-2.3291,-30.8496,0.253613,-10.446,1.11494,0.718597,-0.642395,0.160828,-0.212097,-107.733,56.1417,-41.9417,-10314,-28502
1962,706828,-19.4092,7.87354,11.6577,-83.1281,-2.30164,-30.899,-1.11973,-10.7235,-0.478516,0.718018,-0.642853,0.16156,-0.212097,-107.633,56.225,-41.4167,-10314,-28502
1968,706834,-4.63867,4.27246,5.85938,-83.2104,-2.29614,-30.965,0.13877,-10.4699,0.229688,0.717041,-0.643646,0.162506,-0.212158,-107.408,56.325,-40.55,-10314,-28502
1974,706840,-2.19727,5.06592,4.27246,-83.2269,-2.30164,-31.0034,-0.215332,-9.68037,1.25371,0.716827,-0.643768,0.16275,-0.212372,-107.3,56.3417,-40.1583,-10314,-28502
1980,706846,-2.80762,4.82178,2.44141,-83.2434,-2.31812,-31.0474,-0.200977,-9.79043,1.18193,0.716675,-0.643799,0.162964,-0.212677,-107.192,56.3667,-39.775,-10314,-28502
1986,706852,-1.2207,1.70898,0.183105,-83.2489,-2.34558,-31.0748,-0.105273,-9.45068,1.50254,0.716461,-0.64386,0.163147,-0.212982,-107.058,56.4167,-39.4,-10314,-28502
1992,706858,-2.19727,1.40381,0,-83.2654,-2.37305,-31.1023,1.03359,-9.08223,2.3543,0.716339,-0.643921,0.163147,-0.213287,-106.967,56.4333,-39.0583,-10314,-28502
1998,706864,-10.0098,-1.34277,-0.793457,-83.3423,-2.42798,-31.1462,0.727344,-8.68506,2.75146,0.715912,-0.644165,0.163208,-0.213867,-106.8,56.475,-38.4417,-10314,-28502
2004,706870,-13.7939,-2.99072,0.976563,-83.4082,-2.44995,-31.1462,1.20586,-9.73301,2.42129,0.715576,-0.644531,0.163177,-0.21405,-106.733,56.4833,-38.1583,-10314,-28502
2010,706876,-13.916,-0.854492,0.427246,-83.4741,-2.47192,-31.1627,0.669922,-9.83828,1.31113,0.715149,-0.644958,0.163177,-0.214111,-106.7,56.475,-37.8917,-10314,-28502
2016,706882,-13.7939,-2.99072,1.34277,-83.54,-2.4884,-31.1682,1.13408,-10.2546,1.45947,0.714691,-0.645416,0.163269,-0.214233,-106.658,56.475,-37.6583,-10314,-28502
2022,706888,-14.1602,-2.2583,2.68555,-83.6115,-2.49939,-31.1737,0.961816,-10.3264,1.41162,0.713867,-0.646271,0.163361,-0.214264,-106.633,56.5083,-37.4667,-10314,-28502
2028,706894,-12.0239,-2.19727,4.08936,-83.7323,-2.51038,-31.1847,0.684277,-10.2929,1.07187,0.71347,-0.646698,0.163483,-0.214233,-106.55,56.5417,-37.0417,-10314,-28502
2034,706900,-11.2915,-2.38037,4.02832,-83.7872,-2.51038,-31.1902,0.545508,-10.0871,0.995313,0.713135,-0.647034,0.163605,-0.214203,-106.5,56.5417,-36.85,-10305,-28503
2040,706906,-10.6201,-2.92969,3.66211,-83.8367,-2.51587,-31.1902,0.449805,-10.0345,1.11973,0.71283,-0.647369,0.163727,-0.214172,-106.45,56.5583,-36.675,-10305,-28503
2046,706912,-10.0098,-3.41797,3.479,-83.8861,-2.51587,-31.1902,0.435449,-9.95791,1.37813,0.712524,-0.647705,0.163818,-0.214111,-106.392,56.5833,-36.5083,-10305,-28503
2052,706918,-10.376,-4.45557,2.86865,-83.9355,-2.52136,-31.1847,0.6125,-9.85742,1.39727,0.711975,-0.648315,0.16391,-0.213989,-106.325,56.5917,-36.375,-10305,-28503
2058,706924,-9.64355,-4.45557,3.11279,-84.0289,-2.53235,-31.1792,0.435449,-10.3981,0.736914,0.71167,-0.648651,0.163971,-0.213928,-106.233,56.625,-36.1167,-10305,-28503
2064,706930,-6.7749,-4.3335,2.56348,-84.0619,-2.53784,-31.1737,0.497656,-10.5513,0.502441,0.711426,-0.648956,0.164001,-0.213867,-106.183,56.65,-36.025,-10305,-28503
2070,706936,-3.60107,-4.21143,2.56348,-84.0784,-2.54333,-31.1682,0.607715,-10.6374,0.583789,0.711243,-0.64917,0.164001,-0.213806,-106.15,56.6583,-35.95,-10305,-28503
2076,706942,-0.671387,-3.54004,1.70898,-84.0839,-2.54883,-31.1682,0.545508,-10.2881,0.827832,0.711151,-0.649292,0.163971,-0.213776,-106.133,56.6583,-35.8833,-10305,-28503
2082,706948,0.244141,-3.66211,1.89209,-84.0784,-2.55432,-31.1682,0.76084,-9.61338,1.63652,0.711121,-0.649292,0.163879,-0.213867,-106.125,56.675,-35.8417,-10305,-28503
2088,706954,-3.84521,-3.60107,3.479,-84.1058,-2.55981,-31.1627,0.890039,-9.60381,1.74658,0.71109,-0.649353,0.163849,-0.213867,-106.117,56.7083,-35.6583,-10305,-28503
2094,706960,-4.15039,-3.60107,3.54004,-84.1223,-2.55432,-31.1627,0.746484,-9.91006,1.33984,0.710999,-0.649475,0.163879,-0.213806,-106.117,56.725,-35.5583,-10305,-28503
2100,706966,-3.54004,-3.17383,3.479,-84.1388,-2.55432,-31.1627,0.693848,-9.91006,1.22979,0.710907,-0.649567,0.16394,-0.213776,-106.1,56.75,-35.4333,-10305,-28503
2106,706972,-3.17383,-3.05176,3.35693,-84.1498,-2.54883,-31.1627,0.746484,-9.87178,1.30635,0.710815,-0.649658,0.163971,-0.213745,-106.067,56.7667,-35.3417,-10305,-28503
2112,706978,-2.86865,-2.19727,3.78418,-84.1608,-2.54333,-31.1682,0.641211,-9.77607,1.37813,0.710693,-0.64978,0.164124,-0.213684,-106.05,56.7583,-35.325,-10305,-28503
2118,706984,-2.86865,-3.11279,2.68555,-84.1827,-2.54333,-31.1737,0.535937,-9.56074,1.46426,0.710602,-0.649841,0.164154,-0.213715,-105.992,56.7667,-35.3333,-10305,-28503
2124,706990,-3.11279,-2.74658,1.83105,-84.1937,-2.54883,-31.1792,0.47373,-9.50332,1.44033,0.710541,-0.649902,0.164185,-0.213684,-105.958,56.7667,-35.325,-10305,-28503
2130,706996,-2.74658,-2.74658,1.83105,-84.2047,-2.54883,-31.1792,0.497656,-9.58467,1.45469,0.71048,-0.649994,0.164215,-0.213715,-105.925,56.7333,-35.3083,-10305,-28503
2136,707002,-2.86865,-2.13623,0.549316,-84.2157,-2.55981,-31.1902,0.512012,-9.69951,1.36855,0.710419,-0.650055,0.164246,-0.213745,-105.908,56.7,-35.2917,-10305,-28503
2142,707008,-2.44141,-1.77002,-0.427246,-84.2212,-2.5708,-31.1957,0.401953,-10.0105,1.01445,0.710236,-0.650146,0.164215,-0.213928,-105.875,56.6917,-35.2333,-10305,-28503
2148,707014,0.305176,-2.01416,-2.0752,-84.2157,-2.60376,-31.2122,0.44502,-9.74736,1.2585,0.710205,-0.650177,0.164185,-0.21405,-105.825,56.675,-35.1333,-10305,-28503
2154,707020,0.12207,-2.31934,-2.44141,-84.2102,-2.62573,-31.2177,0.588574,-9.68516,1.52646,0.710205,-0.650146,0.164093,-0.214233,-105.817,56.6583,-35.0667,-10305,-28503
2160,707026,-0.915527,-2.50244,-2.68555,-84.2102,-2.64771,-31.2286,0.679492,-9.50811,1.59346,0.710175,-0.650146,0.164001,-0.214386,-105.792,56.6833,-35.0083,-10305,-28503
2166,707032,-2.01416,-2.50244,-2.0752,-84.2157,-2.66968,-31.2341,0.803906,-9.49375,1.72266,0.710114,-0.650177,0.163879,-0.214569,-105.767,56.7083,-34.9833,-10305,-28503
