TimeSinceCollection,Timestamp,AccX,AccY,AccZ,AngleRoll,AnglePitch,AngleYaw,AngularVelX,AngularVelY,AngularVelZ,Q1,Q2,Q3,Q4,MagX,MagY,MagZ,Height,Airpressure
0,813333,1.29678,-9.65166,1.3542,-82.1558,-7.60254,-63.089,0.244141,0.0610352,0.183105,-0.618164,0.584869,-0.300415,0.430603,-14657,10431,-5511,1091,-29878
6,813339,1.29678,-9.66123,1.3877,-82.1558,-7.60254,-63.089,0,-0.244141,0,-0.618164,0.584869,-0.300415,0.430603,-14657,10429,-5507,1091,-29878
12,813345,1.3542,-9.67559,1.3542,-82.1558,-7.60254,-63.089,0,-0.183105,0.12207,-0.618164,0.584869,-0.300415,0.430603,-14656,10425,-5503,1091,-29878
18,813351,1.36855,-9.69473,1.28242,-82.1558,-7.60254,-63.089,0,0,0,-0.618164,0.584869,-0.300415,0.430603,-14655,10418,-5495,1091,-29878
24,813357,1.3207,-9.66602,1.33027,-82.1558,-7.59705,-63.089,0.183105,0,0.488281,-0.618164,0.584869,-0.300415,0.430603,-14656,10414,-5489,1091,-29878
30,813363,1.34941,-9.63731,1.3542,-82.1558,-7.59705,-63.089,0.366211,-0.12207,0.366211,-0.618195,0.584869,-0.300415,0.430603,-14661,10412,-5491,1091,-29878
36,813369,1.33984,-9.65645,1.34941,-82.1558,-7.59705,-63.089,0,0.183105,0.427246,-0.618195,0.584839,-0.300415,0.430603,-14665,10410,-5493,1091,-29878
42,813375,1.31592,-9.68516,1.33984,-82.1558,-7.59705,-63.089,-0.12207,0.0610352,0.244141,-0.618195,0.584839,-0.300446,0.430603,-14668,10408,-5494,1091,-29878
48,813381,1.33027,-9.65166,1.3542,-82.1558,-7.59705,-63.089,0,-0.12207,0,-0.618195,0.584839,-0.300446,0.430603,-14669,10406,-5497,1091,-29878
54,813387,1.34941,-9.65166,1.33506,-82.1558,-7.59705,-63.089,-0.0610352,0.0610352,0.183105,-0.618195,0.584839,-0.300446,0.430603,-14669,10405,-5495,1091,-29878
60,813393,1.30156,-9.68516,1.32549,-82.1558,-7.59705,-63.089,-0.183105,0.183105,0.0610352,-0.618195,0.584839,-0.300446,0.430603,-14667,10407,-5500,1091,-29878
66,813399,1.31113,-9.68037,1.33984,-82.1558,-7.59705,-63.0945,0,0.12207,0,-0.618164,0.584839,-0.300446,0.430603,-14664,10406,-5510,1091,-29878
72,813405,1.30635,-9.64209,1.29678,-82.1558,-7.59705,-63.0945,-0.0610352,0.183105,-0.0610352,-0.618164,0.584839,-0.300446,0.430603,-14664,10405,-5515,1091,-29878
78,813411,1.28242,-9.67559,1.33506,-82.1558,-7.59705,-63.0945,0,0.244141,0.12207,-0.618164,0.584839,-0.300446,0.430634,-14664,10404,-5516,1091,-29878
84,813417,1.29678,-9.65645,1.32549,-82.1558,-7.59705,-63.0945,0,0.183105,0.12207,-0.618164,0.584839,-0.300476,0.430634,-14666,10405,-5510,1091,-29878
90,813423,1.31592,-9.66602,1.3542,-82.1558,-7.59705,-63.1,0,0.183105,-0.12207,-0.618164,0.584839,-0.300476,0.430634,-14666,10405,-5499,1091,-29878
96,813429,1.33027,-9.67559,1.3207,-82.1503,-7.59705,-63.1,0.0610352,0.183105,0,-0.618164,0.584808,-0.300476,0.430664,-14667,10402,-5494,1091,-29878
102,813435,1.31592,-9.6708,1.29678,-82.1503,-7.59705,-63.1,0,0,-0.183105,-0.618134,0.584839,-0.300476,0.430664,-14666,10401,-5489,1091,-29878
108,813441,1.36855,-9.68994,1.30156,-82.1503,-7.59705,-63.1,0.305176,0.0610352,0,-0.618134,0.584808,-0.300476,0.430664,-14670,10401,-5492,1091,-29878
114,813447,1.34941,-9.69951,1.33984,-82.1503,-7.60254,-63.1,0.244141,0.12207,-0.183105,-0.618134,0.584808,-0.300446,0.430695,-14673,10402,-5493,1091,-29878
120,813453,1.33506,-9.69473,1.33984,-82.1503,-7.60254,-63.1055,0.12207,0.244141,0,-0.618134,0.584808,-0.300446,0.430695,-14675,10403,-5495,1091,-29878
126,813459,1.33506,-9.67559,1.34463,-82.1448,-7.60254,-63.1055,0.244141,0.427246,-0.0610352,-0.618134,0.584778,-0.300476,0.430725,-14678,10404,-5497,1091,-29878
132,813465,1.3207,-9.68994,1.37334,-82.1448,-7.60254,-63.1055,0.366211,0.244141,0.183105,-0.618134,0.584778,-0.300476,0.430725,-14680,10406,-5498,1091,-29878
138,813471,1.31592,-9.63731,1.39727,-82.1448,-7.60254,-63.111,0.12207,0.0610352,0.183105,-0.618164,0.584747,-0.300476,0.430756,-14681,10412,-5499,1091,-29878
144,813477,1.33984,-9.67559,1.37334,-82.1448,-7.60254,-63.111,0,0.12207,0.0610352,-0.618164,0.584747,-0.300476,0.430756,-14679,10415,-5501,1091,-29878
150,813483,1.37334,-9.68516,1.33984,-82.1448,-7.60254,-63.111,0,0,0.12207,-0.618164,0.584747,-0.300476,0.430756,-14677,10418,-5502,1091,-29878
156,813489,1.34463,-9.69473,1.33984,-82.1448,-7.60254,-63.111,0,0.12207,0,-0.618134,0.584747,-0.300476,0.430756,-14676,10418,-5499,1091,-29878
162,813495,1.33506,-9.69951,1.32549,-82.1448,-7.59705,-63.111,-0.12207,0.0610352,0.427246,-0.618134,0.584747,-0.300476,0.430756,-14674,10417,-5493,1091,-29878
168,813501,1.34941,-9.67559,1.3542,-82.1448,-7.60254,-63.111,-0.0610352,0.0610352,0,-0.618134,0.584747,-0.300476,0.430756,-14670,10413,-5496,1091,-29878
174,813507,1.37334,-9.68037,1.31113,-82.1448,-7.60254,-63.1165,0.0610352,0.12207,0,-0.618134,0.584747,-0.300476,0.430786,-14667,10412,-5501,1091,-29878
180,813513,1.34941,-9.68037,1.3207,-82.1448,-7.60254,-63.1165,0,0.12207,0.305176,-0.618134,0.584747,-0.300507,0.430786,-14663,10411,-5508,1091,-29878
186,813519,1.36377,-9.71387,1.28242,-82.1448,-7.59705,-63.1165,0,0.0610352,0.244141,-0.618134,0.584747,-0.300507,0.430786,-14660,10409,-5508,1091,-29878
192,813525,1.28242,-9.64688,1.39248,-82.1393,-7.60254,-63.1165,0.244141,0.183105,-0.0610352,-0.618134,0.584717,-0.300507,0.430786,-14658,10405,-5503,1091,-29878
198,813531,1.29678,-9.63731,1.33984,-82.1393,-7.60254,-63.1165,-0.12207,0.183105,0,-0.618134,0.584717,-0.300507,0.430817,-14657,10396,-5484,1099,-29879
204,813537,1.29678,-9.66602,1.33027,-82.1393,-7.60254,-63.1219,0,0.183105,-0.0610352,-0.618134,0.584717,-0.300507,0.430817,-14658,10392,-5477,1099,-29879
210,813543,1.33984,-9.69951,1.3207,-82.1393,-7.60254,-63.1219,0.0610352,0.183105,-0.244141,-0.618103,0.584717,-0.300507,0.430847,-14659,10391,-5475,1099,-29879
216,813549,1.35898,-9.66602,1.33027,-82.1393,-7.60254,-63.1219,0,0.183105,0,-0.618103,0.584717,-0.300507,0.430847,-14662,10390,-5476,1099,-29879
222,813555,1.3207,-9.68037,1.33027,-82.1393,-7.60254,-63.1219,-0.0610352,0.183105,-0.183105,-0.618103,0.584717,-0.300507,0.430847,-14665,10391,-5477,1099,-29879
228,813561,1.33506,-9.68516,1.30156,-82.1393,-7.60803,-63.1274,0,0.183105,0,-0.618103,0.584717,-0.300507,0.430878,-14669,10392,-5481,1099,-29879
234,813567,1.34941,-9.6708,1.3542,-82.1393,-7.60803,-63.1274,0.12207,0.12207,0,-0.618103,0.584717,-0.300507,0.430878,-14671,10391,-5484,1099,-29879
240,813573,1.36377,-9.68516,1.31113,-82.1393,-7.60254,-63.1274,0.244141,0.12207,0.305176,-0.618103,0.584686,-0.300507,0.430878,-14675,10392,-5487,1099,-29879
246,813579,1.36377,-9.68516,1.33506,-82.1393,-7.60803,-63.1274,0.12207,0.183105,-0.244141,-0.618103,0.584686,-0.300507,0.430908,-14681,10394,-5489,1099,-29879
252,813585,1.30635,-9.6708,1.34463,-82.1393,-7.60803,-63.1274,0,0,0.305176,-0.618103,0.584686,-0.300507,0.430908,-14685,10395,-5491,1099,-29879
258,813591,1.32549,-9.68516,1.35898,-82.1338,-7.60254,-63.1329,0,0.183105,0.0610352,-0.618103,0.584686,-0.300537,0.430908,-14687,10399,-5489,1099,-29879
264,813597,1.34463,-9.65166,1.33984,-82.1338,-7.60254,-63.1329,0,0,0.0610352,-0.618103,0.584686,-0.300537,0.430908,-14685,10397,-5485,1099,-29879
270,813603,1.3542,-9.68516,1.3542,-82.1338,-7.60254,-63.1329,0.0610352,0,0.183105,-0.618103,0.584686,-0.300537,0.430908,-14683,10396,-5480,1099,-29879
276,813609,1.3542,-9.64209,1.33027,-82.1338,-7.60254,-63.1329,0,0.183105,0.183105,-0.618103,0.584656,-0.300537,0.430908,-14683,10396,-5475,1099,-29879
282,813615,1.26807,-9.68037,1.36855,-82.1338,-7.60254,-63.1329,0.12207,0.244141,0,-0.618073,0.584656,-0.300537,0.430939,-14684,10396,-5468,1099,-29879
288,813621,1.3207,-9.64688,1.33027,-82.1338,-7.60254,-63.1384,0.305176,0.0610352,-0.0610352,-0.618073,0.584625,-0.300537,0.430939,-14683,10397,-5457,1099,-29879
294,813627,1.36377,-9.6708,1.35898,-82.1338,-7.60803,-63.1384,0,0.244141,-0.0610352,-0.618073,0.584625,-0.300537,0.430969,-14683,10398,-5457,1099,-29879
300,813633,1.32549,-9.67559,1.33506,-82.1338,-7.60254,-63.1384,0,0.244141,0.305176,-0.618073,0.584625,-0.300568,0.430969,-14683,10398,-5457,1099,-29879
306,813639,1.30635,-9.68516,1.33506,-82.1338,-7.60254,-63.1439,0.0610352,0.305176,-0.0610352,-0.618073,0.584625,-0.300568,0.430969,-14683,10399,-5459,1099,-29879
312,813645,1.30635,-9.63252,1.33506,-82.1283,-7.60803,-63.1439,0,0.12207,-0.244141,-0.618073,0.584625,-0.300568,0.431,-14685,10402,-5463,1099,-29879
318,813651,1.30156,-9.66602,1.32549,-82.1283,-7.60803,-63.1439,-0.12207,0.244141,-0.12207,-0.618042,0.584625,-0.300568,0.43103,-14685,10403,-5469,1099,-29879
324,813657,1.33984,-9.69951,1.33984,-82.1283,-7.60803,-63.1494,-0.0610352,0.244141,-0.0610352,-0.618042,0.584625,-0.300568,0.43103,-14684,10402,-5474,1099,-29879
330,813663,1.33027,-9.69473,1.37813,-82.1283,-7.60803,-63.1494,0.12207,0.0610352,-0.183105,-0.618042,0.584625,-0.300568,0.43103,-14685,10400,-5480,1099,-29879
336,813669,1.34463,-9.67559,1.36377,-82.1283,-7.60803,-63.1494,-0.12207,0.183105,0,-0.618042,0.584625,-0.300568,0.431061,-14685,10400,-5479,1099,-29879
342,813675,1.33506,-9.68037,1.34463,-82.1283,-7.61353,-63.1494,-0.0610352,0.305176,-0.0610352,-0.618011,0.584625,-0.300568,0.431061,-14685,10400,-5479,1099,-29879
348,813681,1.33027,-9.66602,1.33984,-82.1283,-7.61353,-63.1549,0,0.12207,0.0610352,-0.618011,0.584595,-0.300568,0.431091,-14686,10401,-5475,1099,-29879
354,813687,1.33027,-9.66123,1.32549,-82.1283,-7.61353,-63.1549,0,0.183105,-0.12207,-0.618011,0.584595,-0.300568,0.431091,-14686,10401,-5472,1099,-29879
360,813693,1.31592,-9.64688,1.36855,-82.1283,-7.61353,-63.1549,0,0.305176,0.0610352,-0.618011,0.584595,-0.300598,0.431091,-14685,10402,-5472,1099,-29879
366,813699,1.31592,-9.65645,1.34463,-82.1283,-7.61353,-63.1604,0.12207,0.183105,-0.0610352,-0.617981,0.584595,-0.300598,0.431122,-14682,10400,-5475,1099,-29879
372,813705,1.33027,-9.66602,1.33506,-82.1283,-7.61353,-63.1604,0.12207,0.366211,-0.305176,-0.617981,0.584595,-0.300598,0.431122,-14679,10398,-5481,1099,-29879
378,813711,1.31592,-9.6708,1.34941,-82.1283,-7.61902,-63.1659,0.0610352,0.12207,-0.183105,-0.617981,0.584564,-0.300598,0.431183,-14677,10398,-5491,1099,-29879
384,813717,1.34463,-9.64688,1.31592,-82.1283,-7.61902,-63.1659,0,0.244141,-0.12207,-0.617981,0.584564,-0.300598,0.431183,-14678,10399,-5492,1099,-29879
390,813723,1.39248,-9.69951,1.29199,-82.1283,-7.61902,-63.1659,0,0.0610352,-0.183105,-0.61795,0.584564,-0.300598,0.431183,-14680,10402,-5490,1099,-29879
396,813729,1.40205,-9.71865,1.30635,-82.1228,-7.61902,-63.1659,0.244141,-0.12207,0,-0.61795,0.584564,-0.300568,0.431183,-14681,10407,-5488,1099,-29879
402,813735,1.20107,-9.62295,1.50254,-82.1228,-7.61902,-63.1714,0,0.244141,-0.244141,-0.61795,0.584534,-0.300568,0.431244,-14682,10411,-5494,1099,-29879
408,813741,1.36377,-9.65166,1.33027,-82.1228,-7.62451,-63.1714,-0.244141,0,-0.488281,-0.61795,0.584564,-0.300568,0.431274,-14682,10412,-5508,1099,-29879
414,813747,1.39727,-9.7043,1.2585,-82.1228,-7.62451,-63.1769,-0.305176,0.244141,-0.183105,-0.61792,0.584564,-0.300568,0.431274,-14682,10407,-5513,1099,-29879
420,813753,1.29199,-9.68037,1.31113,-82.1228,-7.63,-63.1769,0,0.671387,-0.488281,-0.617889,0.584564,-0.300568,0.431305,-14683,10403,-5515,1099,-29879
426,813759,1.24414,-9.66602,1.36855,-82.1228,-7.63,-63.1769,0.305176,0,-0.549316,-0.617889,0.584564,-0.300537,0.431335,-14683,10400,-5516,1099,-29879
432,813765,1.29199,-9.61816,1.35898,-82.1228,-7.6355,-63.1824,-0.488281,0.305176,-0.427246,-0.617889,0.584564,-0.300537,0.431366,-14682,10399,-5516,1099,-29879
438,813771,1.33506,-9.69951,1.34463,-82.1228,-7.64099,-63.1824,-0.183105,0.183105,-0.732422,-0.617828,0.584564,-0.300537,0.431396,-14681,10401,-5518,1099,-29879
444,813777,1.33984,-9.6708,1.34941,-82.1228,-7.64648,-63.1879,-0.0610352,0.183105,-0.610352,-0.617828,0.584595,-0.300507,0.431427,-14681,10402,-5520,1099,-29879
450,813783,1.34941,-9.64688,1.36855,-82.1228,-7.64648,-63.1879,-0.0610352,-0.0610352,-0.488281,-0.617798,0.584595,-0.300507,0.431427,-14679,10404,-5521,1099,-29879
456,813789,1.40205,-9.63731,1.33984,-82.1228,-7.65198,-63.1879,-0.244141,0.183105,-0.671387,-0.617798,0.584595,-0.300507,0.431458,-14678,10407,-5525,1099,-29879
462,813795,1.36855,-9.70908,1.30156,-82.1283,-7.65747,-63.1879,-0.305176,0,-0.427246,-0.617767,0.584625,-0.300507,0.431488,-14675,10408,-5530,1099,-29879
468,813801,1.39248,-9.69473,1.30635,-82.1283,-7.65747,-63.1934,-0.366211,0.12207,-0.427246,-0.617737,0.584625,-0.300476,0.431519,-14671,10410,-5537,1099,-29879
474,813807,1.33027,-9.67559,1.32549,-82.1283,-7.66296,-63.1934,-0.12207,-0.0610352,-0.12207,-0.617737,0.584656,-0.300476,0.431519,-14671,10409,-5533,1099,-29879
480,813813,1.30635,-9.66123,1.36855,-82.1283,-7.66296,-63.1934,-0.0610352,-0.0610352,-0.549316,-0.617706,0.584656,-0.300476,0.431519,-14673,10411,-5525,1099,-29879
486,813819,1.28721,-9.59902,1.39727,-82.1283,-7.66296,-63.1934,-0.305176,0.0610352,-0.305176,-0.617706,0.584656,-0.300476,0.431549,-14675,10411,-5513,1099,-29879
492,813825,1.27285,-9.63731,1.39248,-82.1338,-7.67395,-63.1934,-0.488281,0,-0.793457,-0.617676,0.584686,-0.300446,0.431549,-14677,10410,-5497,1099,-29879
498,813831,1.27285,-9.65645,1.38291,-82.1338,-7.67395,-63.1934,-0.244141,-0.244141,-0.854492,-0.617615,0.584717,-0.300415,0.43158,-14685,10410,-5477,1099,-29879
504,813837,1.33984,-9.64209,1.32549,-82.1338,-7.67944,-63.1934,-0.427246,-0.183105,-0.915527,-0.617615,0.584747,-0.300385,0.43161,-14687,10408,-5471,1099,-29879
510,813843,1.31113,-9.66123,1.34463,-82.1393,-7.68494,-63.1934,-0.488281,-0.0610352,-0.671387,-0.617584,0.584778,-0.300385,0.43161,-14688,10407,-5469,1099,-29879
516,813849,1.3542,-9.69473,1.33506,-82.1393,-7.68494,-63.1934,-0.305176,-0.244141,-0.488281,-0.617554,0.584778,-0.300385,0.43161,-14690,10406,-5465,1099,-29879
522,813855,1.39248,-9.70908,1.27764,-82.1393,-7.69592,-63.1934,-0.183105,0.183105,-0.732422,-0.617554,0.584778,-0.300354,0.431641,-14692,10406,-5463,1099,-29879
528,813861,1.40684,-9.73779,1.25371,-82.1393,-7.69592,-63.1989,0.0610352,0,-0.427246,-0.617523,0.584808,-0.300354,0.431671,-14694,10408,-5464,1099,-29879
534,813867,1.37334,-9.72344,1.24893,-82.1393,-7.69592,-63.1989,0.305176,0.305176,-0.244141,-0.617523,0.584808,-0.300323,0.431702,-14692,10410,-5466,1099,-29879
540,813873,1.35898,-9.71387,1.3207,-82.1338,-7.70142,-63.1989,0.427246,0,-0.305176,-0.617523,0.584778,-0.300323,0.431702,-14691,10412,-5469,1099,-29879
546,813879,1.32549,-9.63252,1.3542,-82.1338,-7.70142,-63.1989,0.305176,0.183105,-0.549316,-0.617523,0.584778,-0.300293,0.431732,-14689,10413,-5472,1099,-29879
552,813885,1.31113,-9.63731,1.40205,-82.1338,-7.70691,-63.1989,0.0610352,0,-0.366211,-0.617523,0.584778,-0.300293,0.431763,-14687,10412,-5477,1099,-29879
558,813891,1.30635,-9.58945,1.44512,-82.1338,-7.7124,-63.1989,0.0610352,-0.244141,-0.732422,-0.617493,0.584808,-0.300262,0.431793,-14687,10411,-5479,1091,-29878
564,813897,1.34941,-9.58467,1.42598,-82.1338,-7.7124,-63.1989,-0.244141,-0.244141,-0.549316,-0.617493,0.584808,-0.300232,0.431793,-14687,10412,-5486,1091,-29878
570,813903,1.3542,-9.62773,1.40205,-82.1338,-7.7179,-63.1989,-0.549316,-0.366211,-0.549316,-0.617462,0.584839,-0.300232,0.431793,-14689,10411,-5490,1091,-29878
576,813909,1.36855,-9.67559,1.34463,-82.1393,-7.72339,-63.1989,-0.671387,-0.427246,-0.793457,-0.617432,0.584869,-0.300201,0.431793,-14690,10410,-5497,1091,-29878
582,813915,1.42598,-9.65166,1.36377,-82.1448,-7.72888,-63.1934,-0.854492,-0.12207,-0.183105,-0.617401,0.5849,-0.300171,0.431793,-14690,10409,-5507,1091,-29878
588,813921,1.38291,-9.66123,1.34941,-82.1503,-7.72888,-63.1934,-0.854492,-0.183105,-0.610352,-0.617371,0.584961,-0.300171,0.431793,-14690,10410,-5514,1091,-29878
594,813927,1.33984,-9.70908,1.31113,-82.1558,-7.72888,-63.1934,-0.976563,-0.244141,-0.183105,-0.61734,0.584991,-0.300171,0.431793,-14689,10411,-5522,1091,-29878
600,813933,1.36855,-9.69951,1.2585,-82.1613,-7.73438,-63.1934,-0.854492,-0.183105,-0.305176,-0.61731,0.585022,-0.300171,0.431793,-14689,10414,-5530,1091,-29878
606,813939,1.3542,-9.6708,1.32549,-82.1613,-7.73438,-63.1934,-0.427246,-0.183105,-0.549316,-0.617279,0.585052,-0.300171,0.431793,-14690,10414,-5532,1091,-29878
612,813945,1.27764,-9.63731,1.40684,-82.1667,-7.73987,-63.1934,-0.488281,-0.305176,-0.488281,-0.617279,0.585052,-0.300171,0.431793,-14689,10411,-5525,1091,-29878
618,813951,1.3207,-9.63252,1.3877,-82.1667,-7.74536,-63.1934,-0.610352,-0.305176,-0.549316,-0.617249,0.585114,-0.30014,0.431793,-14689,10409,-5522,1091,-29878
624,813957,1.35898,-9.67559,1.3207,-82.1722,-7.75085,-63.1879,-0.610352,-0.366211,-0.854492,-0.617218,0.585144,-0.30011,0.431793,-14688,10406,-5521,1091,-29878
630,813963,1.38291,-9.69473,1.30156,-82.1722,-7.75085,-63.1879,-0.549316,-0.305176,-0.610352,-0.617188,0.585175,-0.30011,0.431793,-14692,10403,-5514,1091,-29878
636,813969,1.38291,-9.7043,1.23936,-82.1722,-7.75635,-63.1879,-0.305176,-0.12207,-0.671387,-0.617157,0.585205,-0.300079,0.431824,-14698,10402,-5509,1091,-29878
642,813975,1.39727,-9.68516,1.26328,-82.1777,-7.76184,-63.1879,-0.244141,0,-0.488281,-0.617157,0.585205,-0.300079,0.431824,-14706,10397,-5492,1091,-29878
648,813981,1.40205,-9.68516,1.23936,-82.1777,-7.76184,-63.1879,-0.12207,-0.183105,-0.305176,-0.617126,0.585236,-0.300049,0.431854,-14708,10395,-5483,1091,-29878
654,813987,1.43076,-9.70908,1.27285,-82.1777,-7.76733,-63.1879,0.12207,-0.12207,-0.244141,-0.617126,0.585236,-0.300049,0.431854,-14707,10392,-5480,1091,-29878
660,813993,1.41641,-9.69473,1.29678,-82.1722,-7.76733,-63.1879,0.366211,0,-0.0610352,-0.617126,0.585236,-0.300018,0.431854,-14707,10393,-5474,1091,-29878
666,813999,1.38291,-9.68994,1.31592,-82.1722,-7.76733,-63.1879,0.305176,-0.0610352,-0.0610352,-0.617126,0.585236,-0.300018,0.431885,-14704,10394,-5464,1091,-29878
672,814005,1.34941,-9.62773,1.37813,-82.1722,-7.77283,-63.1879,0.12207,-0.12207,-0.366211,-0.617126,0.585236,-0.300018,0.431885,-14707,10400,-5451,1091,-29878
678,814011,1.36855,-9.62773,1.40205,-82.1722,-7.77283,-63.1879,-0.12207,-0.183105,0,-0.617126,0.585236,-0.299988,0.431915,-14707,10400,-5448,1091,-29878
684,814017,1.37813,-9.65645,1.3542,-82.1722,-7.77283,-63.1879,-0.0610352,-0.12207,0,-0.617126,0.585236,-0.299988,0.431915,-14707,10401,-5447,1091,-29878
690,814023,1.36377,-9.66602,1.3542,-82.1722,-7.77283,-63.1879,-0.183105,-0.305176,-0.0610352,-0.617126,0.585266,-0.299957,0.431885,-14709,10401,-5447,1091,-29878
696,814029,1.34941,-9.65166,1.3542,-82.1722,-7.77283,-63.1879,-0.244141,-0.183105,-0.12207,-0.617126,0.585266,-0.299957,0.431885,-14708,10402,-5452,1091,-29878
702,814035,1.36855,-9.68516,1.31113,-82.1777,-7.77832,-63.1879,-0.366211,-0.12207,-0.183105,-0.617096,0.585266,-0.299957,0.431885,-14708,10403,-5465,1091,-29878
708,814041,1.40205,-9.7043,1.27764,-82.1777,-7.77832,-63.1824,-0.366211,-0.244141,-0.305176,-0.617096,0.585297,-0.299957,0.431885,-14708,10404,-5474,1091,-29878
714,814047,1.38291,-9.69951,1.31113,-82.1777,-7.77832,-63.1824,-0.12207,-0.366211,0.244141,-0.617096,0.585327,-0.299927,0.431885,-14710,10404,-5481,1091,-29878
720,814053,1.3542,-9.66123,1.32549,-82.1777,-7.77832,-63.1824,-0.0610352,-0.0610352,-0.12207,-0.617065,0.585327,-0.299927,0.431885,-14713,10405,-5490,1091,-29878
726,814059,1.34941,-9.67559,1.36377,-82.1832,-7.77832,-63.1824,-0.244141,-0.366211,0.183105,-0.617065,0.585327,-0.299927,0.431885,-14715,10406,-5494,1091,-29878
732,814065,1.37813,-9.65166,1.33984,-82.1832,-7.78381,-63.1824,-0.0610352,-0.244141,0.0610352,-0.617065,0.585327,-0.299927,0.431885,-14714,10402,-5498,1091,-29878
738,814071,1.3542,-9.67559,1.30635,-82.1832,-7.78381,-63.1824,-0.0610352,-0.183105,-0.244141,-0.617065,0.585358,-0.299927,0.431885,-14713,10401,-5491,1091,-29878
744,814077,1.36377,-9.67559,1.34941,-82.1832,-7.78381,-63.1824,0,-0.12207,0,-0.617065,0.585358,-0.299896,0.431885,-14714,10399,-5486,1091,-29878
750,814083,1.36377,-9.69473,1.31592,-82.1832,-7.78381,-63.1769,-0.12207,-0.366211,-0.0610352,-0.617065,0.585358,-0.299896,0.431885,-14714,10398,-5480,1091,-29878
756,814089,1.36377,-9.66602,1.33027,-82.1832,-7.78931,-63.1769,-0.183105,0,-0.183105,-0.617065,0.585388,-0.299896,0.431885,-14715,10397,-5477,1091,-29878
762,814095,1.34941,-9.68037,1.31592,-82.1832,-7.78931,-63.1769,0,-0.12207,-0.0610352,-0.617065,0.585388,-0.299896,0.431885,-14716,10398,-5479,1091,-29878
768,814101,1.34463,-9.64209,1.34941,-82.1832,-7.78931,-63.1769,-0.0610352,-0.366211,-0.183105,-0.617035,0.585388,-0.299866,0.431885,-14713,10395,-5483,1091,-29878
774,814107,1.38291,-9.65166,1.30156,-82.1832,-7.78931,-63.1769,-0.0610352,-0.12207,-0.366211,-0.617035,0.585419,-0.299866,0.431885,-14709,10394,-5490,1091,-29878
780,814113,1.37813,-9.67559,1.3207,-82.1887,-7.7948,-63.1769,-0.305176,-0.244141,-0.427246,-0.617035,0.585419,-0.299835,0.431885,-14705,10392,-5496,1091,-29878
786,814119,1.36377,-9.68037,1.3207,-82.1887,-7.7948,-63.1769,-0.183105,-0.244141,-0.183105,-0.617004,0.585449,-0.299835,0.431885,-14702,10389,-5498,1091,-29878
792,814125,1.41162,-9.69951,1.27764,-82.1887,-7.80029,-63.1714,0,-0.427246,0,-0.617004,0.585449,-0.299835,0.431885,-14701,10387,-5486,1091,-29878
798,814131,1.39727,-9.66602,1.33984,-82.1887,-7.80029,-63.1714,-0.244141,-0.244141,0,-0.617004,0.58548,-0.299805,0.431885,-14701,10388,-5478,1091,-29878
804,814137,1.38291,-9.67559,1.31592,-82.1887,-7.80029,-63.1714,-0.183105,0.0610352,0.0610352,-0.617004,0.58548,-0.299805,0.431885,-14704,10388,-5466,1091,-29878
810,814143,1.33984,-9.66123,1.34463,-82.1942,-7.80029,-63.1714,-0.183105,-0.305176,0,-0.617004,0.58548,-0.299805,0.431854,-14705,10388,-5460,1091,-29878
816,814149,1.34941,-9.68037,1.36377,-82.1942,-7.80029,-63.1659,0,-0.244141,-0.0610352,-0.617004,0.58548,-0.299805,0.431854,-14704,10387,-5457,1091,-29878
822,814155,1.36377,-9.64209,1.31113,-82.1942,-7.80029,-63.1659,-0.183105,-0.366211,-0.12207,-0.617004,0.58551,-0.299774,0.431854,-14705,10378,-5449,1091,-29878
828,814161,1.3542,-9.66602,1.31113,-82.1942,-7.80579,-63.1659,-0.366211,-0.12207,0,-0.616974,0.585541,-0.299774,0.431854,-14706,10376,-5449,1091,-29878
834,814167,1.34463,-9.65645,1.36377,-82.1997,-7.80579,-63.1659,-0.0610352,-0.366211,-0.244141,-0.616974,0.585541,-0.299774,0.431854,-14709,10375,-5448,1091,-29878
840,814173,1.36855,-9.64688,1.31592,-82.1997,-7.80579,-63.1659,-0.244141,0,-0.183105,-0.616974,0.585541,-0.299774,0.431854,-14712,10377,-5452,1091,-29878
846,814179,1.33984,-9.65645,1.31113,-82.1997,-7.80579,-63.1659,-0.427246,-0.12207,-0.0610352,-0.616943,0.585571,-0.299774,0.431854,-14712,10377,-5457,1091,-29878
852,814185,1.34463,-9.63731,1.34463,-82.1997,-7.81128,-63.1604,-0.12207,-0.183105,-0.0610352,-0.616943,0.585602,-0.299744,0.431854,-14712,10377,-5471,1091,-29878
858,814191,1.38291,-9.64209,1.33506,-82.2052,-7.81128,-63.1604,-0.12207,-0.366211,-0.244141,-0.616943,0.585602,-0.299713,0.431854,-14712,10378,-5474,1091,-29878
864,814197,1.33984,-9.66602,1.3542,-82.2052,-7.81677,-63.1604,-0.183105,-0.183105,-0.549316,-0.616913,0.585632,-0.299713,0.431854,-14712,10377,-5475,1091,-29878
870,814203,1.3542,-9.65645,1.3542,-82.2052,-7.81677,-63.1604,-0.183105,-0.244141,-0.183105,-0.616913,0.585632,-0.299713,0.431854,-14713,10376,-5472,1091,-29878
876,814209,1.36855,-9.6708,1.3207,-82.2052,-7.82227,-63.1604,-0.183105,-0.366211,-0.610352,-0.616913,0.585663,-0.299683,0.431885,-14713,10374,-5467,1091,-29878
882,814215,1.3542,-9.65645,1.3207,-82.2052,-7.82776,-63.1549,-0.183105,-0.427246,-0.671387,-0.616882,0.585693,-0.299622,0.431885,-14715,10370,-5465,1091,-29878
888,814221,1.42119,-9.63731,1.33984,-82.2107,-7.82776,-63.1549,-0.0610352,-0.427246,-0.488281,-0.616882,0.585693,-0.299622,0.431885,-14717,10370,-5470,1091,-29878
894,814227,1.43555,-9.64209,1.37334,-82.2107,-7.83325,-63.1549,-0.305176,-0.305176,-0.488281,-0.616852,0.585724,-0.299591,0.431885,-14719,10373,-5476,1091,-29878
900,814233,1.41162,-9.68037,1.29678,-82.2107,-7.83325,-63.1549,-0.549316,-0.12207,-0.0610352,-0.616852,0.585754,-0.299591,0.431885,-14720,10375,-5483,1091,-29878
906,814239,1.40684,-9.7043,1.27764,-82.2162,-7.83325,-63.1549,-0.427246,-0.305176,-0.0610352,-0.616821,0.585754,-0.299591,0.431885,-14721,10379,-5487,1091,-29878
912,814245,1.41162,-9.63252,1.35898,-82.2162,-7.83875,-63.1494,-0.244141,0,-0.427246,-0.616821,0.585785,-0.299591,0.431885,-14724,10386,-5494,1099,-29879
918,814251,1.33027,-9.63731,1.3542,-82.2217,-7.83875,-63.1494,-0.427246,0,-0.305176,-0.616791,0.585815,-0.299591,0.431885,-14725,10387,-5495,1099,-29879
924,814257,1.33984,-9.69473,1.33506,-82.2217,-7.84424,-63.1494,-0.610352,-0.305176,-0.549316,-0.61676,0.585846,-0.299561,0.431885,-14724,10386,-5491,1099,-29879
930,814263,1.37334,-9.6708,1.32549,-82.2272,-7.84973,-63.1494,-0.488281,-0.183105,-0.732422,-0.61673,0.585846,-0.299561,0.431915,-14725,10388,-5488,1099,-29879
936,814269,1.36855,-9.67559,1.3207,-82.2272,-7.84973,-63.1494,-0.366211,-0.244141,-0.183105,-0.61673,0.585876,-0.299561,0.431915,-14725,10387,-5482,1099,-29879
942,814275,1.35898,-9.65645,1.33506,-82.2327,-7.85522,-63.1494,-0.366211,-0.12207,-0.549316,-0.616699,0.585907,-0.29953,0.431915,-14725,10391,-5473,1099,-29879
948,814281,1.36377,-9.64209,1.3207,-82.2327,-7.85522,-63.1494,-0.366211,-0.244141,-0.488281,-0.616669,0.585938,-0.29953,0.431915,-14724,10393,-5471,1099,-29879
954,814287,1.36377,-9.67559,1.29678,-82.2382,-7.86072,-63.1494,-0.671387,-0.183105,-0.427246,-0.616669,0.585968,-0.2995,0.431915,-14726,10396,-5472,1099,-29879
960,814293,1.36855,-9.68037,1.29199,-82.2382,-7.86621,-63.1494,-0.366211,-0.12207,-0.610352,-0.616638,0.585968,-0.2995,0.431946,-14729,10398,-5474,1099,-29879
966,814299,1.37813,-9.60381,1.33506,-82.2382,-7.86621,-63.1494,-0.366211,-0.488281,-0.915527,-0.616608,0.585999,-0.299469,0.431946,-14733,10397,-5471,1099,-29879
972,814305,1.33506,-9.64209,1.32549,-82.2437,-7.8772,-63.1494,-0.610352,0.183105,-0.610352,-0.616577,0.58606,-0.299438,0.431976,-14733,10388,-5464,1099,-29879
978,814311,1.31592,-9.68516,1.27764,-82.2491,-7.8772,-63.1494,-0.671387,-0.305176,-0.549316,-0.616547,0.58609,-0.299438,0.431976,-14733,10385,-5464,1099,-29879
984,814317,1.40684,-9.67559,1.27764,-82.2491,-7.88269,-63.1439,-0.366211,-0.244141,-0.915527,-0.616516,0.586121,-0.299408,0.431976,-14728,10380,-5461,1099,-29879
990,814323,1.43555,-9.6708,1.26328,-82.2546,-7.88818,-63.1439,-0.610352,-0.12207,-0.671387,-0.616486,0.586151,-0.299408,0.432007,-14725,10378,-5462,1099,-29879
996,814329,1.3877,-9.67559,1.28721,-82.2546,-7.88818,-63.1439,-0.366211,-0.366211,-0.732422,-0.616455,0.586151,-0.299408,0.432007,-14723,10378,-5463,1099,-29879
1002,814335,1.40684,-9.68516,1.31113,-82.2601,-7.89917,-63.1439,-0.305176,-0.305176,-0.488281,-0.616425,0.586212,-0.299347,0.432007,-14715,10384,-5467,1099,-29879
1008,814341,1.41162,-9.65645,1.2585,-82.2601,-7.89917,-63.1439,-0.427246,-0.366211,-0.305176,-0.616425,0.586243,-0.299347,0.432007,-14712,10386,-5467,1099,-29879
1014,814347,1.40684,-9.69951,1.28721,-82.2656,-7.90466,-63.1384,-0.305176,-0.427246,-0.488281,-0.616394,0.586273,-0.299316,0.432007,-14710,10386,-5465,1091,-29878
1020,814353,1.39727,-9.66602,1.32549,-82.2656,-7.90466,-63.1384,-0.0610352,-0.244141,-0.671387,-0.616394,0.586273,-0.299286,0.432037,-14707,10386,-5464,1091,-29878
1026,814359,1.46904,-9.65166,1.28721,-82.2656,-7.91016,-63.1384,-0.488281,-0.183105,0.0610352,-0.616394,0.586304,-0.299286,0.432007,-14704,10385,-5463,1091,-29878
1032,814365,1.3877,-9.69951,1.30635,-82.2711,-7.91016,-63.1384,-0.488281,-0.183105,-0.305176,-0.616364,0.586334,-0.299286,0.432007,-14702,10384,-5464,1091,-29878
1038,814371,1.39727,-9.68037,1.29199,-82.2711,-7.91016,-63.1384,-0.366211,-0.183105,-0.183105,-0.616333,0.586365,-0.299286,0.432007,-14704,10383,-5464,1091,-29878
1044,814377,1.39727,-9.68037,1.31592,-82.2766,-7.91565,-63.1329,-0.488281,-0.305176,-0.305176,-0.616333,0.586365,-0.299286,0.432007,-14707,10381,-5461,1091,-29878
1050,814383,1.39248,-9.66602,1.31592,-82.2766,-7.91565,-63.1329,-0.549316,-0.610352,-0.183105,-0.616302,0.586395,-0.299255,0.431976,-14711,10378,-5452,1091,-29878
1056,814389,1.35898,-9.66123,1.31592,-82.2821,-7.92114,-63.1329,-0.427246,-0.244141,-0.183105,-0.616302,0.586426,-0.299255,0.431976,-14711,10376,-5446,1091,-29878
1062,814395,1.37334,-9.66602,1.30156,-82.2876,-7.92114,-63.1274,-0.488281,-0.305176,-0.244141,-0.616272,0.586456,-0.299255,0.431976,-14711,10378,-5443,1091,-29878
1068,814401,1.41162,-9.65645,1.29199,-82.2876,-7.92114,-63.1274,-0.549316,-0.244141,-0.366211,-0.616241,0.586487,-0.299255,0.431976,-14710,10379,-5451,1091,-29878
1074,814407,1.36377,-9.65166,1.26807,-82.2931,-7.92114,-63.1274,-0.427246,0,0.12207,-0.616241,0.586517,-0.299255,0.431976,-14711,10380,-5458,1091,-29878
1080,814413,1.36377,-9.66123,1.30635,-82.2931,-7.92664,-63.1274,-0.671387,-0.244141,-0.427246,-0.616211,0.586517,-0.299255,0.431976,-14713,10381,-5467,1091,-29878
1086,814419,1.3877,-9.63731,1.34463,-82.2986,-7.93213,-63.1274,-0.366211,-0.305176,-0.549316,-0.61618,0.586548,-0.299225,0.431946,-14715,10382,-5472,1091,-29878
1092,814425,1.3877,-9.62773,1.30635,-82.3041,-7.93213,-63.1274,-0.732422,-0.183105,-0.183105,-0.61615,0.586609,-0.299225,0.431946,-14718,10386,-5476,1091,-29878
1098,814431,1.3877,-9.69473,1.29199,-82.3041,-7.93762,-63.1219,-0.793457,-0.427246,-0.610352,-0.616119,0.586639,-0.299225,0.431946,-14720,10386,-5476,1091,-29878
1104,814437,1.40205,-9.68037,1.26807,-82.3096,-7.93762,-63.1219,-0.610352,-0.549316,-0.12207,-0.616119,0.58667,-0.299194,0.431946,-14720,10384,-5477,1091,-29878
1110,814443,1.40684,-9.68037,1.29678,-82.3151,-7.93762,-63.1219,-0.610352,-0.244141,-0.305176,-0.616089,0.5867,-0.299194,0.431946,-14721,10383,-5476,1091,-29878
1116,814449,1.41162,-9.66123,1.26807,-82.3206,-7.94312,-63.1165,-0.610352,-0.427246,-0.427246,-0.616089,0.586731,-0.299194,0.431915,-14722,10382,-5475,1091,-29878
1122,814455,1.41641,-9.62773,1.30635,-82.3206,-7.94861,-63.1165,-0.427246,-0.366211,-0.305176,-0.616058,0.586792,-0.299164,0.431915,-14725,10384,-5478,1091,-29878
1128,814461,1.40684,-9.64688,1.31113,-82.326,-7.94861,-63.111,-0.610352,-0.488281,-0.305176,-0.616028,0.586823,-0.299164,0.431915,-14726,10384,-5472,1091,-29878
1134,814467,1.43555,-9.66123,1.27764,-82.3315,-7.9541,-63.111,-0.671387,-0.610352,-0.488281,-0.615997,0.586853,-0.299133,0.431915,-14727,10386,-5467,1099,-29879
1140,814473,1.40684,-9.66602,1.24414,-82.3315,-7.9541,-63.1055,-0.549316,-0.488281,0,-0.615997,0.586884,-0.299133,0.431885,-14726,10388,-5461,1099,-29879
1146,814479,1.42598,-9.6708,1.30635,-82.337,-7.9541,-63.1055,-0.549316,-0.488281,-0.183105,-0.615997,0.586914,-0.299133,0.431885,-14726,10390,-5455,1091,-29878
1152,814485,1.46426,-9.63252,1.30156,-82.3425,-7.95959,-63.1055,-0.427246,-0.305176,-0.12207,-0.615967,0.586945,-0.299103,0.431854,-14722,10393,-5444,1091,-29878
1158,814491,1.45469,-9.63731,1.34463,-82.3425,-7.95959,-63.1055,-0.732422,0,0.244141,-0.615936,0.586975,-0.299133,0.431854,-14723,10392,-5444,1091,-29878
1164,814497,1.46904,-9.74258,1.23457,-82.348,-7.95959,-63.1055,-1.0376,0,0.12207,-0.615906,0.587006,-0.299133,0.431824,-14725,10390,-5441,1091,-29878
1170,814503,1.4499,-9.71865,1.21064,-82.3535,-7.9541,-63.1055,-0.793457,0,0.610352,-0.615906,0.587006,-0.299164,0.431824,-14726,10388,-5441,1091,-29878
1176,814509,1.3207,-9.63252,1.31592,-82.359,-7.94861,-63.1055,-0.549316,0.12207,0.549316,-0.615875,0.587006,-0.299194,0.431793,-14726,10386,-5447,1091,-29878
1182,814515,1.3207,-9.62295,1.37813,-82.3645,-7.94861,-63.1055,-0.488281,0.183105,0.183105,-0.615875,0.587036,-0.299255,0.431793,-14725,10387,-5452,1091,-29878
1188,814521,1.33984,-9.59424,1.38291,-82.3645,-7.94861,-63.1055,-0.793457,0.183105,0.12207,-0.615845,0.587036,-0.299255,0.431793,-14726,10389,-5453,1091,-29878
1194,814527,1.35898,-9.62773,1.34463,-82.37,-7.9541,-63.1055,-0.976563,-0.12207,-0.12207,-0.615814,0.587067,-0.299286,0.431763,-14728,10391,-5450,1091,-29878
1200,814533,1.39727,-9.66123,1.27764,-82.3755,-7.9541,-63.1055,-1.0376,0,-0.183105,-0.615784,0.587097,-0.299286,0.431763,-14728,10391,-5445,1091,-29878
1206,814539,1.36377,-9.68037,1.27764,-82.381,-7.9541,-63.1055,-0.671387,-0.183105,-0.244141,-0.615753,0.587128,-0.299286,0.431763,-14731,10395,-5437,1091,-29878
1212,814545,1.3877,-9.64209,1.30156,-82.3865,-7.95959,-63.1055,-0.854492,-0.12207,-0.244141,-0.615723,0.587189,-0.299286,0.431763,-14731,10397,-5437,1091,-29878
1218,814551,1.3207,-9.6708,1.33027,-82.392,-7.95959,-63.1055,-0.671387,-0.305176,-0.305176,-0.615692,0.587219,-0.299286,0.431763,-14732,10398,-5441,1091,-29878
1224,814557,1.3542,-9.61338,1.37813,-82.3975,-7.95959,-63.1055,-0.976563,-0.183105,-0.183105,-0.615662,0.58725,-0.299316,0.431732,-14735,10401,-5447,1091,-29878
1230,814563,1.34941,-9.61338,1.36855,-82.403,-7.96509,-63.1,-1.0376,-0.610352,-0.488281,-0.615631,0.58728,-0.299286,0.431732,-14737,10401,-5454,1091,-29878
1236,814569,1.37813,-9.68516,1.24893,-82.4139,-7.97058,-63.1,-1.34277,-0.610352,-0.366211,-0.615601,0.587341,-0.299286,0.431732,-14736,10398,-5466,1091,-29878
1242,814575,1.43076,-9.7043,1.22979,-82.4194,-7.97607,-63.0945,-0.976563,-0.793457,-0.488281,-0.61554,0.587433,-0.299255,0.431671,-14734,10394,-5471,1091,-29878
1248,814581,1.45469,-9.63252,1.26328,-82.4249,-7.97607,-63.089,-0.976563,-0.671387,-0.488281,-0.615509,0.587494,-0.299255,0.431671,-14732,10391,-5472,1091,-29878
1254,814587,1.38291,-9.61338,1.27764,-82.4304,-7.98157,-63.089,-1.40381,-0.488281,-0.671387,-0.615479,0.587524,-0.299255,0.431671,-14730,10389,-5473,1091,-29878
1260,814593,1.32549,-9.68037,1.29199,-82.4359,-7.98157,-63.089,-1.2207,-0.732422,-0.427246,-0.615448,0.587585,-0.299225,0.431641,-14731,10389,-5471,1091,-29878
1266,814599,1.47383,-9.65166,1.21064,-82.4469,-7.99255,-63.0725,-0.854492,-1.15967,-0.549316,-0.615417,0.587646,-0.299194,0.43161,-14739,10394,-5461,1091,-29878
1272,814605,1.50254,-9.71387,1.14365,-82.4524,-7.99255,-63.0725,-0.915527,-0.671387,-0.244141,-0.615387,0.587738,-0.299164,0.43158,-14743,10397,-5454,1091,-29878
1278,814611,1.45469,-9.75693,1.15801,-82.4579,-7.99255,-63.067,-0.793457,-0.549316,0.0610352,-0.615356,0.587769,-0.299164,0.431549,-14746,10400,-5446,1091,-29878
1284,814617,1.44033,-9.73779,1.18672,-82.4579,-7.99805,-63.067,-0.183105,-0.793457,-0.0610352,-0.615356,0.587799,-0.299133,0.431519,-14747,10402,-5439,1091,-29878
1290,814623,1.35898,-9.74736,1.225,-82.4579,-7.99255,-63.0615,0.244141,-1.15967,0.366211,-0.615387,0.587799,-0.299103,0.431488,-14746,10405,-5432,1091,-29878
1296,814629,1.45469,-9.65645,1.28242,-82.4579,-7.99805,-63.056,-0.12207,-0.183105,0,-0.615417,0.587799,-0.299072,0.431488,-14746,10407,-5419,1091,-29878
1302,814635,1.40684,-9.72822,1.22979,-82.4579,-7.99805,-63.056,0,-0.427246,0.0610352,-0.615417,0.58783,-0.299072,0.431458,-14749,10405,-5417,1091,-29878
1308,814641,1.3877,-9.62295,1.31113,-82.4579,-7.99805,-63.0505,0.244141,-0.610352,-0.0610352,-0.615417,0.58783,-0.299042,0.431458,-14750,10403,-5414,1091,-29878
1314,814647,1.47383,-9.60381,1.28242,-82.4579,-7.99805,-63.0505,0,-0.183105,0,-0.615417,0.58783,-0.299042,0.431458,-14752,10401,-5413,1091,-29878
1320,814653,1.37334,-9.67559,1.26328,-82.4579,-7.99805,-63.0505,-0.305176,0,0,-0.615417,0.58786,-0.299042,0.431458,-14752,10402,-5414,1091,-29878
1326,814659,1.27285,-9.61816,1.46426,-82.4579,-8.00354,-63.0396,0.427246,-1.52588,-0.183105,-0.615417,0.58786,-0.299042,0.431458,-14754,10403,-5417,1091,-29878
1332,814665,1.33027,-9.47939,1.4834,-82.4634,-8.00354,-63.0341,-0.366211,-0.854492,-0.183105,-0.615448,0.587921,-0.29895,0.431396,-14756,10402,-5418,1091,-29878
1338,814671,1.39727,-9.63252,1.26807,-82.4689,-8.00903,-63.0341,-1.15967,-1.0376,-0.488281,-0.615417,0.587982,-0.29892,0.431366,-14757,10399,-5420,1091,-29878
1344,814677,1.30635,-9.68516,1.30156,-82.4744,-8.00903,-63.0286,-0.793457,-1.09863,-0.549316,-0.615387,0.588013,-0.298889,0.431366,-14757,10396,-5419,1091,-29878
1350,814683,1.34941,-9.67559,1.30635,-82.4744,-8.01453,-63.0176,-0.671387,-1.58691,-0.427246,-0.615387,0.588074,-0.298859,0.431305,-14756,10394,-5420,1091,-29878
1356,814689,1.41162,-9.68037,1.19629,-82.4854,-8.02002,-63.0066,-1.15967,-1.2207,-0.610352,-0.615387,0.588135,-0.298828,0.431274,-14752,10400,-5420,1091,-29878
1362,814695,1.44033,-9.72822,1.14844,-82.4908,-8.02551,-63.0011,-1.0376,-1.2207,-0.671387,-0.615326,0.588257,-0.298767,0.431213,-14750,10402,-5419,1091,-29878
1368,814701,1.41162,-9.75215,1.18672,-82.4963,-8.02551,-62.9901,-0.549316,-1.58691,-0.12207,-0.615326,0.588287,-0.298737,0.431183,-14749,10405,-5419,1091,-29878
1374,814707,1.46904,-9.6708,1.18672,-82.4963,-8.03101,-62.9846,0,-1.2207,-0.549316,-0.615326,0.588318,-0.298676,0.431183,-14749,10406,-5420,1091,-29878
1380,814713,1.41641,-9.69473,1.16279,-82.4963,-8.0365,-62.9791,-0.0610352,-1.58691,-0.366211,-0.615356,0.588348,-0.298615,0.431152,-14751,10406,-5421,1091,-29878
1386,814719,1.45947,-9.68516,1.36377,-82.4963,-8.04199,-62.9572,1.46484,-1.89209,-0.488281,-0.615387,0.588409,-0.298553,0.431061,-14751,10399,-5424,1091,-29878
1392,814725,1.39727,-9.44111,1.26807,-82.4963,-8.04199,-62.9517,0.488281,-0.915527,-0.549316,-0.615448,0.58844,-0.298401,0.431061,-14750,10394,-5422,1091,-29878
1398,814731,1.41641,-9.7043,1.40684,-82.4963,-8.04749,-62.9517,-0.244141,-0.732422,-0.305176,-0.615448,0.58844,-0.298401,0.43103,-14746,10390,-5422,1091,-29878
1404,814737,1.27764,-9.72822,1.3542,-82.4963,-8.04749,-62.9352,0.366211,-2.2583,-0.0610352,-0.615479,0.58847,-0.298309,0.431,-14742,10390,-5421,1091,-29878
1410,814743,1.50254,-9.55117,1.41641,-82.4908,-8.05298,-62.9352,0.366211,-0.610352,-0.976563,-0.615479,0.588501,-0.298279,0.431,-14737,10390,-5420,1091,-29878
1416,814749,1.34463,-9.76172,1.29199,-82.5018,-8.05847,-62.9297,-0.976563,-1.0376,-0.549316,-0.615479,0.588531,-0.298248,0.431,-14731,10387,-5420,1091,-29878
1422,814755,1.34941,-9.69473,1.39727,-82.5018,-8.06396,-62.9242,0,-1.58691,-0.976563,-0.615448,0.588623,-0.298157,0.430969,-14728,10387,-5422,1091,-29878
1428,814761,1.40205,-9.53682,1.29199,-82.5073,-8.07495,-62.9187,-0.732422,-1.0376,-1.2207,-0.615417,0.588654,-0.298126,0.430969,-14728,10386,-5421,1091,-29878
1434,814767,1.40205,-9.64209,1.37813,-82.5128,-8.08044,-62.9132,-1.34277,-1.09863,-1.0376,-0.615387,0.588745,-0.298065,0.430969,-14729,10388,-5423,1091,-29878
1440,814773,1.18193,-9.62295,1.43076,-82.5238,-8.08594,-62.9022,-1.64795,-2.31934,-1.40381,-0.615356,0.588837,-0.298004,0.430908,-14729,10389,-5425,1091,-29878
1446,814779,1.3542,-9.47939,1.3207,-82.5348,-8.10791,-62.8912,-1.95313,-1.40381,-1.77002,-0.615326,0.588898,-0.297943,0.430939,-14730,10392,-5424,1091,-29878
1452,814785,1.34463,-9.64688,1.27764,-82.5458,-8.1189,-62.8857,-2.50244,-1.09863,-2.01416,-0.615173,0.589111,-0.297852,0.430908,-14729,10392,-5419,1091,-29878
1458,814791,1.19629,-9.66602,1.47383,-82.5568,-8.12988,-62.8748,-1.70898,-2.74658,-2.38037,-0.615112,0.589233,-0.29776,0.430878,-14730,10391,-5412,1091,-29878
1464,814797,1.36377,-9.47939,1.40684,-82.5623,-8.14636,-62.8693,-1.28174,-1.34277,-3.05176,-0.615051,0.589325,-0.297668,0.430908,-14731,10392,-5401,1091,-29878
1470,814803,1.31113,-9.74258,1.11016,-82.5732,-8.16284,-62.8638,-2.74658,-1.70898,-2.68555,-0.61496,0.589447,-0.297577,0.430908,-14729,10391,-5395,1091,-29878
1476,814809,1.47383,-9.69951,1.36377,-82.6007,-8.19031,-62.8473,-1.40381,-1.58691,-3.17383,-0.614807,0.589722,-0.297424,0.430908,-14727,10393,-5384,1091,-29878
1482,814815,1.56953,-9.52725,1.11973,-82.6062,-8.20679,-62.8418,-1.83105,-1.34277,-3.2959,-0.614716,0.589813,-0.297333,0.430939,-14728,10392,-5383,1091,-29878
1488,814821,1.46904,-9.7043,1.17715,-82.6227,-8.22327,-62.8418,-2.74658,-0.976563,-3.23486,-0.614594,0.589966,-0.297272,0.430969,-14731,10390,-5385,1091,-29878
1494,814827,1.25371,-9.82393,1.40684,-82.6282,-8.23975,-62.8308,-1.46484,-2.56348,-3.11279,-0.614532,0.590088,-0.29715,0.430969,-14735,10387,-5389,1091,-29878
1500,814833,1.52168,-9.43154,1.40684,-82.6337,-8.25623,-62.8198,-1.09863,-2.0752,-3.17383,-0.614471,0.590179,-0.297028,0.430969,-14739,10384,-5389,1091,-29878
1506,814839,1.52646,-9.66123,1.30156,-82.6611,-8.28918,-62.8253,-3.23486,0.0610352,-3.479,-0.614258,0.590393,-0.296936,0.431061,-14750,10383,-5389,1091,-29878
1512,814845,1.35898,-9.7665,1.20586,-82.6721,-8.30566,-62.8253,-3.05176,-0.0610352,-3.23486,-0.614105,0.590515,-0.296906,0.431122,-14753,10383,-5391,1091,-29878
1518,814851,1.39248,-9.78564,0.995313,-82.6886,-8.32214,-62.8198,-3.11279,-1.09863,-3.41797,-0.613983,0.590668,-0.296844,0.431152,-14756,10387,-5394,1091,-29878
1524,814857,1.45469,-9.66123,1.39727,-82.6996,-8.34412,-62.8198,-2.01416,-1.15967,-3.72314,-0.613892,0.59079,-0.296753,0.431183,-14758,10389,-5397,1091,-29878
1530,814863,1.37334,-9.60381,1.35898,-82.7106,-8.3606,-62.8253,-3.11279,0.732422,-3.96729,-0.613739,0.590881,-0.296753,0.431274,-14758,10391,-5402,1091,-29878
1536,814869,1.39727,-9.74736,0.980957,-82.749,-8.39905,-62.8253,-4.21143,-0.976563,-3.90625,-0.613403,0.591217,-0.296692,0.431366,-14757,10395,-5400,1091,-29878
1542,814875,1.52168,-9.68994,1.3542,-82.76,-8.41553,-62.8253,-2.56348,-0.488281,-3.84521,-0.613281,0.591309,-0.296631,0.431427,-14758,10395,-5398,1091,-29878
1548,814881,1.57432,-9.49375,1.11973,-82.7765,-8.4375,-62.8363,-3.41797,1.0376,-4.21143,-0.613098,0.591431,-0.2966,0.431519,-14759,10395,-5397,1091,-29878
1554,814887,1.58389,-9.74736,1.14844,-82.7985,-8.45398,-62.8418,-4.3335,0.671387,-3.41797,-0.612915,0.591583,-0.2966,0.43158,-14760,10395,-5394,1091,-29878
1560,814893,1.94756,-9.71387,1.25371,-82.8149,-8.47046,-62.8418,-3.84521,0,-3.41797,-0.612762,0.591736,-0.2966,0.43161,-14761,10397,-5392,1091,-29878
1566,814899,1.92842,-9.51289,0.904395,-82.8424,-8.49243,-62.8583,-4.15039,2.74658,-2.0752,-0.612488,0.591888,-0.296661,0.431732,-14760,10398,-5394,1091,-29878
1572,814905,1.49775,-9.7043,1.05752,-82.8699,-8.49792,-62.8748,-5.49316,2.86865,-2.01416,-0.612274,0.59201,-0.296783,0.431793,-14760,10396,-5397,1091,-29878
1578,814911,1.29199,-9.66123,1.13408,-82.8973,-8.50891,-62.8857,-6.04248,1.95313,-2.01416,-0.61203,0.592163,-0.296906,0.431824,-14760,10395,-5399,1091,-29878
1584,814917,1.51211,-9.75693,1.29678,-82.9138,-8.5199,-62.8967,-4.45557,1.09863,-1.83105,-0.611877,0.592285,-0.296967,0.431854,-14760,10395,-5399,1091,-29878
1590,814923,1.44033,-9.53682,1.11016,-82.9303,-8.53088,-62.9077,-4.5166,2.01416,-2.31934,-0.611725,0.592346,-0.297028,0.431946,-14762,10394,-5397,1091,-29878
1596,814929,1.12451,-9.12051,1.59346,-82.9907,-8.55286,-62.9242,-8.8501,-0.244141,-2.38037,-0.611267,0.592712,-0.297211,0.431946,-14768,10393,-5391,1091,-29878
1602,814935,1.70352,-9.99619,1.67959,-83.0182,-8.56384,-62.9352,-5.37109,1.89209,-2.74658,-0.611053,0.592865,-0.297272,0.432007,-14770,10393,-5386,1091,-29878
1608,814941,1.26807,-9.51768,1.07666,-83.0347,-8.57483,-62.9462,-3.66211,2.31934,-2.74658,-0.610901,0.592957,-0.297333,0.432098,-14772,10395,-5382,1091,-29878
1614,814947,1.22021,-9.46982,1.31592,-83.0621,-8.59131,-62.9462,-6.53076,-0.488281,-2.92969,-0.610687,0.59317,-0.297363,0.432068,-14771,10396,-5379,1091,-29878
1620,814953,1.61738,-10.0775,1.77529,-83.139,-8.60229,-62.8967,-10.437,-14.3433,-2.44141,-0.610443,0.593719,-0.297333,0.431702,-14770,10394,-5374,1091,-29878
1626,814959,2.24424,-9.95313,1.03359,-83.2159,-8.63525,-62.8308,-3.90625,0.305176,-3.35693,-0.610138,0.594421,-0.297089,0.431305,-14772,10384,-5365,1091,-29878
1632,814965,1.33027,-9.30234,0.880469,-83.2489,-8.64624,-62.8253,-6.10352,-1.2207,-2.0752,-0.609985,0.594604,-0.297119,0.431244,-14775,10378,-5360,1091,-29878
1638,814971,1.72266,-10.0393,1.16279,-83.2709,-8.66272,-62.8308,-5.7373,0.0610352,-2.92969,-0.609772,0.594788,-0.29715,0.431244,-14777,10373,-5351,1091,-29878
1644,814977,1.41162,-9.64209,0.799121,-83.2983,-8.67371,-62.8143,-5.24902,-2.92969,-2.0752,-0.60965,0.595001,-0.297089,0.431183,-14780,10371,-5347,1091,-29878
1650,814983,1.62695,-9.5751,0.861328,-83.3203,-8.69019,-62.8143,-3.60107,0.427246,-2.50244,-0.609497,0.595184,-0.297058,0.431152,-14783,10372,-5344,1091,-29878
1656,814989,1.47861,-9.64688,1.08623,-83.3643,-8.71216,-62.8143,-4.88281,-0.183105,-2.62451,-0.609192,0.595459,-0.297089,0.431183,-14787,10373,-5343,1091,-29878
1662,814995,1.46904,-9.91484,1.09102,-83.3807,-8.72314,-62.8198,-3.84521,0.549316,-2.0752,-0.609039,0.595581,-0.297119,0.431213,-14790,10372,-5340,1091,-29878
1668,815001,1.46904,-9.68516,1.08623,-83.3917,-8.73413,-62.8198,-2.56348,-0.488281,-2.31934,-0.608948,0.595673,-0.297119,0.431244,-14788,10371,-5336,1091,-29878
1674,815007,1.63652,-9.58467,1.11973,-83.4082,-8.75061,-62.8253,-3.11279,0.976563,-2.80762,-0.608795,0.595764,-0.297119,0.431305,-14788,10372,-5333,1091,-29878
1680,815013,1.6126,-9.79043,0.990527,-83.4192,-8.7616,-62.8418,-3.11279,3.78418,-3.11279,-0.608612,0.595856,-0.29715,0.431396,-14789,10373,-5327,1091,-29878
1686,815019,1.47861,-9.69951,1.03838,-83.4412,-8.78906,-62.8802,-2.74658,3.66211,-3.11279,-0.608276,0.595947,-0.297302,0.431671,-14795,10375,-5315,1091,-29878
1692,815025,1.45469,-9.72822,0.980957,-83.4576,-8.80554,-62.8912,-2.86865,1.46484,-2.92969,-0.608124,0.596039,-0.297333,0.431763,-14801,10374,-5314,1091,-29878
1698,815031,1.59346,-9.74258,1.13887,-83.4631,-8.81653,-62.9022,-2.2583,1.70898,-3.05176,-0.607971,0.5961,-0.297333,0.431854,-14808,10370,-5312,1091,-29878
1704,815037,1.55518,-9.68516,0.976172,-83.4741,-8.82751,-62.9187,-1.83105,2.80762,-2.92969,-0.607849,0.59613,-0.297363,0.431976,-14816,10367,-5310,1091,-29878
1710,815043,1.55518,-9.75693,1.225,-83.4796,-8.86047,-62.9352,-0.732422,1.83105,-3.05176,-0.607727,0.596191,-0.297363,0.432098,-14824,10366,-5308,1091,-29878
1716,815049,1.57432,-9.71865,0.995313,-83.4796,-8.87146,-62.9572,-0.244141,3.23486,-2.86865,-0.607513,0.596191,-0.297363,0.432373,-14836,10366,-5300,1099,-29879
1722,815055,1.44512,-9.72344,0.961816,-83.4796,-8.88245,-62.9681,-0.854492,1.70898,-2.56348,-0.607422,0.596191,-0.297363,0.432465,-14840,10367,-5296,1099,-29879
1728,815061,1.63652,-9.76172,1.20586,-83.4796,-8.89343,-62.9736,0,1.2207,-2.92969,-0.607361,0.596222,-0.297302,0.432587,-14843,10368,-5298,1099,-29879
1734,815067,1.58389,-9.62773,1.08623,-83.4741,-8.90991,-62.9846,0.12207,1.83105,-2.74658,-0.6073,0.596222,-0.297272,0.432709,-14845,10369,-5298,1099,-29879
1740,815073,1.54082,-9.68516,1.03359,-83.4741,-8.93188,-63.0011,0.305176,0.976563,-2.74658,-0.607208,0.596222,-0.297272,0.4328,-14846,10370,-5301,1099,-29879
1746,815079,1.6126,-9.71865,1.11016,-83.4741,-8.94287,-63.0066,0.183105,0.732422,-2.56348,-0.607117,0.596252,-0.29718,0.433014,-14851,10372,-5299,1099,-29879
1752,815085,1.66523,-9.72344,1.20586,-83.4686,-8.95935,-63.0176,0.671387,1.58691,-2.56348,-0.607056,0.596222,-0.297119,0.433105,-14854,10371,-5297,1099,-29879
1758,815091,1.62217,-9.69951,1.01924,-83.4631,-8.97034,-63.0231,0.671387,1.58691,-2.38037,-0.606995,0.596222,-0.297089,0.433228,-14857,10368,-5294,1099,-29879
1764,815097,1.56953,-9.8,0.985742,-83.4576,-8.97583,-63.0286,0.549316,0.0610352,-1.83105,-0.606995,0.596222,-0.297028,0.433289,-14860,10366,-5294,1099,-29879
1770,815103,1.67002,-9.68516,0.980957,-83.4412,-8.99231,-63.0396,1.83105,1.15967,-1.70898,-0.606964,0.596191,-0.296967,0.43338,-14860,10364,-5295,1099,-29879
1776,815109,1.69395,-9.78564,1.08145,-83.4302,-9.0033,-63.045,2.01416,1.0376,-1.46484,-0.606964,0.5961,-0.296875,0.433594,-14858,10363,-5301,1099,-29879
1782,815115,1.63652,-9.71387,1.05752,-83.4137,-9.00879,-63.0505,2.74658,1.34277,-1.28174,-0.606995,0.596008,-0.296844,0.433685,-14852,10363,-5306,1099,-29879
1788,815121,1.6748,-9.7665,0.980957,-83.4027,-9.01428,-63.0615,2.62451,1.28174,-1.0376,-0.607025,0.595947,-0.296783,0.433777,-14849,10365,-5311,1099,-29879
1794,815127,1.6748,-9.8,0.923535,-83.3862,-9.01978,-63.067,3.11279,1.46484,-1.09863,-0.607056,0.595856,-0.296753,0.433899,-14846,10368,-5315,1099,-29879
1800,815133,1.63174,-9.62773,1.04316,-83.3478,-9.02527,-63.0835,3.78418,1.46484,-0.549316,-0.607117,0.595734,-0.296692,0.43399,-14848,10372,-5320,1099,-29879
1806,815139,1.6126,-9.69473,1.13408,-83.3258,-9.02527,-63.0945,3.96729,1.64795,-0.366211,-0.607269,0.59549,-0.2966,0.434204,-14854,10376,-5330,1099,-29879
1812,815145,1.55996,-9.6708,1.0958,-83.3038,-9.02527,-63.1,4.02832,1.28174,-0.427246,-0.60733,0.595367,-0.29657,0.434296,-14858,10374,-5333,1099,-29879
1818,815151,1.58867,-9.72822,1.10537,-83.2874,-9.02527,-63.1055,4.15039,0.671387,0,-0.607422,0.595245,-0.296509,0.434387,-14859,10369,-5331,1099,-29879
1824,815157,1.62217,-9.66123,1.21064,-83.2654,-9.02527,-63.1055,4.57764,0.671387,-0.183105,-0.607513,0.595123,-0.296417,0.434448,-14859,10363,-5326,1099,-29879
1830,815163,1.5791,-9.63252,1.21064,-83.2214,-9.02527,-63.1219,3.96729,1.0376,0,-0.607605,0.595001,-0.296387,0.43454,-14857,10359,-5321,1099,-29879
1836,815169,1.60781,-9.70908,1.11973,-83.205,-9.02527,-63.1219,4.08936,0.732422,0.12207,-0.607788,0.594757,-0.296295,0.434692,-14851,10357,-5320,1099,-29879
1842,815175,1.62695,-9.6708,1.10059,-83.183,-9.02527,-63.1274,4.39453,0.854492,0.0610352,-0.60788,0.594635,-0.296234,0.434784,-14847,10356,-5317,1099,-29879
1848,815181,1.62695,-9.61816,1.10537,-83.161,-9.02527,-63.1329,3.90625,0.793457,0.427246,-0.607971,0.594513,-0.296173,0.434845,-14845,10356,-5317,1099,-29879
1854,815187,1.62695,-9.6708,1.13887,-83.1445,-9.02527,-63.1329,4.02832,0.854492,0.0610352,-0.608063,0.594391,-0.296143,0.434906,-14842,10354,-5318,1099,-29879
1860,815193,1.58867,-9.60381,1.12451,-83.1006,-9.01978,-63.1439,4.08936,0.549316,0.427246,-0.608154,0.594269,-0.296082,0.434967,-14840,10356,-5328,1099,-29879
1866,815199,1.60303,-9.67559,1.15322,-83.0841,-9.01978,-63.1494,3.90625,1.0376,0.183105,-0.608337,0.594025,-0.29599,0.435089,-14840,10360,-5338,1099,-29879
1872,815205,1.59346,-9.6708,1.13408,-83.0621,-9.01978,-63.1549,3.90625,1.09863,0.488281,-0.608429,0.593903,-0.295959,0.435181,-14842,10363,-5348,1099,-29879
1878,815211,1.58389,-9.65166,1.18193,-83.0402,-9.01428,-63.1549,4.21143,0.793457,0.305176,-0.608521,0.593781,-0.295898,0.435242,-14844,10365,-5357,1099,-29879
1884,815217,1.58867,-9.58945,1.18672,-83.0237,-9.01428,-63.1604,3.78418,1.09863,0.427246,-0.608612,0.593658,-0.295868,0.435303,-14844,10363,-5365,1099,-29879
1890,815223,1.55996,-9.65645,1.16758,-82.9907,-9.00879,-63.1714,3.479,1.0376,0.671387,-0.608673,0.593567,-0.295837,0.435364,-14842,10360,-5366,1099,-29879
1896,815229,1.59346,-9.66123,1.21064,-82.9742,-9.00879,-63.1769,3.479,1.34277,0.427246,-0.608826,0.593323,-0.295807,0.435486,-14843,10362,-5367,1099,-29879
1902,815235,1.6126,-9.62773,1.21064,-82.9523,-9.0033,-63.1824,3.35693,1.2207,0.488281,-0.608917,0.593231,-0.295776,0.435547,-14842,10363,-5371,1099,-29879
1908,815241,1.58867,-9.63731,1.11973,-82.9413,-9.0033,-63.1934,2.86865,1.46484,0.793457,-0.608978,0.593109,-0.295807,0.435608,-14844,10365,-5373,1099,-29879
1914,815247,1.62695,-9.68994,1.10537,-82.9248,-8.9978,-63.1989,3.17383,1.70898,0.732422,-0.609039,0.592987,-0.295807,0.435669,-14847,10365,-5373,1099,-29879
1920,815253,1.63174,-9.67559,1.11494,-82.8918,-8.99231,-63.2208,3.66211,2.2583,0.366211,-0.6091,0.592865,-0.295807,0.43576,-14853,10364,-5369,1099,-29879
1926,815259,1.55996,-9.59902,1.20107,-82.8699,-8.98682,-63.2318,3.479,2.56348,0.793457,-0.609222,0.59259,-0.295837,0.435944,-14854,10362,-5365,1099,-29879
1932,815265,1.60781,-9.68516,1.23457,-82.8534,-8.98132,-63.2428,3.41797,2.01416,0.854492,-0.609283,0.592468,-0.295837,0.436005,-14855,10362,-5363,1099,-29879
1938,815271,1.65566,-9.67559,1.24893,-82.8369,-8.97583,-63.2538,2.92969,2.68555,0.671387,-0.609344,0.592346,-0.295868,0.436096,-14855,10363,-5361,1099,-29879
1944,815277,1.64131,-9.72344,1.17236,-82.8259,-8.97034,-63.2703,2.86865,2.62451,0.976563,-0.609375,0.592194,-0.295898,0.436188,-14855,10363,-5358,1099,-29879
1950,815283,1.66045,-9.72822,1.14365,-82.793,-8.95935,-63.2922,2.92969,2.74658,1.09863,-0.609436,0.592072,-0.295959,0.436279,-14852,10362,-5355,1099,-29879
1956,815289,1.58867,-9.75215,1.20107,-82.7765,-8.95386,-63.3087,2.92969,3.23486,0.915527,-0.609528,0.591797,-0.296051,0.436462,-14849,10361,-5359,1099,-29879
1962,815295,1.61738,-9.67559,1.24893,-82.76,-8.94836,-63.3252,3.17383,3.23486,1.0376,-0.609558,0.591644,-0.296082,0.436554,-14844,10358,-5363,1099,-29879
1968,815301,1.59824,-9.66123,1.20107,-82.7435,-8.94287,-63.3472,2.74658,3.90625,1.28174,-0.609589,0.591492,-0.296173,0.436676,-14840,10355,-5370,1099,-29879
1974,815307,1.60303,-9.65645,1.17236,-82.7271,-8.93738,-63.3691,2.86865,5.12695,0.305176,-0.609589,0.591339,-0.296265,0.436829,-14838,10352,-5378,1099,-29879
1980,815313,1.80879,-9.85264,0.952246,-82.6776,-8.92639,-63.446,5.31006,8.48389,0.610352,-0.609589,0.591125,-0.296387,0.437042,-14835,10350,-5401,1099,-29879
1986,815319,1.47383,-9.77607,1.11494,-82.6392,-8.91541,-63.4845,6.89697,7.87354,1.0376,-0.609711,0.590485,-0.296631,0.437592,-14837,10351,-5415,1099,-29879
1992,815325,1.41641,-9.57031,1.43076,-82.6007,-8.90991,-63.5229,6.5918,7.32422,0.915527,-0.609772,0.590179,-0.296722,0.437836,-14838,10353,-5426,1099,-29879
1998,815331,1.63652,-9.53203,1.28721,-82.5677,-8.90442,-63.5559,5.67627,7.08008,1.0376,-0.609833,0.589905,-0.296844,0.438049,-14837,10356,-5435,1099,-29879
2004,815337,1.68438,-9.71387,1.05752,-82.5403,-8.89343,-63.5999,4.3335,8.48389,0.610352,-0.609833,0.58963,-0.296997,0.438324,-14836,10360,-5440,1099,-29879
2010,815343,1.63652,-9.84785,1.08623,-82.4579,-8.87146,-63.6823,8.8501,8.78906,1.64795,-0.609894,0.589294,-0.297119,0.438568,-14827,10360,-5443,1099,-29879
2016,815349,1.40684,-9.71387,0.861328,-82.4139,-8.86047,-63.7262,8.17871,9.46045,1.34277,-0.610138,0.58847,-0.297363,0.439178,-14822,10358,-5448,1099,-29879
2022,815355,1.26328,-9.79521,1.38291,-82.359,-8.84949,-63.7811,9.82666,10.437,0.915527,-0.610229,0.588013,-0.297485,0.439545,-14820,10356,-5454,1099,-29879
2028,815361,1.06709,-9.66123,1.55518,-82.2986,-8.84399,-63.8361,10.6201,10.9253,-0.305176,-0.610352,0.587555,-0.297577,0.439972,-14820,10355,-5461,1099,-29879
2034,815367,1.17715,-9.52725,1.3877,-82.2491,-8.84399,-63.88,9.46045,8.78906,-0.732422,-0.610443,0.587158,-0.297607,0.440338,-14820,10354,-5469,1099,-29879
2040,815373,1.87578,-9.80479,1.1293,-82.1503,-8.8385,-63.9624,9.33838,8.54492,-0.183105,-0.610565,0.586792,-0.297607,0.440674,-14825,10352,-5487,1099,-29879
2046,815379,1.70352,-9.65645,1.42598,-82.0953,-8.82751,-64.0118,9.82666,10.2539,0.671387,-0.610779,0.585968,-0.29776,0.441376,-14824,10348,-5496,1099,-29879
2052,815385,1.56475,-9.76172,1.39248,-82.0404,-8.81653,-64.0558,10.2539,9.21631,0.793457,-0.610931,0.58551,-0.297852,0.441711,-14823,10345,-5502,1099,-29879
2058,815391,1.64131,-9.60859,1.51689,-81.9855,-8.80554,-64.0997,10.1929,8.30078,1.2207,-0.611084,0.585083,-0.297913,0.442047,-14823,10340,-5508,1099,-29879
2064,815397,1.82314,-9.53203,1.54082,-81.936,-8.79456,-64.1382,8.60596,8.11768,1.64795,-0.611206,0.584686,-0.298004,0.442322,-14821,10334,-5515,1099,-29879
2070,815403,1.75615,-9.75693,1.34941,-81.8536,-8.7616,-64.2151,7.38525,8.17871,2.86865,-0.611328,0.58432,-0.298157,0.442566,-14818,10322,-5526,1099,-29879
2076,815409,1.65566,-9.75215,1.54561,-81.8097,-8.73962,-64.259,7.99561,8.36182,3.41797,-0.611572,0.583527,-0.298462,0.443024,-14815,10316,-5536,1099,-29879
2082,815415,1.63652,-9.7043,1.40205,-81.7657,-8.71765,-64.292,8.23975,7.50732,3.96729,-0.611755,0.58313,-0.298584,0.443207,-14812,10313,-5545,1099,-29879
2088,815421,1.69395,-9.59902,1.45469,-81.7273,-8.69019,-64.325,7.26318,6.89697,4.3335,-0.611908,0.582764,-0.298737,0.443359,-14811,10314,-5554,1099,-29879
2094,815427,1.81357,-9.56553,1.56475,-81.6943,-8.66272,-64.3579,6.53076,7.75146,4.94385,-0.612061,0.582397,-0.29895,0.443512,-14810,10314,-5562,1099,-29879
2100,815433,1.6126,-9.85264,1.49297,-81.6284,-8.60779,-64.4293,5.85938,6.65283,5.5542,-0.612152,0.582031,-0.299194,0.443695,-14806,10311,-5568,1099,-29879
2106,815439,1.77529,-9.8335,1.36377,-81.5955,-8.57483,-64.4623,6.04248,7.01904,6.16455,-0.612457,0.581329,-0.299622,0.443909,-14806,10309,-5572,1099,-29879
2112,815445,1.82793,-9.76172,1.3542,-81.568,-8.53638,-64.4952,5.98145,7.56836,6.46973,-0.61261,0.580963,-0.299866,0.444,-14807,10308,-5573,1099,-29879
2118,815451,1.69395,-9.79043,1.29199,-81.535,-8.50342,-64.5172,5.31006,6.10352,7.01904,-0.612793,0.580658,-0.300079,0.444061,-14806,10307,-5575,1099,-29879
2124,815457,1.86143,-9.96748,1.16758,-81.5131,-8.46497,-64.5447,4.69971,6.53076,7.8125,-0.612946,0.580322,-0.300354,0.444092,-14806,10311,-5579,1099,-29879
2130,815463,1.81836,-10.1493,0.990527,-81.4526,-8.37708,-64.5996,6.10352,5.49316,8.91113,-0.613098,0.579926,-0.300659,0.444153,-14798,10316,-5593,1099,-29879
2136,815469,2.06719,-10.1924,1.16279,-81.4197,-8.32764,-64.6106,7.20215,3.78418,9.82666,-0.613617,0.579224,-0.301086,0.444061,-14795,10318,-5601,1099,-29879
2142,815475,2.40215,-10.1062,0.995313,-81.3922,-8.27271,-64.6216,5.92041,3.72314,12.3291,-0.613922,0.578857,-0.301392,0.443909,-14791,10318,-5605,1099,-29879
2148,815481,2.36865,-10.8049,0.75127,-81.3812,-8.20129,-64.6161,3.54004,1.52588,15.0146,-0.614258,0.578583,-0.301727,0.443634,-14787,10316,-5607,1099,-29879
2154,815487,3.42617,-12.2979,0.153125,-81.3647,-8.1189,-64.5831,5.12695,-3.72314,18.7988,-0.614746,0.578308,-0.301971,0.443115,-14783,10315,-5612,1099,-29879
2160,815493,3.82334,-12.5084,-0.234473,-81.2823,-7.88269,-64.4403,13.7329,-11.1694,30.2734,-0.616486,0.577515,-0.302307,0.441467,-14770,10310,-5629,1099,-29879
2166,815499,4.22529,-13.8243,-0.267969,-81.2219,-7.7124,-64.3195,16.9067,-18.5547,38.8184,-0.617828,0.576965,-0.302429,0.440216,-14763,10309,-5638,1099,-29879
2172,815505,5.1584,-15.9633,0.330176,-81.1395,-7.49817,-64.1492,23.4985,-26.062,50.9644,-0.619629,0.576263,-0.302551,0.438538,-14755,10308,-5648,1099,-29879
2178,815511,5.07705,-15.9011,0.172266,-80.9747,-7.229,-63.9624,40.4053,-28.4424,61.9507,-0.622101,0.575012,-0.302521,0.436707,-14747,10306,-5654,1099,-29879
2184,815517,8.20176,-14.5134,4.43105,-80.7605,-6.92139,-63.7262,51.7578,-35.9497,71.0449,-0.625092,0.573486,-0.302277,0.434631,-14736,10308,-5658,1099,-29879
2190,815523,6.6083,-11.4844,4.87607,-80.3101,-6.1084,-63.4296,44.9219,5.06592,96.0083,-0.631104,0.569183,-0.303864,0.43045,-14709,10314,-5670,1099,-29879
2196,815529,2.08633,-9.91006,1.92363,-80.2386,-5.61951,-63.3856,17.8223,8.78906,103.638,-0.63324,0.567291,-0.306213,0.428131,-14691,10321,-5678,1099,-29879
2202,815535,2.64619,-12.4223,1.65088,-80.2167,-5.13062,-63.2813,7.62939,-2.92969,105.286,-0.635284,0.565857,-0.308472,0.425385,-14674,10327,-5688,1099,-29879
2208,815541,3.7707,-14.8818,1.23457,-80.2167,-4.62524,-63.1879,3.78418,-0.976563,108.398,-0.637238,0.564453,-0.310913,0.422516,-14654,10334,-5695,1099,-29879
2214,815547,5.67998,-16.4849,0.449805,-80.1947,-4.10339,-63.078,8.17871,-3.41797,113.586,-0.639435,0.562897,-0.313324,0.419495,-14631,10346,-5705,1099,-29879
2220,815553,6.27334,-15.0541,0.387598,-79.9915,-3.01575,-62.8857,28.7476,2.68555,117.371,-0.64447,0.558685,-0.317932,0.41394,-14568,10378,-5726,1099,-29879
2226,815559,6.57959,-13.9009,0.291895,-79.8486,-2.47192,-62.8308,32.2876,9.46045,116.882,-0.647034,0.556183,-0.320313,0.411469,-14528,10396,-5735,1099,-29879
2232,815565,6.13457,-12.9534,0.732129,-79.6893,-1.95557,-62.8033,34.9731,13.916,112.183,-0.649475,0.553589,-0.322601,0.409302,-14490,10413,-5747,1099,-29879
2238,815571,7.1873,-10.7044,-0.00957031,-79.5135,-1.49414,-62.7649,38.208,10.1929,101.563,-0.651825,0.551117,-0.324463,0.40741,-14447,10432,-5761,1099,-29879
2244,815577,11.0968,-7.12988,0.282324,-79.3488,-1.07117,-62.7429,36.8652,11.4136,94.9707,-0.653992,0.548798,-0.326172,0.405731,-14402,10450,-5777,1099,-29879
2250,815583,11.8241,-5.80439,-0.124414,-79.162,-0.258179,-62.8748,15.7471,36.438,88.0127,-0.656769,0.544525,-0.330811,0.403198,-14301,10481,-5812,1099,-29879
2256,815589,12.0873,-4.85693,-0.440234,-79.151,0.115356,-63.0341,5.79834,46.936,82.8247,-0.657379,0.542694,-0.333679,0.402344,-14248,10494,-5832,1099,-29879
2262,815595,12.4749,-3.67979,-0.756055,-79.1949,0.450439,-63.2483,-4.39453,56.4575,75.1953,-0.65741,0.541107,-0.336792,0.401855,-14192,10506,-5852,1099,-29879
2268,815601,11.5801,-2.68447,-0.655566,-79.2993,0.752563,-63.5284,-16.2354,68.7256,66.04,-0.656769,0.539795,-0.34021,0.401733,-14142,10516,-5872,1099,-29879
2274,815607,10.7235,-3.87598,-1.54082,-79.4861,0.97229,-63.8416,-32.2266,70.9229,50.7813,-0.655457,0.539154,-0.343567,0.401917,-14091,10527,-5894,1099,-29879
