TimeSinceCollection,Timestamp,AccX,AccY,AccZ,AngleRoll,AnglePitch,AngleYaw,AngularVelX,AngularVelY,AngularVelZ,Q1,Q2,Q3,Q4,MagX,MagY,MagZ,Height,Airpressure
0,19446,1.20586,-9.66602,1.60781,-79.931,-7.11914,-68.8129,0,0.671387,-0.732422,0.608521,-0.555817,0.322968,-0.465149,-16558,14404,-2856,999,-29867
6,19452,1.1915,-9.64688,1.56475,-79.9365,-7.12463,-68.725,0.0610352,0.427246,-0.671387,0.608856,-0.556091,0.32251,-0.464691,-16556,14404,-2869,999,-29867
12,19458,1.21064,-9.6708,1.55039,-79.9365,-7.13013,-68.6755,0.12207,0.854492,-0.549316,0.609009,-0.556244,0.322296,-0.464447,-16557,14405,-2876,999,-29867
18,19464,1.16758,-9.66123,1.55039,-79.9365,-7.13013,-68.6371,0.12207,0.793457,-0.732422,0.609161,-0.556366,0.322083,-0.464233,-16558,14405,-2880,999,-29867
24,19470,1.15801,-9.67559,1.55996,-79.9365,-7.13562,-68.5931,0.244141,0.305176,-0.671387,0.609344,-0.556519,0.321838,-0.46402,-16560,14405,-2885,999,-29867
30,19476,1.24414,-9.68994,1.58867,-79.9365,-7.13562,-68.5492,0.427246,0.610352,-0.488281,0.609497,-0.556641,0.321625,-0.463776,-16563,14405,-2887,999,-29867
36,19482,1.1915,-9.64209,1.54561,-79.9365,-7.14111,-68.4613,0.488281,0.549316,-0.549316,0.609863,-0.556915,0.321167,-0.463318,-16567,14405,-2885,999,-29867
42,19488,1.20586,-9.66602,1.6126,-79.9365,-7.14111,-68.4174,0.427246,0.427246,-0.427246,0.610016,-0.557037,0.320953,-0.463104,-16568,14406,-2886,999,-29867
48,19494,1.13408,-9.64209,1.59824,-79.9365,-7.14111,-68.3734,0.549316,0.671387,-0.549316,0.610199,-0.557159,0.32074,-0.46286,-16568,14405,-2886,999,-29867
54,19500,1.1915,-9.61816,1.63652,-79.9365,-7.14111,-68.3295,0.366211,0.427246,-0.488281,0.610382,-0.557281,0.320496,-0.462646,-16568,14405,-2887,999,-29867
60,19506,1.17715,-9.61338,1.65566,-79.9365,-7.14661,-68.2855,0.244141,0.549316,-0.488281,0.610535,-0.557404,0.320282,-0.462433,-16566,14404,-2883,999,-29867
66,19512,1.16279,-9.62295,1.63652,-79.9365,-7.14661,-68.1976,0.12207,0.549316,-0.610352,0.61087,-0.557678,0.319855,-0.461975,-16567,14402,-2870,999,-29867
72,19518,1.20586,-9.64688,1.62217,-79.942,-7.1521,-68.1537,0.12207,0.305176,-0.610352,0.611023,-0.5578,0.319641,-0.461761,-16568,14403,-2866,999,-29867
78,19524,1.20107,-9.61338,1.59346,-79.942,-7.1521,-68.1097,0.12207,0.488281,-0.732422,0.611176,-0.557953,0.319427,-0.461517,-16567,14402,-2870,999,-29867
84,19530,1.21543,-9.64688,1.59824,-79.942,-7.15759,-68.0713,0.12207,0.427246,-0.915527,0.611359,-0.558075,0.319183,-0.461304,-16566,14400,-2879,999,-29867
90,19536,1.18672,-9.66123,1.60303,-79.942,-7.15759,-68.0273,0.305176,0.427246,-0.671387,0.611511,-0.558197,0.31897,-0.46109,-16566,14399,-2888,999,-29867
96,19542,1.20586,-9.62773,1.58867,-79.942,-7.16858,-67.9395,0.12207,0.305176,-0.915527,0.611816,-0.558472,0.318512,-0.460663,-16571,14397,-2897,999,-29867
102,19548,1.225,-9.65166,1.5791,-79.9475,-7.16858,-67.8955,0,0.610352,-0.854492,0.611969,-0.558624,0.318298,-0.460419,-16575,14399,-2896,999,-29867
108,19554,1.20107,-9.6708,1.59824,-79.9475,-7.16858,-67.8571,-0.0610352,0.610352,-1.0376,0.612122,-0.558746,0.318085,-0.460236,-16578,14400,-2890,999,-29867
114,19560,1.19629,-9.68994,1.59824,-79.9475,-7.17407,-67.8131,0.183105,0.610352,-0.793457,0.612274,-0.558868,0.317871,-0.460022,-16579,14400,-2885,999,-29867
120,19566,1.1915,-9.62773,1.61738,-79.9475,-7.17957,-67.7747,0.244141,0.488281,-1.2207,0.612427,-0.559021,0.317657,-0.459808,-16582,14400,-2878,999,-29867
126,19572,1.19629,-9.62773,1.58867,-79.953,-7.18506,-67.6923,0.12207,0.427246,-0.793457,0.612701,-0.559265,0.3172,-0.459412,-16587,14402,-2862,999,-29867
132,19578,1.18193,-9.6708,1.60781,-79.953,-7.19055,-67.6483,0,0.488281,-0.671387,0.612854,-0.559418,0.317017,-0.459198,-16591,14401,-2859,999,-29867
138,19584,1.15322,-9.63252,1.58389,-79.953,-7.19055,-67.6099,0,0.610352,-0.854492,0.613007,-0.55954,0.316803,-0.458984,-16592,14400,-2861,999,-29867
144,19590,1.18672,-9.62773,1.63652,-79.9585,-7.19604,-67.5714,-0.0610352,0.366211,-0.976563,0.613159,-0.559662,0.316589,-0.458771,-16593,14399,-2865,999,-29867
150,19596,1.21543,-9.63731,1.64131,-79.9585,-7.20154,-67.5275,0.12207,0.488281,-0.671387,0.613281,-0.559814,0.316376,-0.458557,-16593,14398,-2870,999,-29867
156,19602,1.21543,-9.65645,1.60303,-79.964,-7.20703,-67.4451,-0.244141,0.305176,-0.854492,0.613586,-0.560089,0.315948,-0.45813,-16593,14394,-2877,999,-29867
162,19608,1.20107,-9.68037,1.56953,-79.964,-7.21252,-67.4011,0.0610352,0.427246,-0.976563,0.613739,-0.560211,0.315735,-0.457947,-16594,14390,-2874,999,-29867
168,19614,1.19629,-9.64688,1.55039,-79.964,-7.21252,-67.3627,0,0.549316,-1.0376,0.613861,-0.560333,0.315521,-0.457733,-16596,14384,-2868,999,-29867
174,19620,1.19629,-9.68516,1.56953,-79.964,-7.21802,-67.3242,0.305176,0.488281,-1.15967,0.614014,-0.560486,0.315308,-0.45752,-16598,14379,-2863,999,-29867
180,19626,1.19629,-9.64209,1.59824,-79.964,-7.22351,-67.2858,0.427246,0.305176,-1.2207,0.614136,-0.560608,0.315063,-0.457336,-16599,14372,-2857,999,-29867
186,19632,1.24893,-9.65166,1.61738,-79.964,-7.2345,-67.2034,0.366211,0.366211,-0.976563,0.614441,-0.560852,0.314606,-0.45694,-16596,14365,-2852,999,-29867
192,19638,1.25371,-9.63731,1.6126,-79.964,-7.2345,-67.1649,0.244141,0.610352,-0.732422,0.614594,-0.560974,0.314423,-0.456757,-16597,14363,-2851,999,-29867
198,19644,1.24893,-9.68516,1.58389,-79.964,-7.2345,-67.1265,0.244141,0.549316,-0.732422,0.614746,-0.561066,0.314209,-0.456543,-16600,14361,-2852,1007,-29868
204,19650,1.21064,-9.60859,1.5791,-79.964,-7.23999,-67.0825,0.244141,0.488281,-0.976563,0.614899,-0.561188,0.313995,-0.45636,-16602,14360,-2856,1007,-29868
210,19656,1.22021,-9.63252,1.67959,-79.964,-7.24548,-67.0441,0.12207,0.793457,-1.28174,0.615021,-0.56131,0.313782,-0.456146,-16605,14359,-2866,1007,-29868
216,19662,1.26328,-9.68037,1.55518,-79.9695,-7.25098,-66.9727,0,0.610352,-0.549316,0.615295,-0.561554,0.313385,-0.45578,-16605,14359,-2886,999,-29867
222,19668,1.24414,-9.71387,1.57432,-79.9695,-7.25098,-66.9342,0,0.793457,-0.671387,0.615417,-0.561676,0.313171,-0.455566,-16603,14360,-2897,999,-29867
228,19674,1.23936,-9.69473,1.57432,-79.9695,-7.25647,-66.8958,0,0.549316,-0.549316,0.61557,-0.561798,0.312988,-0.455383,-16602,14361,-2905,999,-29867
234,19680,1.25371,-9.67559,1.59824,-79.9695,-7.25647,-66.8573,0.12207,0.488281,-0.427246,0.615692,-0.56192,0.312805,-0.45517,-16599,14361,-2914,999,-29867
240,19686,1.22021,-9.62773,1.59824,-79.975,-7.26196,-66.7804,0,0.610352,-0.549316,0.615845,-0.562042,0.312592,-0.454987,-16596,14362,-2920,999,-29867
246,19692,1.20107,-9.66123,1.60303,-79.975,-7.26196,-66.7419,0.0610352,0.427246,-0.366211,0.616119,-0.562286,0.312225,-0.454559,-16595,14358,-2918,999,-29867
252,19698,1.21064,-9.63252,1.56953,-79.975,-7.26196,-66.7035,0,0.305176,-0.305176,0.616272,-0.562408,0.312012,-0.454346,-16598,14355,-2913,999,-29867
258,19704,1.225,-9.6708,1.56953,-79.9805,-7.26746,-66.6595,0,0.305176,-0.366211,0.616425,-0.562531,0.311829,-0.454132,-16602,14351,-2910,999,-29867
264,19710,1.20586,-9.63252,1.58389,-79.9805,-7.26746,-66.6211,0.366211,0.305176,-0.488281,0.616547,-0.562622,0.311646,-0.453949,-16605,14349,-2906,999,-29867
270,19716,1.19629,-9.63252,1.58867,-79.9805,-7.26746,-66.5442,0.12207,0.427246,-0.488281,0.616699,-0.562744,0.311432,-0.453735,-16607,14347,-2905,999,-29867
276,19722,1.19629,-9.63252,1.62695,-79.9805,-7.27295,-66.5057,0.12207,0.488281,-0.610352,0.616974,-0.562988,0.311035,-0.453339,-16611,14347,-2898,999,-29867
282,19728,1.20107,-9.5751,1.64609,-79.9805,-7.27295,-66.4673,0,0.610352,-0.854492,0.617126,-0.56311,0.310852,-0.453156,-16612,14345,-2892,999,-29867
288,19734,1.21543,-9.60381,1.68916,-79.986,-7.27844,-66.4343,-0.183105,0.305176,-0.549316,0.617249,-0.563202,0.310638,-0.452972,-16611,14343,-2886,999,-29867
294,19740,1.1915,-9.61338,1.63652,-79.986,-7.27844,-66.3959,-0.12207,0.366211,-1.0376,0.617371,-0.563324,0.310455,-0.452759,-16614,14342,-2879,999,-29867
300,19746,1.17715,-9.62295,1.65566,-79.9915,-7.28943,-66.319,-0.366211,0.244141,-0.976563,0.617493,-0.563477,0.310272,-0.452576,-16615,14343,-2874,999,-29867
306,19752,1.22979,-9.63252,1.60303,-79.9969,-7.29492,-66.2805,-0.366211,0.366211,-1.09863,0.617737,-0.563721,0.309875,-0.452179,-16611,14340,-2862,999,-29867
312,19758,1.23457,-9.60859,1.58867,-79.9969,-7.30042,-66.2421,-0.366211,0.488281,-0.732422,0.617859,-0.563873,0.309662,-0.451996,-16608,14338,-2858,999,-29867
318,19764,1.21543,-9.64209,1.6126,-80.0024,-7.30042,-66.2091,-0.488281,0.305176,-1.09863,0.617981,-0.563995,0.309479,-0.451782,-16608,14336,-2852,999,-29867
324,19770,1.23936,-9.61338,1.62695,-80.0079,-7.30591,-66.1707,-0.305176,0.305176,-0.915527,0.618103,-0.564117,0.309296,-0.451599,-16608,14334,-2848,999,-29867
330,19776,1.25371,-9.64209,1.59346,-80.0134,-7.3114,-66.0938,-0.305176,0.244141,-1.15967,0.618225,-0.56427,0.309082,-0.451416,-16612,14336,-2847,1007,-29868
336,19782,1.22021,-9.67559,1.58867,-80.0134,-7.31689,-66.0608,-0.183105,0.488281,-1.09863,0.618439,-0.564514,0.308685,-0.45105,-16620,14338,-2844,1007,-29868
342,19788,1.20586,-9.64688,1.57432,-80.0134,-7.32239,-66.0223,-0.183105,0.427246,-0.732422,0.618561,-0.564636,0.308502,-0.450867,-16622,14338,-2846,1007,-29868
348,19794,1.26328,-9.65645,1.59824,-80.0189,-7.32788,-65.9894,-0.244141,0.610352,-0.854492,0.618683,-0.564758,0.308319,-0.450684,-16623,14337,-2848,1007,-29868
354,19800,1.225,-9.67559,1.55996,-80.0189,-7.32788,-65.9509,-0.183105,0.427246,-0.671387,0.618805,-0.56488,0.308136,-0.4505,-16623,14336,-2849,1007,-29868
360,19806,1.24893,-9.69473,1.57432,-80.0244,-7.33337,-65.8795,-0.0610352,0.244141,-0.915527,0.618927,-0.565002,0.307953,-0.450317,-16624,14337,-2851,1007,-29868
366,19812,1.21543,-9.64688,1.55518,-80.0244,-7.33887,-65.8411,0.427246,0.427246,-0.854492,0.619171,-0.565216,0.307556,-0.449921,-16626,14340,-2856,1007,-29868
372,19818,1.21543,-9.64209,1.55996,-80.0244,-7.33887,-65.8081,0.0610352,0.305176,-0.732422,0.619293,-0.565308,0.307373,-0.449768,-16628,14341,-2860,1007,-29868
378,19824,1.26328,-9.65166,1.57432,-80.0244,-7.34436,-65.7697,0.12207,0.427246,-0.671387,0.619415,-0.56543,0.30719,-0.449585,-16632,14342,-2866,1007,-29868
384,19830,1.26807,-9.68516,1.53604,-80.0244,-7.34436,-65.7367,0.12207,0.305176,-0.915527,0.619568,-0.565552,0.306976,-0.449402,-16633,14343,-2868,1007,-29868
390,19836,1.26807,-9.67559,1.57432,-80.0244,-7.35535,-65.6653,0.427246,0.366211,-0.732422,0.61969,-0.565643,0.306793,-0.449219,-16636,14346,-2870,1007,-29868
396,19842,1.20107,-9.56074,1.63174,-80.0244,-7.35535,-65.6323,0.732422,-0.12207,-0.549316,0.619934,-0.565857,0.306396,-0.448883,-16637,14349,-2873,1007,-29868
402,19848,1.22979,-9.56553,1.65088,-80.0244,-7.36084,-65.5939,0.12207,0.549316,-1.0376,0.620087,-0.565948,0.306183,-0.448669,-16638,14350,-2879,1007,-29868
408,19854,1.24893,-9.64688,1.61738,-80.0244,-7.36633,-65.5609,0.0610352,0.183105,-0.976563,0.620209,-0.566071,0.306,-0.448517,-16639,14350,-2881,1007,-29868
414,19860,1.23457,-9.62773,1.6126,-80.0244,-7.36633,-65.5225,0.0610352,0.671387,-1.09863,0.620331,-0.566193,0.305817,-0.448334,-16638,14349,-2878,1007,-29868
420,19866,1.22979,-9.66602,1.62695,-80.0244,-7.37732,-65.4565,0.0610352,0.549316,-1.40381,0.620422,-0.566284,0.305634,-0.448181,-16638,14343,-2871,1007,-29868
426,19872,1.27764,-9.62773,1.5791,-80.0299,-7.38281,-65.4236,0.0610352,0.671387,-0.976563,0.620636,-0.566528,0.305237,-0.447845,-16639,14337,-2867,1007,-29868
432,19878,1.29678,-9.6708,1.56475,-80.0299,-7.38831,-65.3906,-0.244141,0.305176,-1.0376,0.620758,-0.56662,0.305054,-0.447693,-16639,14334,-2865,1007,-29868
438,19884,1.31592,-9.66123,1.58389,-80.0299,-7.3938,-65.3522,-0.183105,0.488281,-0.915527,0.62088,-0.566742,0.304871,-0.44751,-16640,14330,-2863,1007,-29868
444,19890,1.2585,-9.68994,1.58867,-80.0354,-7.3938,-65.3192,0.0610352,0.244141,-0.610352,0.620972,-0.566864,0.304688,-0.447357,-16643,14329,-2863,1007,-29868
450,19896,1.28242,-9.67559,1.5791,-80.0354,-7.40479,-65.2533,-0.12207,0.488281,-1.2207,0.621094,-0.566956,0.304504,-0.447174,-16649,14327,-2870,1007,-29868
456,19902,1.30635,-9.65645,1.59824,-80.0354,-7.40479,-65.2148,0.0610352,0.305176,-0.732422,0.621307,-0.5672,0.304108,-0.446838,-16649,14325,-2871,1007,-29868
462,19908,1.28721,-9.65166,1.5791,-80.0409,-7.41028,-65.1819,0,0.183105,-0.610352,0.621429,-0.567291,0.303925,-0.446655,-16648,14323,-2872,1007,-29868
468,19914,1.29199,-9.69951,1.58867,-80.0409,-7.41028,-65.1489,0.12207,0.183105,-0.244141,0.621552,-0.567413,0.303741,-0.446472,-16646,14321,-2875,1007,-29868
474,19920,1.25371,-9.69951,1.56953,-80.0409,-7.41577,-65.1105,0.305176,0.305176,-0.366211,0.621674,-0.567505,0.303589,-0.446289,-16644,14320,-2874,1007,-29868
480,19926,1.29199,-9.64209,1.58389,-80.0409,-7.41577,-65.0446,0.366211,0.244141,-0.244141,0.621826,-0.567596,0.303406,-0.446106,-16638,14313,-2873,1007,-29868
486,19932,1.2585,-9.61816,1.59824,-80.0409,-7.41577,-65.0116,0.366211,0.305176,-0.12207,0.62207,-0.56778,0.30304,-0.44574,-16639,14311,-2874,1007,-29868
492,19938,1.26328,-9.6708,1.6126,-80.0409,-7.41577,-64.9731,0.549316,0.244141,-0.610352,0.622223,-0.567871,0.302887,-0.445557,-16638,14311,-2874,1007,-29868
498,19944,1.29678,-9.65166,1.60303,-80.0409,-7.42126,-64.9402,0.488281,0.12207,0.244141,0.622345,-0.567963,0.302673,-0.445374,-16639,14312,-2877,1007,-29868
504,19950,1.26328,-9.60381,1.67959,-80.0409,-7.41577,-64.9072,0.549316,0.610352,-0.0610352,0.622498,-0.568054,0.302521,-0.44519,-16640,14315,-2880,1007,-29868
510,19956,1.22021,-9.62773,1.62695,-80.0354,-7.41577,-64.8413,0.427246,0.244141,0.12207,0.62262,-0.568115,0.302368,-0.445007,-16640,14312,-2888,1007,-29868
516,19962,1.25371,-9.61338,1.62695,-80.0354,-7.41577,-64.8029,0.183105,0.427246,-0.12207,0.622894,-0.568298,0.302002,-0.444641,-16640,14311,-2888,1007,-29868
522,19968,1.24893,-9.59902,1.6126,-80.0354,-7.41577,-64.7699,0.305176,0.183105,0,0.623016,-0.56839,0.301849,-0.444458,-16640,14309,-2887,1007,-29868
528,19974,1.24893,-9.63252,1.6126,-80.0354,-7.41577,-64.7369,0.244141,0.366211,-0.305176,0.623169,-0.568481,0.301697,-0.444275,-16640,14308,-2888,1007,-29868
534,19980,1.225,-9.62295,1.6126,-80.0354,-7.41577,-64.704,0.183105,0.488281,-0.305176,0.623291,-0.568573,0.301514,-0.444092,-16641,14308,-2886,1007,-29868
540,19986,1.225,-9.63252,1.58867,-80.0354,-7.42126,-64.6381,0.183105,0.366211,-0.244141,0.623413,-0.568665,0.301361,-0.443939,-16643,14312,-2881,1007,-29868
546,19992,1.30635,-9.64688,1.62217,-80.0354,-7.42126,-64.6051,0.183105,0.427246,-0.12207,0.623657,-0.568848,0.301025,-0.443573,-16644,14313,-2878,1007,-29868
552,19998,1.27285,-9.64688,1.61738,-80.0354,-7.42126,-64.5776,0.244141,0.366211,-0.366211,0.623779,-0.568939,0.300842,-0.44339,-16645,14316,-2877,1007,-29868
558,20004,1.23457,-9.66123,1.59346,-80.0354,-7.42126,-64.5447,0.305176,0.610352,-0.183105,0.623901,-0.569031,0.30069,-0.443237,-16647,14320,-2884,1007,-29868
564,20010,1.25371,-9.66123,1.5791,-80.0354,-7.42126,-64.5117,0.366211,0.427246,-0.244141,0.624023,-0.569092,0.300537,-0.443054,-16649,14325,-2893,1007,-29868
570,20016,1.27764,-9.65645,1.56953,-80.0354,-7.42126,-64.4458,0.183105,0.183105,-0.12207,0.624146,-0.569183,0.300354,-0.442902,-16650,14329,-2903,1007,-29868
576,20022,1.25371,-9.65166,1.60303,-80.0354,-7.42676,-64.4128,0.488281,0.610352,-0.12207,0.62439,-0.569366,0.300018,-0.442535,-16648,14330,-2899,1007,-29868
582,20028,1.24414,-9.65645,1.58867,-80.0354,-7.42676,-64.3854,0.488281,0.366211,-0.0610352,0.624512,-0.569427,0.299866,-0.442383,-16647,14330,-2894,1007,-29868
588,20034,1.28242,-9.63731,1.56475,-80.0354,-7.42676,-64.3524,0.488281,0.488281,-0.427246,0.624634,-0.569519,0.299713,-0.4422,-16648,14330,-2892,1007,-29868
594,20040,1.28242,-9.73301,1.56475,-80.0354,-7.42676,-64.3195,0.488281,-0.0610352,0,0.624756,-0.56958,0.29953,-0.442047,-16650,14329,-2887,1007,-29868
600,20046,1.23457,-9.57988,1.48818,-80.0299,-7.42676,-64.259,0.488281,0.732422,-0.305176,0.624878,-0.569672,0.299377,-0.441864,-16654,14323,-2877,1007,-29868
606,20052,1.26807,-9.63252,1.62217,-80.0299,-7.42676,-64.2261,0.488281,0.854492,-0.183105,0.625122,-0.569824,0.299042,-0.441559,-16656,14320,-2875,1007,-29868
612,20058,1.20586,-9.63252,1.62695,-80.0299,-7.42676,-64.1986,0.427246,0.793457,-0.244141,0.625244,-0.569885,0.298889,-0.441406,-16658,14317,-2876,1007,-29868
618,20064,1.22021,-9.58945,1.71309,-80.0299,-7.43225,-64.1656,0.732422,0.793457,-0.366211,0.625366,-0.569977,0.298737,-0.441254,-16660,14315,-2880,1007,-29868
624,20070,1.225,-9.56553,1.67959,-80.0244,-7.43225,-64.1382,0.305176,0.549316,-0.671387,0.625488,-0.570038,0.298584,-0.441101,-16661,14314,-2884,1007,-29868
630,20076,1.24893,-9.57031,1.65088,-80.0244,-7.43774,-64.0778,0.12207,0.793457,-0.671387,0.62558,-0.570129,0.298431,-0.440948,-16665,14315,-2889,1007,-29868
636,20082,1.27285,-9.69473,1.59346,-80.0244,-7.43774,-64.0503,-0.183105,0.610352,-0.488281,0.625793,-0.570282,0.298126,-0.440643,-16665,14317,-2885,1007,-29868
642,20088,1.25371,-9.65166,1.56953,-80.0299,-7.43774,-64.0228,0.244141,0.793457,-0.793457,0.625885,-0.570374,0.297974,-0.440491,-16664,14318,-2883,1007,-29868
648,20094,1.2585,-9.65645,1.63174,-80.0299,-7.44324,-63.9954,0.183105,0.610352,-0.610352,0.625977,-0.570465,0.297821,-0.440338,-16663,14318,-2879,1007,-29868
654,20100,1.3207,-9.65645,1.63652,-80.0299,-7.44324,-63.9624,0.12207,0.671387,-0.488281,0.626099,-0.570557,0.297668,-0.440186,-16662,14319,-2877,1007,-29868
660,20106,1.23936,-9.6708,1.58867,-80.0299,-7.44873,-63.9075,0.12207,0.671387,-0.671387,0.626282,-0.570709,0.297363,-0.439911,-16662,14320,-2873,1007,-29868
666,20112,1.30156,-9.68516,1.59824,-80.0299,-7.44873,-63.88,0.305176,0.671387,-0.305176,0.626404,-0.570801,0.29718,-0.439758,-16663,14322,-2870,1007,-29868
672,20118,1.28721,-9.67559,1.55518,-80.0299,-7.44873,-63.8525,0.366211,0.610352,-0.366211,0.626495,-0.570862,0.297058,-0.439606,-16663,14322,-2865,1007,-29868
678,20124,1.25371,-9.66123,1.58867,-80.0299,-7.44873,-63.8196,0.488281,0.183105,-0.12207,0.626617,-0.570923,0.296906,-0.439453,-16664,14320,-2864,1007,-29868
684,20130,1.28721,-9.65166,1.56475,-80.0244,-7.44873,-63.7921,0.244141,0.671387,-0.244141,0.62674,-0.571014,0.296722,-0.439301,-16663,14318,-2863,1007,-29868
690,20136,1.28242,-9.6708,1.57432,-80.0244,-7.45422,-63.7372,0.976563,0.732422,-0.12207,0.626984,-0.571136,0.296448,-0.438995,-16662,14314,-2868,1007,-29868
696,20142,1.26328,-9.61338,1.65088,-80.0189,-7.45422,-63.7097,1.0376,0.793457,-0.305176,0.627106,-0.571198,0.296295,-0.438843,-16662,14316,-2871,1007,-29868
702,20148,1.22021,-9.56553,1.67959,-80.0134,-7.45422,-63.6823,1.09863,0.732422,-0.427246,0.627228,-0.571259,0.296143,-0.438721,-16662,14318,-2880,1007,-29868
708,20154,1.22979,-9.59902,1.71309,-80.0134,-7.45422,-63.6548,1.0376,0.671387,-0.488281,0.62735,-0.571289,0.295959,-0.438568,-16663,14320,-2884,1007,-29868
714,20160,1.26328,-9.59902,1.61738,-80.0079,-7.45422,-63.6218,0.549316,0.244141,-0.366211,0.627472,-0.57135,0.295807,-0.438446,-16665,14321,-2887,1007,-29868
720,20166,1.29678,-9.57031,1.54082,-80.0024,-7.45972,-63.5669,0.488281,0.793457,-0.366211,0.627686,-0.571503,0.295502,-0.438141,-16668,14322,-2892,1007,-29868
726,20172,1.34941,-9.72344,1.57432,-80.0024,-7.45972,-63.5394,0.732422,0.854492,0,0.627777,-0.571564,0.295349,-0.438019,-16669,14323,-2895,1007,-29868
732,20178,1.30156,-9.60381,1.5791,-80.0024,-7.45972,-63.512,0.854492,1.0376,-0.12207,0.627899,-0.571625,0.295197,-0.437866,-16669,14325,-2901,1007,-29868
738,20184,1.26328,-9.60859,1.7083,-79.9969,-7.45972,-63.4845,0.732422,1.09863,0,0.628021,-0.571655,0.295074,-0.437744,-16667,14324,-2904,1007,-29868
744,20190,1.28721,-9.61816,1.65566,-79.9969,-7.45972,-63.4625,0.488281,0.976563,-0.244141,0.628143,-0.571716,0.294922,-0.437592,-16667,14324,-2915,1007,-29868
750,20196,1.33506,-9.66123,1.63174,-79.9915,-7.45972,-63.4076,0.12207,0.732422,-0.366211,0.628326,-0.571838,0.294647,-0.437317,-16668,14322,-2929,1007,-29868
756,20202,1.28721,-9.6708,1.60303,-79.9915,-7.45972,-63.3856,0.183105,1.09863,0.244141,0.628448,-0.571899,0.294525,-0.437164,-16668,14322,-2934,1007,-29868
762,20208,1.225,-9.65645,1.64131,-79.9915,-7.45422,-63.3582,0.488281,1.15967,0,0.62854,-0.57196,0.294434,-0.437012,-16668,14323,-2933,1007,-29868
768,20214,1.22021,-9.63731,1.65566,-79.9915,-7.45422,-63.3307,0.183105,0.793457,0,0.628632,-0.572021,0.294281,-0.43689,-16669,14325,-2929,1007,-29868
774,20220,1.24414,-9.63252,1.64609,-79.9915,-7.45422,-63.3087,0.244141,0.610352,0.183105,0.628754,-0.572083,0.294159,-0.436737,-16669,14326,-2923,1007,-29868
780,20226,1.27764,-9.63731,1.59824,-79.9915,-7.45422,-63.2538,0,0.549316,-0.12207,0.628967,-0.572235,0.293915,-0.436432,-16672,14325,-2927,1007,-29868
786,20232,1.26807,-9.66602,1.60303,-79.9915,-7.45422,-63.2263,0.183105,0.671387,-0.12207,0.629059,-0.572296,0.293793,-0.436279,-16672,14326,-2928,1016,-29869
792,20238,1.21064,-9.69473,1.53604,-79.9969,-7.45422,-63.1989,0.488281,0.305176,0.12207,0.62915,-0.572357,0.29364,-0.436127,-16673,14327,-2930,1016,-29869
798,20244,1.22979,-9.65166,1.51211,-79.9915,-7.45422,-63.1714,0.610352,0.488281,-0.183105,0.629272,-0.572418,0.293518,-0.435974,-16675,14328,-2932,1016,-29869
804,20250,1.21064,-9.59424,1.6126,-79.9915,-7.45422,-63.1439,1.0376,1.15967,-0.12207,0.629395,-0.572479,0.293365,-0.435822,-16676,14330,-2932,1016,-29869
810,20256,1.23936,-9.57031,1.68438,-79.986,-7.45422,-63.0945,0.976563,0.671387,-0.12207,0.629608,-0.572571,0.293091,-0.435577,-16681,14331,-2934,1016,-29869
816,20262,1.23457,-9.57988,1.62695,-79.9805,-7.45422,-63.0725,0.305176,1.40381,-0.427246,0.6297,-0.572632,0.292969,-0.435455,-16683,14328,-2932,1016,-29869
822,20268,1.21543,-9.69473,1.6748,-79.9805,-7.45422,-63.0505,0.610352,1.0376,-0.488281,0.629791,-0.572662,0.292847,-0.435333,-16686,14326,-2930,1016,-29869
828,20274,1.28242,-9.5751,1.69395,-79.975,-7.45422,-63.0231,0.915527,0.915527,-0.488281,0.629883,-0.572723,0.292694,-0.435211,-16689,14326,-2929,1016,-29869
834,20280,1.22979,-9.50332,1.78008,-79.975,-7.45422,-63.0011,0.671387,1.28174,-0.671387,0.630005,-0.572784,0.292572,-0.43512,-16692,14325,-2927,1016,-29869
840,20286,1.24414,-9.57031,1.7418,-79.975,-7.45972,-62.9572,-0.305176,1.34277,-0.915527,0.630157,-0.572906,0.292297,-0.434906,-16691,14327,-2930,1016,-29869
846,20292,1.24893,-9.59424,1.7083,-79.975,-7.46521,-62.9352,-0.671387,1.2207,-1.2207,0.630219,-0.572968,0.292206,-0.434784,-16690,14326,-2934,1016,-29869
852,20298,1.26807,-9.59424,1.68438,-79.9805,-7.4707,-62.9132,-0.549316,1.28174,-1.34277,0.63028,-0.573059,0.292053,-0.434662,-16690,14325,-2935,1016,-29869
858,20304,1.28242,-9.57988,1.62217,-79.9805,-7.4762,-62.8912,-0.793457,1.2207,-1.28174,0.63031,-0.573151,0.291931,-0.43457,-16690,14322,-2937,1016,-29869
864,20310,1.27285,-9.67559,1.62217,-79.986,-7.4762,-62.8693,-0.976563,1.09863,-1.34277,0.630371,-0.573242,0.291809,-0.434448,-16691,14317,-2936,1016,-29869
870,20316,1.33027,-9.71865,1.49297,-79.9915,-7.48718,-62.8253,-0.732422,0.976563,-0.976563,0.630463,-0.573425,0.291565,-0.434235,-16691,14310,-2940,1016,-29869
876,20322,1.3877,-9.72822,1.48818,-79.9969,-7.49268,-62.8033,-0.671387,0.610352,-0.854492,0.630524,-0.573517,0.291443,-0.434113,-16690,14307,-2945,1016,-29869
882,20328,1.44033,-9.77607,1.53604,-80.0024,-7.49268,-62.7759,-0.549316,0.793457,-0.305176,0.630585,-0.573608,0.291321,-0.43399,-16690,14303,-2948,1016,-29869
888,20334,1.40205,-9.82393,1.49775,-80.0024,-7.49817,-62.7539,-0.0610352,0.732422,0.610352,0.630646,-0.5737,0.291199,-0.433838,-16690,14302,-2947,1016,-29869
894,20340,1.44033,-9.85264,1.27764,-80.0079,-7.49268,-62.7264,0.0610352,0.183105,0.854492,0.630737,-0.573761,0.291107,-0.433685,-16688,14300,-2945,1016,-29869
900,20346,1.37334,-9.78564,1.53604,-80.0079,-7.48169,-62.6715,0.854492,0.366211,1.34277,0.631012,-0.573853,0.290894,-0.43335,-16690,14301,-2940,1007,-29868
906,20352,1.26807,-9.56553,1.73223,-79.9969,-7.4707,-62.644,1.77002,0.610352,1.89209,0.631165,-0.573853,0.290771,-0.433167,-16691,14305,-2942,1007,-29868
912,20358,1.19629,-9.47461,1.85186,-79.9915,-7.46521,-62.6221,0.915527,0.305176,1.58691,0.631317,-0.573853,0.29068,-0.433014,-16692,14307,-2943,1007,-29868
918,20364,1.24414,-9.53203,1.83271,-79.986,-7.45422,-62.5946,0.183105,0.305176,1.58691,0.63147,-0.573883,0.290558,-0.432831,-16693,14308,-2941,1016,-29869
924,20370,1.29678,-9.55596,1.7418,-79.9915,-7.44324,-62.5342,-0.488281,0.0610352,1.46484,0.631592,-0.573944,0.290466,-0.432648,-16690,14309,-2937,1016,-29869
930,20376,1.24893,-9.6708,1.63652,-79.9969,-7.43225,-62.5067,-0.671387,0,1.40381,0.631836,-0.574097,0.290314,-0.43222,-16683,14302,-2921,1016,-29869
936,20382,1.26807,-9.67559,1.62695,-80.0024,-7.42676,-62.4792,-0.610352,-0.12207,1.46484,0.631927,-0.574158,0.290222,-0.432037,-16680,14301,-2917,1016,-29869
942,20388,1.27285,-9.60381,1.66523,-80.0079,-7.42126,-62.4518,-0.671387,-0.305176,1.46484,0.63205,-0.574249,0.290131,-0.431824,-16679,14301,-2916,1016,-29869
948,20394,1.36377,-9.69951,1.67002,-80.0134,-7.41577,-62.4188,-0.549316,-0.244141,1.89209,0.632141,-0.57431,0.290039,-0.43161,-16678,14302,-2914,1016,-29869
954,20400,1.42598,-9.74736,1.45469,-80.0189,-7.3938,-62.3584,-0.610352,-0.427246,2.19727,0.632263,-0.574402,0.289948,-0.431396,-16680,14305,-2919,1016,-29869
960,20406,1.40205,-9.87656,1.44512,-80.0244,-7.38281,-62.3254,0.610352,-0.488281,3.35693,0.632538,-0.574524,0.289825,-0.430939,-16680,14309,-2927,1016,-29869
966,20412,1.3542,-9.69951,1.61738,-80.0244,-7.36633,-62.2925,1.2207,-0.488281,3.84521,0.632721,-0.574554,0.289734,-0.430695,-16680,14311,-2932,1016,-29869
972,20418,1.29199,-9.57031,1.7083,-80.0189,-7.34985,-62.2595,0.732422,-0.427246,3.479,0.632904,-0.574585,0.289673,-0.43042,-16677,14314,-2939,1016,-29869
978,20424,1.20586,-9.59902,1.69873,-80.0189,-7.33337,-62.2321,-0.183105,-0.305176,3.96729,0.633087,-0.574585,0.289581,-0.430176,-16675,14315,-2947,1016,-29869
984,20430,1.30156,-9.71865,1.55518,-80.0244,-7.29492,-62.1661,-0.305176,-0.793457,4.08936,0.63324,-0.574646,0.289551,-0.429932,-16674,14317,-2953,1016,-29869
990,20436,1.33506,-9.80479,1.49775,-80.0299,-7.27844,-62.1277,1.0376,-0.549316,4.39453,0.633606,-0.574738,0.289459,-0.429352,-16669,14322,-2954,1016,-29869
996,20442,1.27764,-9.68516,1.55039,-80.0244,-7.25647,-62.0947,1.52588,-0.854492,4.63867,0.633789,-0.574738,0.289398,-0.429108,-16668,14325,-2950,1016,-29869
1002,20448,1.24414,-9.64209,1.65566,-80.0189,-7.23999,-62.0618,1.46484,-0.610352,4.45557,0.634003,-0.574738,0.289337,-0.428833,-16665,14330,-2951,1016,-29869
1008,20454,1.21543,-9.61816,1.65088,-80.0134,-7.21802,-62.0288,1.2207,-0.732422,4.39453,0.634216,-0.574707,0.289246,-0.428558,-16664,14332,-2952,1016,-29869
1014,20460,1.17715,-9.63731,1.55039,-80.0079,-7.17957,-61.9574,1.2207,-1.15967,4.69971,0.63443,-0.574738,0.289185,-0.428284,-16664,14335,-2955,1016,-29869
1020,20466,1.22021,-9.66602,1.5791,-80.0024,-7.15759,-61.9244,1.95313,-0.915527,4.82178,0.634888,-0.574738,0.289032,-0.427734,-16661,14343,-2961,1016,-29869
1026,20472,1.14844,-9.64209,1.62695,-79.9969,-7.13562,-61.8915,2.13623,-0.732422,4.15039,0.635101,-0.574707,0.288971,-0.42746,-16661,14348,-2959,1016,-29869
1032,20478,1.14365,-9.62295,1.62695,-79.9915,-7.11914,-61.853,1.95313,-1.15967,4.69971,0.635345,-0.574707,0.288879,-0.427185,-16657,14353,-2958,1007,-29868
1038,20484,1.15801,-9.68037,1.6126,-79.986,-7.09717,-61.8201,1.89209,-1.0376,4.27246,0.635559,-0.574677,0.288818,-0.42691,-16655,14358,-2956,1007,-29868
1044,20490,1.16279,-9.63731,1.6126,-79.9695,-7.05872,-61.7487,2.31934,-0.915527,4.15039,0.635803,-0.574677,0.288727,-0.426666,-16648,14361,-2940,1007,-29868
1050,20496,1.20107,-9.68994,1.59346,-79.9585,-7.04224,-61.7157,2.86865,-1.0376,4.02832,0.636261,-0.574646,0.288544,-0.426147,-16645,14360,-2932,1007,-29868
1056,20502,1.22021,-9.64688,1.53125,-79.9475,-7.02026,-61.6827,2.68555,-0.732422,4.21143,0.636475,-0.574615,0.288422,-0.425903,-16644,14361,-2926,1007,-29868
1062,20508,1.14844,-9.67559,1.58867,-79.9365,-7.00378,-61.6498,3.17383,-0.671387,4.3335,0.636719,-0.574554,0.28833,-0.425659,-16641,14365,-2927,1007,-29868
1068,20514,1.12451,-9.65166,1.69873,-79.9255,-6.98181,-61.6168,3.66211,-0.793457,4.15039,0.636963,-0.574524,0.288239,-0.425446,-16638,14367,-2932,1007,-29868
1074,20520,1.09102,-9.52725,1.78008,-79.8981,-6.94885,-61.5509,3.41797,-0.915527,3.66211,0.637238,-0.574463,0.288147,-0.425201,-16629,14371,-2938,1007,-29868
1080,20526,1.09102,-9.53203,1.77051,-79.8816,-6.93237,-61.5179,2.19727,-0.549316,3.23486,0.637695,-0.574371,0.287903,-0.424744,-16625,14374,-2940,1007,-29868
1086,20532,1.04316,-9.59902,1.67959,-79.8761,-6.91589,-61.4905,2.38037,-0.732422,2.99072,0.637909,-0.574371,0.287811,-0.42453,-16618,14376,-2936,1007,-29868
1092,20538,1.05752,-9.60859,1.71309,-79.8651,-6.90491,-61.4575,2.68555,-0.732422,2.74658,0.638123,-0.574341,0.287689,-0.424316,-16610,14382,-2938,1007,-29868
1098,20544,1.07187,-9.57031,1.7083,-79.8541,-6.89392,-61.4301,2.62451,-0.671387,2.56348,0.638336,-0.57431,0.287567,-0.424133,-16604,14385,-2942,1007,-29868
1104,20550,1.11494,-9.60381,1.7083,-79.8322,-6.87195,-61.3696,2.31934,-0.671387,2.2583,0.638519,-0.57431,0.287445,-0.42392,-16596,14389,-2946,1007,-29868
1110,20556,1.17236,-9.64209,1.63652,-79.8267,-6.86096,-61.3367,2.13623,-0.732422,1.89209,0.638916,-0.57428,0.287201,-0.423553,-16594,14389,-2944,1007,-29868
1116,20562,1.16279,-9.64209,1.63652,-79.8157,-6.84998,-61.3092,2.2583,-0.366211,2.0752,0.639099,-0.57428,0.287079,-0.42337,-16592,14390,-2940,1007,-29868
1122,20568,1.0958,-9.60859,1.65088,-79.8047,-6.83899,-61.2817,2.19727,0,1.58691,0.639282,-0.574249,0.286957,-0.423187,-16588,14389,-2932,1007,-29868
1128,20574,1.04795,-9.62773,1.72266,-79.7992,-6.8335,-61.2543,2.44141,-0.488281,1.58691,0.639435,-0.574249,0.286835,-0.423035,-16585,14390,-2926,1007,-29868
1134,20580,1.07187,-9.56553,1.71787,-79.7772,-6.81702,-61.1993,2.31934,-0.549316,1.64795,0.639618,-0.574249,0.286682,-0.422882,-16581,14387,-2912,1007,-29868
1140,20586,1.14365,-9.60859,1.69873,-79.7662,-6.81702,-61.1719,1.89209,-0.12207,1.58691,0.639954,-0.574249,0.286407,-0.422546,-16579,14387,-2910,1016,-29869
1146,20592,1.15801,-9.67559,1.6748,-79.7607,-6.80603,-61.1444,2.01416,-0.12207,1.09863,0.640106,-0.574249,0.286316,-0.422394,-16576,14387,-2910,1016,-29869
1152,20598,1.17715,-9.69473,1.59346,-79.7552,-6.80054,-61.1169,2.50244,-0.183105,1.40381,0.640259,-0.574249,0.286163,-0.422241,-16572,14388,-2909,1016,-29869
1158,20604,1.1293,-9.69473,1.61738,-79.7443,-6.79504,-61.095,2.56348,0.305176,0.915527,0.640442,-0.574219,0.286041,-0.422089,-16568,14389,-2914,1016,-29869
1164,20610,1.11016,-9.71387,1.65566,-79.7168,-6.78406,-61.0455,3.05176,0.305176,1.2207,0.640594,-0.574219,0.285919,-0.421967,-16559,14393,-2923,1016,-29869
1170,20616,1.3542,-9.77607,1.59346,-79.7003,-6.77856,-61.0181,3.2959,0,1.52588,0.640961,-0.574127,0.285645,-0.421722,-16554,14395,-2924,1016,-29869
1176,20622,1.33984,-9.84307,1.56475,-79.6893,-6.77307,-60.9961,3.11279,0.427246,1.95313,0.641144,-0.574097,0.285492,-0.42157,-16549,14399,-2927,1016,-29869
1182,20628,1.225,-9.91963,1.44033,-79.6729,-6.76208,-60.9741,3.90625,0.854492,1.95313,0.641327,-0.574036,0.2854,-0.421448,-16545,14401,-2927,1016,-29869
1188,20634,1.20107,-9.91006,1.46426,-79.6564,-6.7511,-60.9521,5.06592,0.549316,2.50244,0.64151,-0.573975,0.285278,-0.421326,-16540,14403,-2928,1016,-29869
1194,20640,1.29678,-9.85742,1.47383,-79.6069,-6.72913,-60.9082,6.22559,0.854492,2.62451,0.641754,-0.573853,0.285156,-0.421204,-16539,14406,-2933,1016,-29869
1200,20646,1.21543,-9.85264,1.57432,-79.574,-6.71265,-60.8862,7.26318,1.0376,3.2959,0.642303,-0.573547,0.284882,-0.42099,-16541,14408,-2942,1016,-29869
1206,20652,1.20107,-9.81914,1.53125,-79.541,-6.69617,-60.8643,7.20215,0.549316,3.41797,0.642609,-0.573364,0.28476,-0.420868,-16542,14410,-2949,1016,-29869
1212,20658,1.29678,-9.92441,1.54561,-79.5081,-6.67969,-60.8423,7.8125,0.610352,3.96729,0.642914,-0.573181,0.284607,-0.420746,-16542,14411,-2957,1016,-29869
1218,20664,1.24414,-9.98662,1.44512,-79.4696,-6.66321,-60.8148,9.0332,0.732422,4.27246,0.643219,-0.572968,0.284454,-0.420624,-16539,14411,-2963,1016,-29869
1224,20670,1.23457,-10.0153,1.4834,-79.3817,-6.61926,-60.7709,10.0098,0.671387,4.88281,0.643585,-0.572754,0.284332,-0.420502,-16535,14412,-3072,1016,-29869
1230,20676,1.30156,-10.0249,1.42119,-79.3323,-6.5918,-60.7434,11.5967,-0.427246,5.85938,0.644409,-0.572174,0.283966,-0.420197,-16534,14413,-3072,1016,-29869
1236,20682,1.31592,-10.0823,1.45469,-79.2828,-6.56982,-60.7104,12.5732,-0.610352,6.34766,0.644867,-0.571869,0.283783,-0.420044,-16533,14415,-3072,1016,-29869
1242,20688,1.2585,-10.0967,1.54561,-79.2224,-6.53687,-60.6775,14.1602,-0.183105,7.26318,0.645355,-0.571564,0.2836,-0.419891,-16530,14416,-2967,1016,-29869
1248,20694,1.20586,-9.94834,1.58867,-79.162,-6.50391,-60.65,15.2588,-0.671387,7.32422,0.645905,-0.571167,0.283417,-0.419708,-16526,14417,-2969,1016,-29869
1254,20700,1.15801,-9.88135,1.57432,-79.0192,-6.43799,-60.5731,15.7471,-2.13623,7.93457,0.646484,-0.57074,0.283173,-0.419556,-16513,14418,-2981,1016,-29869
1260,20706,1.13408,-9.85264,1.63174,-78.9478,-6.39954,-60.5347,16.2964,-2.31934,8.8501,0.647675,-0.569916,0.282684,-0.419128,-16507,14420,-2987,1016,-29869
1266,20712,1.08623,-9.88613,1.73701,-78.8763,-6.36108,-60.4907,16.2964,-2.80762,8.97217,0.648315,-0.569489,0.28244,-0.418884,-16501,14422,-2993,1016,-29869
1272,20718,1.08623,-9.97705,1.71787,-78.7994,-6.32263,-60.4468,16.9678,-4.21143,9.15527,0.648987,-0.569061,0.282196,-0.41864,-16496,14425,-2999,1016,-29869
1278,20724,1.13887,-9.99141,1.67959,-78.728,-6.28418,-60.3973,18.2495,-4.82178,9.70459,0.649658,-0.568634,0.281891,-0.418335,-16493,14430,-3000,1016,-29869
1284,20730,1.13887,-9.92441,1.60781,-78.5577,-6.20178,-60.282,19.165,-5.5542,10.0708,0.650391,-0.568176,0.281555,-0.41803,-16484,14442,-3014,1016,-29869
1290,20736,1.2585,-10.0775,1.63174,-78.4753,-6.15784,-60.2161,20.0195,-6.83594,11.5356,0.651947,-0.567261,0.280823,-0.417358,-16475,14445,-3022,1016,-29869
1296,20742,1.3877,-10.2785,1.54082,-78.382,-6.11389,-60.1501,20.2637,-8.05664,12.8174,0.652771,-0.566772,0.280457,-0.416992,-16466,14450,-3033,1016,-29869
1302,20748,1.46426,-10.4938,1.3207,-78.2941,-6.05896,-60.0732,21.2402,-8.48389,14.0991,0.653656,-0.566284,0.28006,-0.416534,-16456,14452,-3046,1016,-29869
1308,20754,1.43555,-10.6805,1.16758,-78.2062,-6.00403,-59.9963,23.4985,-9.33838,15.3809,0.654572,-0.565765,0.279694,-0.416077,-16447,14455,-3059,1016,-29869
1314,20760,1.3877,-10.5656,1.17236,-77.9865,-5.87219,-59.8206,25.8179,-10.9863,17.2119,0.655548,-0.565186,0.279297,-0.415558,-16428,14462,-3086,1016,-29869
1320,20766,1.15322,-10.2737,0.937891,-77.8766,-5.80078,-59.7217,25.9399,-13.7939,19.7754,0.657806,-0.563934,0.278351,-0.414337,-16417,14467,-3101,1016,-29869
1326,20772,1.80879,-10.6805,1.05752,-77.7667,-5.72388,-59.6063,24.6582,-14.7705,22.0337,0.658966,-0.563324,0.277893,-0.413605,-16402,14472,-3117,1016,-29869
1332,20778,2.30645,-11.36,0.913965,-77.6624,-5.63599,-59.491,26.123,-9.15527,25.1465,0.660156,-0.562744,0.277466,-0.412781,-16391,14479,-3131,1016,-29869
1338,20784,1.3542,-11.0968,0.555078,-77.5525,-5.52612,-59.3976,30.2734,-5.12695,28.7476,0.661377,-0.561981,0.277252,-0.412018,-16379,14490,-3145,1016,-29869
1344,20790,0.411523,-10.4029,0.588574,-77.2833,-5.26245,-59.2273,32.0435,-7.32422,31.0059,0.664093,-0.559998,0.277069,-0.410492,-16353,14510,-3166,1016,-29869
1350,20796,-0.334961,-9.91963,1.30635,-77.157,-5.12512,-59.1229,26.001,-15.0146,33.0811,0.665527,-0.559082,0.276917,-0.409515,-16337,14523,-3174,1016,-29869
1356,20802,0.00478516,-10.1015,1.45469,-77.0526,-4.9823,-58.9911,21.3013,-20.6909,32.6538,0.666901,-0.55835,0.276764,-0.408386,-16320,14537,-3183,1016,-29869
1362,20808,0.468945,-10.7522,1.20107,-76.9702,-4.85046,-58.8318,18.3105,-22.8882,32.959,0.668243,-0.557861,0.276489,-0.407043,-16301,14552,-3192,1016,-29869
1368,20814,0.641211,-11.3025,1.03838,-76.9098,-4.71863,-58.6615,19.6533,-23.5596,34.5459,0.669525,-0.557495,0.276245,-0.405609,-16280,14568,-3205,1016,-29869
1374,20820,0.76084,-9.85742,1.03359,-76.778,-4.422,-58.3099,18.6157,-22.522,38.9404,0.672272,-0.556641,0.275879,-0.402496,-16239,14597,-3229,1016,-29869
1380,20826,-0.736914,-9.78086,0.579004,-76.7175,-4.26819,-58.1342,15.4419,-35.3394,38.0249,0.673615,-0.556213,0.275757,-0.400879,-16219,14613,-3236,1016,-29869
1386,20832,0.119629,-9.75693,0.990527,-76.6736,-4.12537,-57.8979,10.6812,-41.0156,38.269,0.675049,-0.556091,0.27533,-0.398956,-16197,14630,-3241,1016,-29869
1392,20838,0.330176,-10.3646,1.13887,-76.6571,-3.98804,-57.6343,7.62939,-42.7856,39.3066,0.676422,-0.556183,0.274811,-0.39679,-16173,14646,-3239,1016,-29869
1398,20844,0.679492,-10.6709,0.832617,-76.6571,-3.85071,-57.3596,6.95801,-41.626,40.7715,0.677765,-0.556396,0.274323,-0.394531,-16148,14665,-3235,1016,-29869
1404,20850,0.665137,-10.5321,0.373242,-76.6516,-3.54858,-56.8158,8.17871,-41.626,42.2363,0.680481,-0.556732,0.273499,-0.389954,-16086,14701,-3328,1016,-29869
1410,20856,1.21064,-11.0776,1.01445,-76.6516,-3.40027,-56.4972,10.8643,-47.5464,43.0908,0.682007,-0.557007,0.272858,-0.38736,-16055,14720,-3218,1016,-29869
1416,20862,0.942676,-10.5991,0.430664,-76.6296,-3.25195,-56.1951,10.1929,-51.3916,45.3491,0.683502,-0.557159,0.272247,-0.384918,-16022,14739,-3205,1016,-29869
1422,20868,1.47861,-10.9245,0.966602,-76.6187,-3.09265,-55.8765,11.3525,-50.293,46.6309,0.685059,-0.557373,0.271606,-0.382294,-15990,14760,-3191,1016,-29869
1428,20874,0.468945,-10.8958,0.746484,-76.5967,-2.93335,-55.5579,11.1694,-52.4292,47.9736,0.686676,-0.557495,0.270966,-0.379669,-15958,14785,-3173,1016,-29869
1434,20880,0.172266,-11.1351,1.10059,-76.5472,-2.60376,-54.8547,14.4653,-61.4624,48.2788,0.690094,-0.557861,0.269348,-0.374023,-15890,14835,-3129,1016,-29869
1440,20886,0.693848,-10.4316,0.985742,-76.5088,-2.43896,-54.4922,12.085,-55.1147,48.9502,0.691895,-0.557953,0.268494,-0.371155,-15854,14863,-3109,1016,-29869
1446,20892,1.41641,-11.2451,1.10537,-76.4813,-2.27417,-54.1516,12.6343,-56.7627,49.0112,0.693542,-0.558105,0.267761,-0.368347,-15818,14890,-3085,1016,-29869
1452,20898,1.33984,-11.805,0.60293,-76.4539,-2.10938,-53.8,17.9443,-56.8237,47.6074,0.695221,-0.558258,0.266968,-0.365509,-15781,14918,-3063,1016,-29869
1458,20904,1.69395,-11.5179,0.92832,-76.3989,-1.95557,-53.4485,23.8647,-57.5562,46.2036,0.697021,-0.558289,0.266052,-0.362762,-15741,14944,-3042,1016,-29869
1464,20910,2.07197,-10.2642,1.49297,-76.2177,-1.66443,-52.7673,26.3062,-52.4902,44.6777,0.700775,-0.557861,0.263947,-0.357666,-15653,14998,-2995,1016,-29869
1470,20916,3.35918,-9.24971,1.6126,-76.1188,-1.53259,-52.4487,26.6113,-52.1851,39.856,0.702576,-0.557587,0.262939,-0.355286,-15607,15025,-2967,1016,-29869
1476,20922,4.40713,-8.03906,1.50732,-76.0144,-1.41724,-52.1301,21.5454,-42.4194,36.6211,0.704346,-0.557343,0.26178,-0.353027,-15562,15054,-2938,1016,-29869
1482,20928,5.31152,-7.64189,1.56953,-75.932,-1.30737,-51.861,12.2681,-29.6631,32.5928,0.705811,-0.557159,0.260895,-0.351044,-15516,15082,-2911,1016,-29869
1488,20934,6.36426,-7.8668,1.27764,-75.899,-1.2085,-51.6632,1.95313,-12.4512,29.48,0.706848,-0.557098,0.260437,-0.349396,-15469,15109,-2889,1016,-29869
1494,20940,7.74238,-8.33096,0.75127,-75.9595,-0.999756,-51.5314,-5.00488,6.16455,26.6724,0.707428,-0.557159,0.261261,-0.347473,-15375,15159,-2855,1016,-29869
1500,20946,8.1874,-8.27832,0.421094,-76.0309,-0.884399,-51.6138,-16.0522,48.0957,21.9116,0.707123,-0.557068,0.262604,-0.34726,-15330,15182,-2836,1016,-29869
1506,20952,8.37402,-8.41709,0.373242,-76.1243,-0.76355,-51.806,-21.6064,71.8994,19.7144,0.70636,-0.556854,0.264587,-0.347656,-15287,15206,-2819,1016,-29869
1512,20958,8.21133,-8.26875,0.0717773,-76.2506,-0.631714,-52.1191,-26.3672,92.4683,16.1743,0.705109,-0.556488,0.267303,-0.348633,-15247,15229,-2802,1016,-29869
1518,20964,8.0917,-8.26396,-0.124414,-76.3989,-0.494385,-52.5366,-31.189,111.328,11.9019,0.703461,-0.55603,0.270599,-0.350189,-15210,15251,-2783,1016,-29869
1524,20970,8.07256,-7.69932,-0.679492,-76.7615,-0.247192,-53.6517,-34.8511,127.991,6.71387,0.698853,-0.55481,0.278687,-0.35495,-15144,15290,-2748,1016,-29869
1530,20976,7.91943,-7.56055,-0.579004,-76.9757,-0.142822,-54.3384,-43.396,159.119,-2.56348,0.695953,-0.554108,0.283295,-0.358063,-15114,15306,-2726,1016,-29869
1536,20982,7.60361,-7.41699,-0.775195,-77.2119,-0.0439453,-55.1019,-47.0581,169.556,-5.98145,0.692627,-0.553345,0.28833,-0.361664,-15087,15319,-2710,1016,-29869
1542,20988,6.9959,-7.21123,-0.775195,-77.4701,0.032959,-55.9259,-50.5981,178.345,-9.82666,0.688995,-0.552551,0.29361,-0.36557,-15063,15333,-2696,1016,-29869
1548,20994,6.29727,-7.3165,-0.593359,-77.7448,0.098877,-56.7993,-54.8706,183.472,-14.4043,0.685059,-0.551727,0.299103,-0.369781,-15043,15344,-2684,1016,-29869
1554,21000,5.87617,-8.01035,-0.77041,-78.36,0.153809,-58.6176,-57.6172,184.753,-19.2261,0.676331,-0.550323,0.310181,-0.378662,-15016,15353,-2668,1016,-29869
1560,21006,5.9001,-8.43145,-0.650781,-78.6841,0.142822,-59.5349,-58.8989,181.519,-26.3672,0.671692,-0.549774,0.315582,-0.38324,-15010,15352,-2661,1016,-29869
1566,21012,5.71826,-8.65156,-0.660352,-79.0027,0.10437,-60.4413,-57.7393,177.185,-29.1748,0.666992,-0.549255,0.320801,-0.387848,-15007,15348,-2656,1016,-29869
1572,21018,5.78525,-8.64678,-0.440234,-79.3103,0.0439453,-61.3312,-54.6875,170.898,-32.1655,0.662292,-0.548737,0.325775,-0.392426,-15007,15341,-2650,1016,-29869
1578,21024,5.83311,-8.43623,-0.282324,-79.8926,-0.142822,-63.0286,-52.002,164.612,-33.9966,0.657654,-0.548279,0.330414,-0.396942,-15011,15333,-2649,1016,-29869
1584,21030,5.55557,-8.1252,0.100488,-80.1563,-0.274658,-63.8251,-45.8984,146.484,-39.978,0.648651,-0.547455,0.338776,-0.405792,-15032,15308,-2642,1016,-29869
1590,21036,5.59385,-7.97207,0.267969,-80.3979,-0.43396,-64.5776,-42.9688,135.559,-42.7856,0.644318,-0.54718,0.342316,-0.410034,-15047,15289,-2646,1016,-29869
1596,21042,5.71348,-7.8333,0.387598,-80.6287,-0.620728,-65.2753,-40.2832,124.39,-45.3491,0.640167,-0.547028,0.345428,-0.414154,-15066,15268,-2647,1024,-29870
1602,21048,5.68955,-7.73281,0.588574,-80.8429,-0.829468,-65.918,-37.7808,113.342,-48.645,0.636139,-0.546997,0.348114,-0.418091,-15088,15242,-2647,1024,-29870
1608,21054,5.6752,-7.72324,0.870898,-81.2219,-1.32935,-67.0441,-34.9121,101.501,-52.063,0.632294,-0.54715,0.350342,-0.421875,-15116,15214,-2643,1024,-29870
1614,21060,5.98145,-8.03428,1.28242,-81.3812,-1.63147,-67.522,-28.6865,76.9043,-61.0962,0.625092,-0.547974,0.353302,-0.429016,-15183,15153,-2634,1024,-29870
1620,21066,6.26377,-8.24961,1.44033,-81.5295,-1.96106,-67.9395,-24.9634,65.5518,-65.1245,0.621735,-0.548645,0.354034,-0.432404,-15224,15114,-2631,1024,-29870
1626,21072,6.5126,-8.45537,1.57432,-81.6504,-2.32361,-68.3075,-21.4233,55.0537,-68.7256,0.618561,-0.5495,0.354248,-0.435669,-15268,15067,-2626,1024,-29870
1632,21078,6.6418,-8.43145,1.74658,-81.7548,-2.70813,-68.6206,-17.8223,45.6543,-71.9604,0.61557,-0.550476,0.354034,-0.438843,-15316,15017,-2622,1024,-29870
1638,21084,6.80928,-8.34053,1.871,-81.9141,-3.55408,-69.126,-14.7705,37.3535,-75.6836,0.612732,-0.551575,0.353394,-0.441925,-15365,14963,-2618,1024,-29870
1644,21090,6.68008,-8.4458,2.03369,-81.969,-4.01001,-69.3182,-12.3291,29.541,-79.3457,0.607452,-0.554138,0.351013,-0.447906,-15465,14860,-2602,1024,-29870
1650,21096,6.53652,-8.48887,2.11982,-82.0129,-4.48792,-69.4775,-9.58252,16.7847,-87.7686,0.604919,-0.555603,0.349304,-0.450806,-15518,14804,-2589,1024,-29870
1656,21102,6.29727,-8.76641,2.11982,-82.0569,-4.99878,-69.6149,-9.09424,10.437,-92.7124,0.602417,-0.55722,0.347321,-0.453705,-15574,14746,-2570,1024,-29870
1662,21108,6.2542,-8.87168,2.17246,-82.0953,-5.53162,-69.7192,-8.17871,4.5166,-97.4731,0.599945,-0.55899,0.345032,-0.456573,-15635,14683,-2549,1024,-29870
1668,21114,6.35469,-9.03438,2.18203,-82.1613,-6.67419,-69.8621,-8.60596,0.12207,-101.746,0.597473,-0.560883,0.342438,-0.459412,-15702,14613,-2524,1024,-29870
1674,21120,5.98623,-9.66602,2.43086,-82.1997,-7.27844,-69.917,-9.94873,-3.23486,-110.107,0.592346,-0.565063,0.3367,-0.465118,-15841,14460,-2464,1024,-29870
1680,21126,5.79482,-9.91963,2.52656,-82.2382,-7.90466,-69.9664,-10.437,-5.7373,-113.831,0.589691,-0.567291,0.333618,-0.468018,-15909,14377,-2429,1024,-29870
1686,21132,5.74697,-10.1062,2.65098,-82.2821,-8.54187,-70.0049,-11.2305,-7.14111,-116.76,0.586975,-0.56958,0.330383,-0.470917,-15980,14288,-2387,1024,-29870
1692,21138,5.44072,-10.2689,3.03379,-82.326,-9.19556,-70.0378,-12.8784,-7.56836,-119.629,0.584198,-0.57193,0.327057,-0.473846,-16049,14195,-2342,1024,-29870
1698,21144,5.21104,-10.6135,3.10078,-82.4304,-10.5359,-70.1093,-13.6108,-6.5918,-121.582,0.581329,-0.574341,0.3237,-0.476746,-16123,14096,-2296,1024,-29870
1704,21150,4.82822,-11.0394,3.62236,-82.4908,-11.2115,-70.1477,-15.3198,-5.31006,-124.39,0.575348,-0.579163,0.316895,-0.482697,-16279,13881,-2204,1024,-29870
1710,21156,4.81865,-11.3121,3.89512,-82.5458,-11.8872,-70.1917,-16.0522,-3.479,-124.023,0.572266,-0.581543,0.313538,-0.485687,-16355,13775,-2162,1032,-29871
1716,21162,4.83779,-11.671,4.00518,-82.6007,-12.5629,-70.2466,-15.8691,-0.793457,-122.07,0.569183,-0.583862,0.310211,-0.488678,-16430,13664,-2116,1032,-29871
1722,21168,4.73252,-11.9485,4.31143,-82.6501,-13.2166,-70.3125,-14.8926,2.80762,-119.507,0.566071,-0.586029,0.307007,-0.491669,-16504,13547,-2073,1032,-29871
1728,21174,4.50762,-12.0155,4.56025,-82.7161,-14.469,-70.4883,-14.0381,6.16455,-116.272,0.563019,-0.588043,0.303955,-0.494659,-16576,13424,-2029,1032,-29871
1734,21180,4.23965,-11.9533,4.81387,-82.7271,-15.0623,-70.6091,-11.3525,15.0146,-108.459,0.557098,-0.591461,0.298309,-0.500671,-16722,13169,-1953,1032,-29871
1740,21186,3.91904,-11.9103,5.00049,-82.7216,-15.6281,-70.7465,-10.0098,19.8364,-104.675,0.55423,-0.592865,0.295776,-0.503693,-16792,13046,-1919,1032,-29871
1746,21192,3.36396,-11.939,4.98613,-82.7051,-16.1664,-70.9058,-9.82666,24.353,-100.525,0.551453,-0.594055,0.293427,-0.506744,-16861,12922,-1888,1032,-29871
1752,21198,2.87109,-12.0634,5.05312,-82.6776,-16.6772,-71.0925,-8.48389,27.71,-97.7173,0.548676,-0.595032,0.291321,-0.509796,-16927,12791,-1858,1032,-29871
1758,21204,2.12939,-12.1687,5.21582,-82.5787,-17.644,-71.51,-6.89697,31.25,-95.2759,0.54599,-0.595856,0.289337,-0.512848,-17061,12523,-1800,1032,-29871
1764,21210,0.846973,-12.3266,4.99092,-82.5018,-18.1055,-71.7352,-2.44141,30.7007,-92.9565,0.540802,-0.596954,0.285645,-0.519073,-17125,12387,-1773,1032,-29871
1770,21216,0.866113,-12.695,4.78994,-82.4194,-18.5559,-71.9495,0.671387,27.9541,-91.0645,0.538391,-0.597412,0.283783,-0.522095,-17185,12250,-1752,1032,-29871
1776,21222,0.559863,-12.6663,4.47412,-82.3206,-18.9954,-72.1527,5.37109,29.0527,-89.2944,0.536133,-0.597809,0.28183,-0.525024,-17240,12121,-1735,1032,-29871
1782,21228,-0.0717773,-12.695,4.23965,-82.1942,-19.4238,-72.3615,9.27734,27.2217,-88.3789,0.534027,-0.597992,0.279907,-0.527985,-17293,11994,-1727,1032,-29871
1788,21234,-0.435449,-12.4749,3.88555,-81.8921,-20.2588,-72.746,14.3433,22.4609,-88.8062,0.532074,-0.598114,0.277863,-0.530884,-17343,11869,-1721,1032,-29871
1794,21240,0.440234,-11.3887,3.29697,-81.7108,-20.6818,-72.8998,23.2544,13.1226,-90.9424,0.528687,-0.598297,0.273102,-0.536499,-17444,11617,-1718,1032,-29871
1800,21246,0.866113,-10.8384,3.00986,-81.5186,-21.1047,-73.0316,24.5972,11.2305,-90.21,0.527222,-0.598358,0.270416,-0.539185,-17489,11492,-1723,1032,-29871
1806,21252,0.923535,-10.4508,3.01943,-81.3208,-21.5277,-73.1635,24.1699,9.76563,-88.9893,0.525848,-0.59845,0.2677,-0.541809,-17533,11365,-1731,1032,-29871
1812,21258,0.90918,-10.0393,2.79453,-81.134,-21.9397,-73.2843,23.3765,7.44629,-87.8906,0.524475,-0.598541,0.265015,-0.544373,-17572,11246,-1740,1032,-29871
1818,21264,1.27285,-9.78086,2.62227,-80.777,-22.7417,-73.4875,21.7896,4.57764,-86.4258,0.523132,-0.598663,0.262329,-0.546783,-17640,11012,-1763,1032,-29871
1824,21270,2.13418,-9.63252,2.11025,-80.6177,-23.1317,-73.5754,19.5313,3.23486,-81.9092,0.520538,-0.599121,0.25708,-0.55127,-17672,10896,-1774,1032,-29871
1830,21276,2.59355,-9.62295,1.871,-80.4639,-23.5052,-73.6633,19.165,4.3335,-79.1016,0.519287,-0.599335,0.254608,-0.553345,-17705,10783,-1788,1032,-29871
1836,21282,2.49785,-9.68037,1.56475,-80.3101,-23.8623,-73.7567,18.8599,5.67627,-76.2939,0.518066,-0.599518,0.252228,-0.555389,-17734,10669,-1800,1032,-29871
1842,21288,2.6749,-9.69473,1.43555,-80.1563,-24.2084,-73.8556,19.104,4.69971,-73.9746,0.516876,-0.599609,0.249969,-0.557404,-17760,10561,-1810,1032,-29871
1848,21294,2.29209,-9.49375,1.3207,-79.8541,-24.8566,-74.0369,19.8364,4.57764,-72.2656,0.515778,-0.599701,0.247772,-0.559296,-17806,10350,-1842,1032,-29871
1854,21300,1.95234,-9.33105,0.971387,-79.7058,-25.1587,-74.1412,17.2119,6.22559,-69.2749,0.513611,-0.599792,0.243591,-0.563019,-17824,10248,-1859,1032,-29871
1860,21306,2.3208,-9.1875,0.866113,-79.563,-25.4608,-74.2456,17.0288,3.41797,-68.4204,0.512543,-0.599823,0.241608,-0.564819,-17843,10147,-1881,1032,-29871
1866,21312,2.42129,-9.01523,0.636426,-79.4257,-25.7629,-74.328,15.1978,2.80762,-67.688,0.511475,-0.599945,0.239624,-0.566498,-17859,10047,-1902,1032,-29871
1872,21318,2.22031,-9.0583,0.784766,-79.3048,-26.0541,-74.4104,13.3057,2.31934,-67.4438,0.510376,-0.600098,0.237671,-0.568115,-17871,9947,-1920,1032,-29871
1878,21324,1.71309,-9.01523,0.746484,-79.1016,-26.6418,-74.5697,10.8032,2.0752,-67.749,0.509247,-0.600311,0.235809,-0.569702,-17886,9760,-1954,1032,-29871
1884,21330,1.80879,-9.04873,0.890039,-79.0192,-26.9495,-74.6246,9.33838,-7.75146,-73.6694,0.506805,-0.601013,0.232056,-0.572693,-17890,9669,-1970,1032,-29871
1890,21336,2.56963,-9.06309,1.02402,-78.9532,-27.2791,-74.6576,9.64355,-11.0474,-74.7681,0.505493,-0.601624,0.229919,-0.574066,-17891,9582,-1993,1032,-29871
1896,21342,2.83281,-9.04395,1.21543,-78.8928,-27.6141,-74.6741,8.42285,-10.9863,-76.1108,0.504181,-0.602325,0.227661,-0.575378,-17890,9497,-2018,1032,-29871
1902,21348,2.38301,-9.33105,1.36377,-78.8379,-27.9547,-74.6906,10.1929,-16.4185,-77.3926,0.502838,-0.603058,0.225433,-0.576691,-17888,9415,-2044,1032,-29871
1908,21354,2.95244,-9.23057,1.25371,-78.739,-28.6743,-74.6521,12.3901,-20.6299,-79.4067,0.501526,-0.603882,0.223022,-0.577881,-17881,9263,-2094,1032,-29871
1914,21360,3.38789,-9.13008,1.34463,-78.6896,-29.0479,-74.6082,16.5405,-24.353,-82.8857,0.499054,-0.605713,0.217651,-0.58017,-17877,9188,-2119,1032,-29871
1920,21366,3.33047,-9.01523,1.28721,-78.6292,-29.4379,-74.5587,19.4092,-28.9307,-83.0688,0.497833,-0.606628,0.214752,-0.581299,-17870,9111,-2143,1032,-29871
1926,21372,3.31611,-8.68506,1.36377,-78.5687,-29.8279,-74.4873,20.752,-30.8228,-83.6792,0.496735,-0.607605,0.2117,-0.582367,-17862,9034,-2161,1032,-29871
1932,21378,3.92383,-8.25918,1.39248,-78.5083,-30.2234,-74.4049,19.7144,-31.9214,-82.4585,0.495636,-0.608612,0.208527,-0.583374,-17853,8958,-2174,1032,-29871
1938,21384,3.60322,-8.17783,1.29678,-78.4094,-30.9924,-74.2236,18.2495,-31.7993,-80.2002,0.494568,-0.609619,0.205414,-0.58432,-17832,8813,-2191,1032,-29871
1944,21390,3.86162,-8.1874,1.11016,-78.382,-31.3715,-74.1138,16.2964,-36.499,-74.707,0.492462,-0.611755,0.199402,-0.585968,-17821,8745,-2203,1032,-29871
1950,21396,4.07695,-7.93857,1.0958,-78.371,-31.7285,-73.9874,13.6108,-34.0576,-71.8994,0.491516,-0.612885,0.196472,-0.586578,-17810,8676,-2215,1032,-29871
1956,21402,3.71328,-8.11563,1.10537,-78.3655,-32.0691,-73.8721,10.498,-33.2031,-67.4438,0.49054,-0.613983,0.193726,-0.587128,-17801,8610,-2226,1032,-29871
1962,21408,3.56973,-8.27832,1.06709,-78.3765,-32.3877,-73.7567,8.23975,-29.6631,-63.3545,0.489563,-0.615112,0.191223,-0.587616,-17792,8545,-2235,1032,-29871
1968,21414,2.77061,-8.34531,1.15801,-78.4259,-32.9755,-73.537,6.89697,-32.2876,-61.8896,0.487671,-0.617218,0.186707,-0.588409,-17777,8425,-2254,1032,-29871
1974,21420,2.76104,-8.11563,1.21064,-78.4534,-33.2501,-73.4381,1.77002,-23.9868,-57.8613,0.486725,-0.618225,0.184631,-0.588806,-17771,8368,-2261,1032,-29871
1980,21426,2.54092,-8.7042,1.0623,-78.4918,-33.5138,-73.3612,0.0610352,-22.522,-56.5796,0.485687,-0.619171,0.1828,-0.589233,-17765,8312,-2264,1032,-29871
1986,21432,2.28252,-8.85254,1.33506,-78.5358,-33.7665,-73.2898,0.915527,-17.9443,-56.3354,0.484619,-0.620117,0.181091,-0.58963,-17759,8260,-2265,1032,-29871
1992,21438,1.85664,-8.57022,1.23457,-78.5577,-34.0082,-73.2458,-0.12207,-14.2212,-55.9082,0.483582,-0.620911,0.179474,-0.590179,-17752,8211,-2263,1032,-29871
1998,21444,1.44512,-8.57979,1.40205,-78.5797,-34.4806,-73.2349,-1.2207,-9.09424,-56.6406,0.481262,-0.622223,0.176605,-0.591522,-17736,8120,-2262,1032,-29871
2004,21450,0.382813,-8.49365,1.40684,-78.5742,-34.7113,-73.2678,-2.2583,0.244141,-56.7627,0.480042,-0.622742,0.175354,-0.592377,-17729,8079,-2259,1032,-29871
2010,21456,0.449805,-8.27354,1.50732,-78.5522,-34.931,-73.3337,-3.2959,3.17383,-53.5889,0.47876,-0.623108,0.174225,-0.593353,-17725,8039,-2262,1032,-29871
2016,21462,-0.583789,-8.19697,1.7083,-78.5248,-35.1343,-73.4106,-5.67627,10.6201,-50.415,0.477539,-0.623383,0.173279,-0.594299,-17723,7997,-2265,1032,-29871
2022,21468,-1.23457,-8.43145,1.71309,-78.4863,-35.3101,-73.5315,-8.23975,15.7471,-45.6543,0.476288,-0.623474,0.172668,-0.595398,-17723,7954,-2273,1032,-29871
2028,21474,-1.71787,-8.58936,1.72266,-78.3929,-35.5463,-73.8721,-10.6201,25.5127,-39.0625,0.473877,-0.623169,0.172546,-0.597656,-17727,7870,-2290,1032,-29871
2034,21480,-4.321,-9.43154,1.48818,-78.3215,-35.6012,-74.1083,-12.8784,37.2925,-28.0151,0.472778,-0.622681,0.173126,-0.598907,-17731,7831,-2299,1032,-29871
2040,21486,-4.31621,-9.5751,1.73223,-78.2446,-35.6232,-74.361,-12.3901,48.1567,-21.8506,0.471771,-0.622009,0.17395,-0.600128,-17735,7795,-2308,1032,-29871
2046,21492,-5.40723,-9.74258,1.21064,-78.1293,-35.5957,-74.6741,-14.3433,60.6689,-14.4043,0.470917,-0.621002,0.175201,-0.601501,-17739,7762,-2317,1032,-29871
2052,21498,-6.4791,-10.3551,1.20586,-77.9865,-35.5133,-75.0476,-14.0381,68.1763,-6.71387,0.470093,-0.619598,0.177002,-0.603027,-17741,7731,-2330,1032,-29871
2058,21504,-7.34521,-10.3981,0.923535,-77.6294,-35.1892,-75.9045,-11.6577,76.2939,0.976563,0.469055,-0.615967,0.181732,-0.606171,-17749,7672,-2367,1032,-29871
2064,21510,-9.5416,-10.6853,0.645996,-77.4261,-34.942,-76.3879,-13.4888,91.6748,17.8223,0.468811,-0.613678,0.184753,-0.607758,-17752,7646,-2390,1024,-29870
2070,21516,-20.9303,-22.6769,0.559863,-77.2119,-34.6344,-76.8988,-12.3901,95.2148,26.6724,0.468719,-0.611145,0.188202,-0.609344,-17757,7624,-2419,1024,-29870
2076,21522,-20.4087,-23.3372,-0.191406,-76.9922,-34.2719,-77.4097,-8.91113,98.938,37.3535,0.468903,-0.608368,0.192017,-0.610779,-17760,7604,-2447,1024,-29870
2082,21528,-4.18223,-16.6093,8.28311,-76.767,-33.8324,-77.926,-13.2446,78.4912,65.4297,0.469452,-0.605316,0.196167,-0.612061,-17762,7587,-2483,1024,-29870
2088,21534,-5.3833,-6.89541,3.21563,-76.9867,-32.1899,-78.8214,-125.061,133.85,165.344,0.471375,-0.599792,0.212006,-0.610718,-17764,7568,-2563,1024,-29870
2094,21540,8.24004,-8.03428,-2.97637,-77.5305,-31.2231,-78.761,-76.6602,-78.4302,168.396,0.47348,-0.599213,0.220428,-0.606689,-17764,7569,-2605,1024,-29870
2100,21546,17.284,-15.8197,5.63691,-78.2666,-30.3442,-78.0963,-99.4873,3.23486,193.604,0.477264,-0.600952,0.226074,-0.599884,-17762,7582,-2648,1024,-29870
2106,21552,7.29736,-15.1546,-0.210547,-78.8818,-29.2786,-77.8821,-70.4956,74.4629,182.007,0.480164,-0.600739,0.234497,-0.594513,-17758,7600,-2686,1024,-29870
2112,21558,5.82354,-11.9055,-0.913965,-79.1455,-28.2129,-78.0963,-40.2832,7.75146,184.937,0.482697,-0.598175,0.243286,-0.591522,-17749,7631,-2716,1024,-29870
2118,21564,11.0394,-4.95742,2.04805,-79.7662,-26.2189,-77.6569,-39.7339,-15.2588,186.035,0.490967,-0.595612,0.255951,-0.581848,-17715,7728,-2767,1024,-29870
2124,21570,6.59873,-5.83789,0.425879,-80.1398,-25.1422,-77.5415,-88.623,44.5557,208.496,0.494537,-0.594116,0.26355,-0.576935,-17690,7792,-2782,1024,-29870
2130,21576,5.05791,-8.20176,1.25371,-80.5682,-24.0161,-77.5854,-96.4966,44.9219,220.276,0.497223,-0.592346,0.272491,-0.572296,-17662,7867,-2795,1024,-29870
2136,21582,1.55996,-10.3072,2.20596,-81.0352,-22.8351,-77.6294,-87.6465,15.8691,227.722,0.499908,-0.590515,0.281891,-0.567261,-17629,7948,-2803,1024,-29870
2142,21588,1.26807,-12.3792,0.698633,-81.5186,-21.6486,-77.525,-88.3789,23.0713,224.121,0.503296,-0.58905,0.290558,-0.561401,-17594,8030,-2811,1024,-29870
2148,21594,-2.76104,-17.15,-1.19629,-82.3975,-19.3304,-77.5085,-85.7544,37.2925,216.858,0.509155,-0.585419,0.307953,-0.550537,-17508,8216,-2828,1024,-29870
2154,21600,-4.39277,-17.5328,-0.382813,-82.6666,-18.2373,-77.5964,-38.3301,34.2407,193.726,0.512146,-0.582764,0.315826,-0.546082,-17458,8317,-2833,1024,-29870
2160,21606,-4.00996,-17.2409,-0.401953,-82.8534,-17.2101,-77.6404,-17.5171,14.3433,183.655,0.515503,-0.579987,0.322693,-0.54187,-17405,8423,-2833,1024,-29870
2166,21612,-3.08164,-15.9346,-0.0382813,-82.9578,-16.2433,-77.5964,-1.40381,3.84521,172.791,0.519348,-0.577332,0.328339,-0.537628,-17347,8533,-2836,1024,-29870
2172,21618,-2.38301,-16.8916,1.18672,-82.9962,-15.3369,-77.5031,2.13623,-2.56348,162.415,0.523468,-0.574677,0.333099,-0.533539,-17286,8649,-2835,1024,-29870
2178,21624,-2.29209,-14.9632,0.100488,-82.9852,-13.7219,-77.2449,16.6016,-8.36182,145.874,0.531555,-0.569733,0.340668,-0.526001,-17162,8871,-2844,1024,-29870
2184,21630,-1.80879,-14.0109,0.684277,-82.9193,-13.0353,-77.113,24.4751,-2.01416,113.525,0.535339,-0.567413,0.343475,-0.522858,-17095,8982,-2847,1024,-29870
2190,21636,-1.20586,-12.7764,0.990527,-82.8259,-12.431,-77.0251,23.9258,7.38525,98.8159,0.538696,-0.565094,0.345947,-0.520294,-17026,9092,-2852,1024,-29870
2196,21642,-1.06709,-12.0299,1.08623,-82.7216,-11.8927,-76.9977,18.5547,14.0991,85.6323,0.541534,-0.562775,0.348267,-0.51828,-16958,9197,-2855,1024,-29870
2202,21648,-0.913965,-11.7763,0.961816,-82.6392,-11.4203,-77.0087,11.9019,19.4092,71.228,0.543854,-0.560608,0.350525,-0.516663,-16892,9300,-2862,1024,-29870
2208,21654,-0.765625,-11.5466,0.808691,-82.5348,-10.6622,-77.1185,8.97217,20.5078,60.3027,0.546936,-0.557037,0.354736,-0.514404,-16766,9491,-2877,1024,-29870
2214,21660,-1.30156,-11.0106,1.20586,-82.4799,-10.3546,-77.2009,12.8174,25.8789,41.9922,0.548096,-0.555389,0.356537,-0.513702,-16707,9581,-2887,1024,-29870
2220,21666,-1.73701,-10.4843,1.77051,-82.4084,-10.0909,-77.2998,12.207,24.292,33.5083,0.549072,-0.553772,0.358124,-0.513306,-16648,9669,-2901,1024,-29870
2226,21672,-1.8375,-10.2833,1.87578,-82.3425,-9.87122,-77.3932,9.64355,19.5313,24.6582,0.549835,-0.552338,0.359497,-0.513062,-16591,9750,-2914,1024,-29870
2232,21678,-1.55996,-10.0823,1.51689,-82.2876,-9.69543,-77.4756,6.40869,7.93457,15.9912,0.550446,-0.551178,0.360596,-0.512909,-16535,9824,-2930,1024,-29870
2238,21684,0.459375,-8.51758,1.49775,-82.2437,-9.4812,-77.4866,5.98145,-1.40381,10.6201,0.551483,-0.55014,0.361603,-0.512207,-16437,9954,-2953,1024,-29870
2244,21690,1.42598,-9.13965,3.20605,-82.2382,-9.3988,-77.4591,-8.17871,2.92969,7.26318,0.551941,-0.549896,0.361908,-0.511749,-16394,10011,-2963,1024,-29870
2250,21696,0.090918,-9.07266,2.29209,-82.2876,-9.3219,-77.4646,-12.5732,6.22559,4.27246,0.551971,-0.549805,0.362549,-0.511322,-16357,10065,-2973,1024,-29870
2256,21702,-0.119629,-9.46504,1.89971,-82.348,-9.26147,-77.4921,-16.6626,-6.65283,1.64795,0.551788,-0.549805,0.363281,-0.511017,-16323,10114,-2984,1024,-29870
2262,21708,1.0001,-9.72822,2.00977,-82.5458,-9.20654,-77.3932,-17.5781,-12.207,-1.58691,0.551666,-0.550232,0.363739,-0.510376,-16290,10158,-2993,1024,-29870
2268,21714,2.33037,-10.1589,0.468945,-82.6447,-9.19006,-77.3383,-17.7612,-7.26318,-0.976563,0.551361,-0.551453,0.364258,-0.509003,-16236,10234,-3006,1024,-29870
2274,21720,2.14854,-10.2211,0.459375,-82.7435,-9.16809,-77.2998,-17.0288,-2.0752,-1.09863,0.551147,-0.551971,0.364624,-0.508423,-16213,10268,-3009,1024,-29870
2280,21726,1.92363,-10.1732,0.60293,-82.8314,-9.14612,-77.2888,-14.8315,-3.90625,0.0610352,0.550842,-0.552368,0.365082,-0.507996,-16192,10298,-3007,1024,-29870
2286,21732,1.88057,-10.1015,0.846973,-82.9138,-9.12415,-77.2668,-11.2915,-5.06592,0.793457,0.550659,-0.552734,0.365448,-0.507538,-16173,10327,-3003,1024,-29870
