TimeSinceCollection,Timestamp,AccX,AccY,AccZ,AngleRoll,AnglePitch,AngleYaw,AngularVelX,AngularVelY,AngularVelZ,Q1,Q2,Q3,Q4,MagX,MagY,MagZ,Height,Airpressure
0,205458,1.51689,-9.57988,1.91406,-78.7775,-8.88794,-86.7316,0,0,0,0.526367,-0.501038,0.390869,-0.564819,-5571,9094,-1594,1174,-29888
6,205464,1.50732,-9.56074,1.91885,-78.772,-8.88794,-86.7316,0,0,0,0.526367,-0.501007,0.390869,-0.564819,-5572,9093,-1596,1174,-29888
12,205470,1.49297,-9.56074,1.90449,-78.772,-8.88794,-86.7316,0,0,0,0.526367,-0.501007,0.390869,-0.564819,-5572,9094,-1597,1174,-29888
18,205476,1.51211,-9.56074,1.871,-78.772,-8.88794,-86.7316,0,0,0,0.526367,-0.501007,0.390869,-0.564819,-5573,9095,-1600,1174,-29888
24,205482,1.50254,-9.55596,1.89014,-78.772,-8.88794,-86.7316,0,0,0,0.526367,-0.501007,0.390869,-0.564819,-5573,9096,-1603,1174,-29888
30,205488,1.51689,-9.5416,1.91406,-78.772,-8.88245,-86.7316,0,0,0,0.526367,-0.501007,0.390869,-0.564819,-5572,9096,-1605,1174,-29888
36,205494,1.52168,-9.53203,1.90928,-78.772,-8.88245,-86.7316,0,0,0,0.526367,-0.501007,0.390869,-0.564819,-5572,9095,-1608,1174,-29888
42,205500,1.52168,-9.5416,1.90928,-78.772,-8.88245,-86.7316,0,0,0,0.526367,-0.501007,0.390869,-0.564819,-5570,9090,-1608,1174,-29888
48,205506,1.50732,-9.5416,1.91885,-78.772,-8.88245,-86.7316,0,0,0,0.526367,-0.501007,0.390869,-0.564819,-5569,9086,-1606,1174,-29888
54,205512,1.51689,-9.54639,1.89492,-78.772,-8.88245,-86.7316,0,0,0,0.526367,-0.501007,0.390869,-0.564819,-5568,9079,-1603,1174,-29888
60,205518,1.51211,-9.55117,1.89014,-78.772,-8.88245,-86.7316,0,0,0,0.526367,-0.501007,0.390869,-0.564819,-5570,9078,-1605,1174,-29888
66,205524,1.51211,-9.57031,1.89971,-78.772,-8.88245,-86.7316,0,0,0,0.526367,-0.501007,0.390869,-0.564819,-5571,9077,-1606,1174,-29888
72,205530,1.50732,-9.56074,1.88535,-78.772,-8.88245,-86.7316,0,0,0,0.526367,-0.501007,0.390869,-0.564819,-5574,9078,-1608,1174,-29888
78,205536,1.50732,-9.56074,1.91406,-78.772,-8.88245,-86.7316,0,0,0,0.526367,-0.501007,0.390869,-0.564819,-5577,9078,-1612,1174,-29888
84,205542,1.48818,-9.54639,1.92363,-78.772,-8.88245,-86.7316,0,0,0,0.526367,-0.501007,0.390869,-0.564819,-5578,9082,-1620,1174,-29888
90,205548,1.50732,-9.5416,1.90928,-78.772,-8.88245,-86.7316,0,0,0,0.526367,-0.501007,0.390869,-0.564819,-5578,9083,-1621,1174,-29888
96,205554,1.52646,-9.56074,1.871,-78.772,-8.88245,-86.7316,0,0,0,0.526367,-0.501007,0.390869,-0.564819,-5576,9085,-1622,1174,-29888
102,205560,1.50732,-9.57031,1.89492,-78.772,-8.88245,-86.7316,0,0,0,0.526367,-0.501007,0.390869,-0.564819,-5573,9091,-1624,1174,-29888
108,205566,1.47861,-9.56553,1.89971,-78.772,-8.88245,-86.7316,0,0,0,0.526367,-0.501007,0.390869,-0.564819,-5572,9094,-1619,1174,-29888
114,205572,1.51211,-9.5751,1.86621,-78.772,-8.88245,-86.7316,0,0,0,0.526398,-0.501007,0.390869,-0.564819,-5571,9098,-1612,1174,-29888
120,205578,1.51689,-9.55117,1.89492,-78.772,-8.88245,-86.7316,0,0,0,0.526398,-0.501007,0.390869,-0.564819,-5570,9095,-1606,1174,-29888
126,205584,1.50732,-9.55117,1.90449,-78.772,-8.88245,-86.7316,0,0,0,0.526398,-0.501007,0.390869,-0.564819,-5569,9093,-1604,1174,-29888
132,205590,1.52168,-9.54639,1.86143,-78.772,-8.88245,-86.7316,0,0,0,0.526398,-0.501007,0.390869,-0.564819,-5568,9090,-1605,1174,-29888
138,205596,1.50732,-9.53682,1.89492,-78.772,-8.88245,-86.7316,0,0,0,0.526398,-0.501007,0.390869,-0.564819,-5567,9091,-1609,1174,-29888
144,205602,1.51211,-9.55596,1.91406,-78.772,-8.88245,-86.7316,0,0,0,0.526398,-0.500977,0.390869,-0.564819,-5572,9098,-1613,1174,-29888
150,205608,1.49775,-9.55596,1.90928,-78.772,-8.88245,-86.7316,0,0,0,0.526398,-0.500977,0.390869,-0.564819,-5571,9102,-1612,1174,-29888
156,205614,1.50254,-9.56074,1.89971,-78.772,-8.88245,-86.7316,0,0,0,0.526398,-0.500977,0.390869,-0.564819,-5570,9105,-1610,1174,-29888
162,205620,1.51211,-9.53682,1.90928,-78.772,-8.88245,-86.7316,0,0,0,0.526398,-0.500977,0.390869,-0.564819,-5566,9105,-1611,1174,-29888
168,205626,1.50732,-9.55117,1.88535,-78.772,-8.88245,-86.7316,0,0,0,0.526398,-0.500977,0.390869,-0.564819,-5562,9104,-1616,1174,-29888
174,205632,1.51211,-9.5416,1.88535,-78.772,-8.88245,-86.7316,0,0,0,0.526398,-0.500977,0.390869,-0.564819,-5556,9102,-1622,1174,-29888
180,205638,1.50732,-9.54639,1.90928,-78.772,-8.88245,-86.7316,0,0,0,0.526398,-0.500977,0.390869,-0.564819,-5554,9102,-1621,1174,-29888
186,205644,1.51211,-9.55596,1.90928,-78.772,-8.88245,-86.7316,0,0,0,0.526398,-0.500977,0.390869,-0.564819,-5553,9103,-1614,1174,-29888
192,205650,1.49775,-9.55117,1.90928,-78.772,-8.88245,-86.7316,0,0,0,0.526398,-0.500977,0.390869,-0.564819,-5554,9104,-1607,1174,-29888
198,205656,1.51689,-9.5751,1.89971,-78.772,-8.88245,-86.7316,0,0,0,0.526398,-0.500977,0.390869,-0.564819,-5552,9104,-1602,1174,-29888
204,205662,1.53125,-9.5416,1.89014,-78.772,-8.87695,-86.7316,0,0,0,0.526398,-0.500977,0.390869,-0.564819,-5551,9106,-1601,1174,-29888
210,205668,1.51689,-9.5416,1.90449,-78.772,-8.87695,-86.7316,0,0,0,0.526398,-0.500977,0.390869,-0.564819,-5551,9105,-1602,1174,-29888
216,205674,1.51689,-9.55596,1.88535,-78.772,-8.87695,-86.7316,0,0,0,0.526398,-0.500977,0.390869,-0.564819,-5556,9105,-1601,1174,-29888
222,205680,1.51211,-9.56074,1.89014,-78.772,-8.87695,-86.7316,0,0,0,0.526398,-0.500977,0.390869,-0.564819,-5560,9105,-1594,1174,-29888
228,205686,1.52646,-9.55117,1.89971,-78.772,-8.87695,-86.7316,0,0,0,0.526398,-0.500977,0.390869,-0.564819,-5565,9104,-1588,1174,-29888
234,205692,1.51689,-9.55596,1.90449,-78.772,-8.87695,-86.7316,0,0,0,0.526398,-0.500977,0.390869,-0.564819,-5569,9101,-1589,1174,-29888
240,205698,1.51211,-9.53682,1.88535,-78.772,-8.87695,-86.7316,0,0,0,0.526428,-0.500977,0.390869,-0.564819,-5566,9099,-1590,1174,-29888
246,205704,1.51689,-9.56074,1.89014,-78.772,-8.87695,-86.7316,0,0,0,0.526428,-0.500977,0.390869,-0.564819,-5564,9098,-1591,1174,-29888
252,205710,1.51689,-9.56553,1.91406,-78.772,-8.87695,-86.7316,0,0,0,0.526428,-0.500977,0.390869,-0.564819,-5560,9098,-1590,1174,-29888
258,205716,1.54082,-9.54639,1.92842,-78.7665,-8.87695,-86.7316,0,0,0,0.526428,-0.500977,0.390869,-0.564819,-5556,9100,-1587,1174,-29888
264,205722,1.51211,-9.56074,1.89492,-78.7665,-8.87695,-86.7316,0,0,0,0.526428,-0.500977,0.390869,-0.564819,-5556,9100,-1586,1174,-29888
270,205728,1.51211,-9.54639,1.9332,-78.7665,-8.87695,-86.7316,0,0,0,0.526428,-0.500977,0.390869,-0.564819,-5556,9099,-1588,1174,-29888
276,205734,1.51211,-9.57031,1.88535,-78.7665,-8.87695,-86.7316,0,0,0,0.526428,-0.500977,0.390869,-0.564819,-5557,9099,-1589,1174,-29888
282,205740,1.53125,-9.55596,1.94277,-78.7665,-8.87695,-86.7316,0,0,0,0.526428,-0.500977,0.390869,-0.564819,-5558,9102,-1584,1174,-29888
288,205746,1.52168,-9.56074,1.90449,-78.7665,-8.87695,-86.7316,0,0,0,0.526428,-0.500977,0.390869,-0.564819,-5557,9104,-1581,1174,-29888
294,205752,1.51689,-9.55117,1.93799,-78.7665,-8.87695,-86.7316,0,0,0,0.526428,-0.500977,0.390869,-0.564819,-5552,9105,-1573,1174,-29888
300,205758,1.49775,-9.54639,1.91885,-78.7665,-8.87695,-86.7316,0,0,0,0.526428,-0.500946,0.390869,-0.564819,-5550,9104,-1574,1174,-29888
306,205764,1.51689,-9.56074,1.92363,-78.7665,-8.87695,-86.7316,0,0,0,0.526428,-0.500946,0.390869,-0.564819,-5548,9101,-1576,1174,-29888
312,205770,1.52168,-9.55596,1.91885,-78.7665,-8.87695,-86.7316,0,0,0,0.526428,-0.500946,0.390869,-0.564819,-5552,9101,-1580,1174,-29888
318,205776,1.52646,-9.56074,1.92363,-78.7665,-8.87695,-86.7316,0,0,0,0.526428,-0.500946,0.390869,-0.564819,-5557,9104,-1585,1174,-29888
324,205782,1.50254,-9.55117,1.89014,-78.7665,-8.87695,-86.7316,0,0,0,0.526428,-0.500946,0.390869,-0.564819,-5565,9112,-1593,1182,-29889
330,205788,1.51689,-9.52725,1.89971,-78.7665,-8.87695,-86.7316,0,0,0,0.526428,-0.500946,0.390869,-0.564819,-5567,9116,-1597,1182,-29889
336,205794,1.52168,-9.55117,1.91406,-78.7665,-8.87695,-86.7316,0,0,0,0.526428,-0.500946,0.390869,-0.564819,-5563,9119,-1602,1182,-29889
342,205800,1.49775,-9.53203,1.90928,-78.7665,-8.87695,-86.7316,0,0,0,0.526428,-0.500946,0.390869,-0.564819,-5562,9119,-1606,1182,-29889
348,205806,1.51689,-9.54639,1.91406,-78.7665,-8.87695,-86.7316,0,0,0,0.526428,-0.500946,0.390869,-0.564819,-5561,9117,-1610,1182,-29889
354,205812,1.50732,-9.55596,1.89492,-78.7665,-8.87695,-86.7316,0,0,0,0.526459,-0.500946,0.390869,-0.564819,-5558,9107,-1617,1182,-29889
360,205818,1.51689,-9.56553,1.91885,-78.7665,-8.87695,-86.7316,0,0,0,0.526459,-0.500946,0.390869,-0.564819,-5558,9101,-1618,1182,-29889
366,205824,1.50254,-9.55596,1.89492,-78.7665,-8.87695,-86.7316,0,0,0,0.526459,-0.500946,0.390869,-0.564819,-5560,9097,-1621,1182,-29889
372,205830,1.51211,-9.5416,1.89492,-78.7665,-8.87695,-86.7316,0,0,0,0.526459,-0.500946,0.390869,-0.564819,-5561,9092,-1625,1182,-29889
378,205836,1.51689,-9.5416,1.87578,-78.7665,-8.87695,-86.7316,0,0,0,0.526459,-0.500946,0.390869,-0.564819,-5564,9089,-1627,1182,-29889
384,205842,1.51689,-9.54639,1.91406,-78.7665,-8.87695,-86.7316,0,0,0,0.526459,-0.500946,0.390869,-0.564819,-5563,9083,-1623,1182,-29889
390,205848,1.49775,-9.55117,1.93799,-78.7665,-8.87695,-86.7316,0,0,0,0.526459,-0.500946,0.390869,-0.564819,-5561,9082,-1617,1182,-29889
396,205854,1.51211,-9.52725,1.89492,-78.761,-8.87695,-86.7316,0,0,0,0.526459,-0.500946,0.390869,-0.564819,-5560,9080,-1611,1182,-29889
402,205860,1.51211,-9.54639,1.89014,-78.761,-8.87695,-86.7316,0,0,0,0.526459,-0.500946,0.390869,-0.564819,-5560,9081,-1607,1182,-29889
408,205866,1.49775,-9.54639,1.90449,-78.761,-8.87695,-86.7316,0,0,0,0.526459,-0.500946,0.390869,-0.564819,-5558,9080,-1603,1182,-29889
414,205872,1.52168,-9.55596,1.88057,-78.761,-8.87695,-86.7316,0,0,0,0.526459,-0.500916,0.390869,-0.564819,-5558,9081,-1596,1182,-29889
420,205878,1.51689,-9.55596,1.89014,-78.761,-8.87695,-86.7316,0,0,0,0.526459,-0.500916,0.390869,-0.564819,-5557,9081,-1591,1182,-29889
426,205884,1.50732,-9.52725,1.88057,-78.761,-8.87695,-86.7316,0,0,0,0.526459,-0.500916,0.390869,-0.564819,-5559,9084,-1587,1182,-29889
432,205890,1.52646,-9.54639,1.90928,-78.761,-8.87695,-86.7316,0,0,0,0.526459,-0.500916,0.390869,-0.564819,-5562,9086,-1582,1182,-29889
438,205896,1.51211,-9.53203,1.90449,-78.761,-8.87695,-86.7316,0,0,0,0.526459,-0.500916,0.390869,-0.564819,-5561,9089,-1576,1182,-29889
444,205902,1.53125,-9.57031,1.90928,-78.761,-8.87695,-86.7316,0,0,0,0.526459,-0.500916,0.390869,-0.564819,-5560,9098,-1569,1182,-29889
450,205908,1.50732,-9.56553,1.89492,-78.761,-8.87695,-86.7316,0,0,0,0.526459,-0.500916,0.390869,-0.564819,-5561,9102,-1564,1182,-29889
456,205914,1.50254,-9.56074,1.89492,-78.761,-8.87695,-86.7316,0,0,0,0.526459,-0.500916,0.390869,-0.564819,-5563,9103,-1560,1182,-29889
462,205920,1.51689,-9.53682,1.90449,-78.761,-8.87146,-86.7316,0,0,0,0.526459,-0.500916,0.390869,-0.564819,-5565,9103,-1555,1182,-29889
468,205926,1.48818,-9.54639,1.89014,-78.761,-8.87146,-86.7316,0,0,0,0.526459,-0.500916,0.390869,-0.564819,-5566,9104,-1553,1182,-29889
474,205932,1.50732,-9.54639,1.89492,-78.761,-8.87146,-86.7316,0,0,0,0.526489,-0.500916,0.390869,-0.564819,-5564,9107,-1563,1182,-29889
480,205938,1.51211,-9.5416,1.87578,-78.761,-8.87146,-86.7316,0,0,0,0.526489,-0.500916,0.390869,-0.564819,-5563,9109,-1569,1182,-29889
486,205944,1.49297,-9.55596,1.91406,-78.761,-8.87146,-86.7316,0,0,0,0.526489,-0.500916,0.390869,-0.564819,-5563,9109,-1571,1182,-29889
492,205950,1.51211,-9.5751,1.91885,-78.761,-8.87146,-86.7316,0,0,0,0.526489,-0.500916,0.390869,-0.564819,-5564,9108,-1569,1182,-29889
498,205956,1.51211,-9.55596,1.89014,-78.761,-8.87146,-86.7316,0,0,0,0.526489,-0.500916,0.390869,-0.564819,-5564,9106,-1562,1182,-29889
504,205962,1.52646,-9.53682,1.89014,-78.761,-8.87146,-86.7316,0,0,0,0.526489,-0.500916,0.390869,-0.564819,-5563,9103,-1549,1182,-29889
510,205968,1.51211,-9.56074,1.90449,-78.761,-8.87146,-86.7316,0,0,0,0.526489,-0.500916,0.390869,-0.564819,-5562,9104,-1546,1182,-29889
516,205974,1.52168,-9.55117,1.90928,-78.761,-8.87146,-86.7316,0,0,0,0.526489,-0.500916,0.390869,-0.564819,-5560,9108,-1542,1182,-29889
522,205980,1.54082,-9.55596,1.88535,-78.761,-8.87146,-86.7316,0,0,0,0.526489,-0.500916,0.390869,-0.564819,-5558,9109,-1541,1182,-29889
528,205986,1.51211,-9.56074,1.89492,-78.761,-8.87146,-86.7316,0,0,0,0.526489,-0.500916,0.390869,-0.564819,-5557,9112,-1545,1182,-29889
534,205992,1.49297,-9.5416,1.89014,-78.761,-8.87146,-86.7316,0,0,0,0.526489,-0.500916,0.390869,-0.564819,-5555,9114,-1557,1182,-29889
540,205998,1.51211,-9.56074,1.90449,-78.761,-8.87146,-86.7316,0,0,0,0.526489,-0.500916,0.390869,-0.564819,-5555,9114,-1566,1182,-29889
546,206004,1.49297,-9.5416,1.91406,-78.761,-8.87146,-86.7316,0,0,0,0.526489,-0.500916,0.390869,-0.564819,-5555,9114,-1571,1182,-29889
552,206010,1.51211,-9.5416,1.91406,-78.761,-8.87146,-86.7316,0,0,0,0.526489,-0.500916,0.390869,-0.564819,-5553,9112,-1576,1182,-29889
558,206016,1.50732,-9.52725,1.90449,-78.761,-8.87146,-86.7316,0,0,0,0.526489,-0.500916,0.390869,-0.564819,-5551,9110,-1581,1182,-29889
564,206022,1.50732,-9.5416,1.89971,-78.761,-8.87146,-86.7316,0,0,0,0.526489,-0.500916,0.390869,-0.564819,-5554,9110,-1587,1182,-29889
570,206028,1.49297,-9.5416,1.91885,-78.761,-8.87146,-86.7316,0,0,0,0.526489,-0.500916,0.390869,-0.564819,-5555,9112,-1592,1182,-29889
576,206034,1.50732,-9.5416,1.91885,-78.761,-8.87146,-86.7316,0,0,0,0.526489,-0.500916,0.390869,-0.564819,-5558,9113,-1597,1182,-29889
582,206040,1.52168,-9.54639,1.91885,-78.761,-8.87146,-86.7316,0,0,0,0.526489,-0.500916,0.390869,-0.564819,-5561,9112,-1603,1182,-29889
588,206046,1.51689,-9.5416,1.85664,-78.761,-8.87146,-86.7316,0,0,0,0.526489,-0.500885,0.390869,-0.564819,-5562,9113,-1608,1182,-29889
594,206052,1.51211,-9.54639,1.90449,-78.761,-8.87146,-86.7316,0,0,0,0.526489,-0.500885,0.390869,-0.564819,-5564,9114,-1613,1182,-29889
600,206058,1.50254,-9.54639,1.90449,-78.761,-8.87146,-86.7316,0,0,0,0.526489,-0.500885,0.390869,-0.564819,-5566,9114,-1614,1182,-29889
606,206064,1.51689,-9.57988,1.89014,-78.761,-8.87146,-86.7316,0,0,0,0.526489,-0.500885,0.390869,-0.564819,-5567,9114,-1612,1182,-29889
612,206070,1.52168,-9.58945,1.88057,-78.7555,-8.87146,-86.7316,0,0,0,0.526489,-0.500885,0.390869,-0.564819,-5569,9112,-1611,1182,-29889
618,206076,1.51689,-9.55117,1.90449,-78.7555,-8.87146,-86.7316,0,0,0,0.52652,-0.500885,0.390869,-0.564819,-5571,9111,-1609,1182,-29889
624,206082,1.51689,-9.57031,1.90928,-78.7555,-8.87146,-86.7261,0,0,0,0.52652,-0.500885,0.390869,-0.564819,-5572,9112,-1607,1182,-29889
630,206088,1.52168,-9.55117,1.90928,-78.7555,-8.87146,-86.7261,0,0,0,0.52652,-0.500885,0.390869,-0.564819,-5573,9114,-1604,1182,-29889
636,206094,1.49775,-9.5751,1.88057,-78.7555,-8.87146,-86.7261,0,0,0,0.52652,-0.500885,0.390869,-0.564819,-5573,9115,-1599,1182,-29889
642,206100,1.52168,-9.54639,1.92363,-78.7555,-8.87146,-86.7261,0,0,0,0.52652,-0.500885,0.390869,-0.564819,-5574,9116,-1600,1182,-29889
648,206106,1.50254,-9.53682,1.90449,-78.7555,-8.87146,-86.7261,0,0,0,0.52652,-0.500885,0.390869,-0.564819,-5576,9118,-1600,1182,-29889
654,206112,1.52168,-9.55117,1.88535,-78.7555,-8.87146,-86.7261,0,0,0,0.52652,-0.500885,0.390869,-0.564819,-5577,9114,-1600,1182,-29889
660,206118,1.51689,-9.56553,1.89971,-78.7555,-8.87146,-86.7261,0,0,0,0.52652,-0.500885,0.390869,-0.564819,-5577,9112,-1599,1182,-29889
666,206124,1.50254,-9.56074,1.90449,-78.7555,-8.87146,-86.7261,0,0,0,0.52652,-0.500885,0.390869,-0.564819,-5579,9112,-1600,1182,-29889
672,206130,1.50254,-9.53203,1.91885,-78.7555,-8.87146,-86.7261,0,0,0,0.52652,-0.500885,0.390869,-0.564819,-5578,9110,-1601,1182,-29889
678,206136,1.51689,-9.5416,1.90449,-78.7555,-8.87146,-86.7261,0,0,0,0.52652,-0.500885,0.390869,-0.564819,-5576,9108,-1602,1182,-29889
684,206142,1.49775,-9.56553,1.90928,-78.7555,-8.87146,-86.7261,0,0,0,0.52652,-0.500885,0.390869,-0.564819,-5574,9105,-1609,1182,-29889
690,206148,1.51689,-9.53682,1.92363,-78.7555,-8.87146,-86.7261,0,0,0,0.52652,-0.500885,0.390869,-0.564819,-5574,9103,-1613,1182,-29889
696,206154,1.49775,-9.52725,1.92363,-78.7555,-8.87146,-86.7261,0,0,0,0.52652,-0.500885,0.390869,-0.564819,-5575,9103,-1617,1182,-29889
702,206160,1.50732,-9.55117,1.92842,-78.7555,-8.87146,-86.7261,0,0,0,0.52652,-0.500885,0.390869,-0.564819,-5575,9102,-1619,1182,-29889
708,206166,1.51689,-9.54639,1.88057,-78.7555,-8.87146,-86.7261,0,0,0,0.52652,-0.500885,0.390869,-0.564819,-5577,9102,-1622,1182,-29889
714,206172,1.51211,-9.55596,1.88057,-78.7555,-8.86597,-86.7261,0,0,0,0.52652,-0.500885,0.390869,-0.564819,-5576,9106,-1622,1182,-29889
720,206178,1.52168,-9.57031,1.88057,-78.7555,-8.86597,-86.7261,0,0,0,0.52652,-0.500885,0.390869,-0.564819,-5574,9109,-1618,1182,-29889
726,206184,1.52646,-9.56074,1.88057,-78.7555,-8.86597,-86.7261,0,0,0,0.52652,-0.500885,0.390869,-0.564819,-5574,9112,-1611,1182,-29889
732,206190,1.51689,-9.56553,1.871,-78.7555,-8.86597,-86.7261,0,0,0,0.52652,-0.500885,0.390869,-0.564789,-5574,9113,-1606,1182,-29889
738,206196,1.53604,-9.55117,1.871,-78.7555,-8.86597,-86.7261,0,0,0,0.52652,-0.500885,0.390869,-0.564789,-5576,9114,-1602,1182,-29889
744,206202,1.53604,-9.55596,1.91885,-78.7555,-8.86597,-86.7261,0,0,0,0.52652,-0.500885,0.390869,-0.564789,-5580,9115,-1602,1182,-29889
750,206208,1.52168,-9.56074,1.88535,-78.7555,-8.86597,-86.7261,0,0,0,0.52652,-0.500885,0.390869,-0.564789,-5581,9117,-1606,1182,-29889
756,206214,1.53125,-9.56553,1.91885,-78.7555,-8.86597,-86.7261,0,0,0,0.52652,-0.500885,0.390869,-0.564789,-5581,9119,-1611,1182,-29889
762,206220,1.4834,-9.55596,1.89971,-78.7555,-8.86597,-86.7261,0,0,0,0.52652,-0.500885,0.390869,-0.564789,-5581,9120,-1614,1182,-29889
768,206226,1.50732,-9.55117,1.91406,-78.7555,-8.86597,-86.7261,0,0,0,0.52652,-0.500885,0.390869,-0.564789,-5582,9120,-1616,1182,-29889
774,206232,1.52168,-9.54639,1.89492,-78.7555,-8.86597,-86.7261,0,0,0,0.52652,-0.500885,0.390869,-0.564789,-5582,9112,-1615,1182,-29889
780,206238,1.51211,-9.53203,1.91885,-78.7555,-8.86597,-86.7261,0,0,0,0.52652,-0.500885,0.390869,-0.564789,-5584,9111,-1612,1182,-29889
786,206244,1.50254,-9.54639,1.91406,-78.7555,-8.86597,-86.7261,0,0,0,0.52652,-0.500885,0.390869,-0.564789,-5585,9111,-1611,1182,-29889
792,206250,1.50254,-9.55596,1.91406,-78.7555,-8.86597,-86.7261,0,0,0,0.52652,-0.500854,0.390869,-0.564789,-5586,9110,-1607,1182,-29889
798,206256,1.51211,-9.55117,1.95234,-78.7555,-8.86597,-86.7261,0,0,0,0.52655,-0.500854,0.390869,-0.564789,-5590,9109,-1601,1182,-29889
804,206262,1.56953,-9.53203,1.89014,-78.7555,-8.86597,-86.7261,0,0,0,0.52655,-0.500854,0.390869,-0.564789,-5593,9105,-1595,1182,-29889
810,206268,1.50732,-9.53203,1.91885,-78.7555,-8.86597,-86.7261,0,0,0,0.52655,-0.500854,0.390869,-0.564789,-5593,9104,-1594,1182,-29889
816,206274,1.46904,-9.55117,1.90928,-78.7555,-8.86597,-86.7261,0,0,0,0.52655,-0.500854,0.390869,-0.564789,-5591,9104,-1592,1182,-29889
822,206280,1.55039,-9.53203,1.91885,-78.7555,-8.86597,-86.7261,0,0,0,0.52655,-0.500854,0.390869,-0.564789,-5589,9104,-1591,1182,-29889
828,206286,1.48818,-9.59902,1.871,-78.7555,-8.86597,-86.7261,0,0,0,0.52655,-0.500854,0.390839,-0.564789,-5584,9103,-1593,1182,-29889
834,206292,1.51211,-9.60859,1.86143,-78.7555,-8.86597,-86.7261,0,0,0,0.52655,-0.500854,0.390839,-0.564789,-5576,9100,-1597,1182,-29889
840,206298,1.51689,-9.55596,1.89492,-78.7555,-8.86597,-86.7261,0,0,0,0.52655,-0.500854,0.390869,-0.564789,-5573,9099,-1597,1182,-29889
846,206304,1.55518,-9.56553,1.88057,-78.7555,-8.86597,-86.7261,0,0,0,0.52655,-0.500854,0.390869,-0.564789,-5572,9099,-1593,1182,-29889
852,206310,1.53604,-9.54639,1.91406,-78.7555,-8.86597,-86.7261,0,0,0,0.52655,-0.500854,0.390869,-0.564789,-5573,9098,-1588,1182,-29889
858,206316,1.52646,-9.54639,1.90449,-78.7555,-8.86597,-86.7261,0,0,0,0.52655,-0.500854,0.390869,-0.564789,-5575,9092,-1580,1182,-29889
864,206322,1.49297,-9.54639,1.92363,-78.7555,-8.86597,-86.7261,0,0,0,0.52655,-0.500854,0.390839,-0.564789,-5576,9090,-1581,1182,-29889
870,206328,1.50254,-9.56553,1.90449,-78.7555,-8.86597,-86.7261,0,0,0,0.52655,-0.500854,0.390839,-0.564789,-5574,9090,-1579,1182,-29889
876,206334,1.49297,-9.54639,1.94277,-78.7555,-8.86597,-86.7316,-0.0610352,0.793457,-0.183105,0.52652,-0.500854,0.390869,-0.564819,-5573,9091,-1576,1182,-29889
882,206340,1.47383,-9.52246,1.89971,-78.7555,-8.86597,-86.7371,-0.366211,1.0376,-0.427246,0.526489,-0.500824,0.3909,-0.56485,-5572,9092,-1572,1182,-29889
888,206346,1.60781,-9.55596,1.86143,-78.7555,-8.86597,-86.748,0.0610352,0.610352,-0.12207,0.526459,-0.500824,0.3909,-0.56488,-5571,9095,-1557,1182,-29889
894,206352,1.63652,-9.59902,1.74658,-78.7555,-8.86597,-86.748,-0.427246,0.427246,0,0.526428,-0.500793,0.39093,-0.56488,-5570,9097,-1556,1182,-29889
900,206358,1.51211,-9.69951,1.804,-78.7555,-8.86597,-86.748,0.488281,0.427246,0.244141,0.526459,-0.500793,0.39093,-0.564911,-5570,9100,-1557,1182,-29889
906,206364,1.46904,-9.54639,1.88057,-78.75,-8.86597,-86.748,1.09863,0.0610352,0.0610352,0.526459,-0.500763,0.39093,-0.564911,-5568,9103,-1557,1182,-29889
912,206370,1.42119,-9.39326,2.05762,-78.7445,-8.86597,-86.7535,0.549316,0.488281,0.183105,0.526489,-0.500732,0.39093,-0.564941,-5570,9106,-1560,1182,-29889
918,206376,1.43076,-9.49375,2.00977,-78.7445,-8.86597,-86.748,-0.427246,-0.244141,-0.0610352,0.526489,-0.500732,0.39093,-0.564941,-5575,9110,-1572,1182,-29889
924,206382,1.50254,-9.52246,1.93799,-78.75,-8.86597,-86.748,-0.305176,-0.549316,-0.183105,0.526459,-0.500763,0.39093,-0.564911,-5579,9110,-1580,1182,-29889
930,206388,1.55518,-9.56074,1.85664,-78.75,-8.86597,-86.748,-0.549316,-0.366211,-0.305176,0.526459,-0.500793,0.39093,-0.564911,-5581,9110,-1589,1182,-29889
936,206394,1.53125,-9.61338,1.84707,-78.7555,-8.86597,-86.748,-0.732422,-0.183105,0,0.526459,-0.500793,0.39093,-0.56488,-5583,9110,-1598,1182,-29889
942,206400,1.52168,-9.62773,1.83271,-78.7555,-8.86597,-86.7426,-0.12207,-0.610352,0.0610352,0.526459,-0.500824,0.39093,-0.56488,-5585,9109,-1608,1182,-29889
948,206406,1.53125,-9.56074,1.87578,-78.7555,-8.86597,-86.7371,-0.12207,-0.427246,0.0610352,0.526459,-0.500824,0.39093,-0.56485,-5581,9107,-1619,1182,-29889
954,206412,1.51211,-9.53682,1.871,-78.7555,-8.86597,-86.7371,0,-0.366211,0.305176,0.526489,-0.500854,0.3909,-0.564819,-5580,9108,-1619,1182,-29889
960,206418,1.51689,-9.56553,1.86143,-78.7555,-8.86597,-86.7316,0,-0.366211,0.12207,0.526489,-0.500854,0.3909,-0.564819,-5579,9108,-1619,1182,-29889
966,206424,1.53125,-9.57031,1.88057,-78.7555,-8.86597,-86.7316,0,-0.244141,-0.0610352,0.52652,-0.500854,0.3909,-0.564819,-5581,9108,-1616,1182,-29889
972,206430,1.53604,-9.55117,1.85664,-78.7555,-8.86597,-86.7316,0.0610352,0,0.12207,0.52652,-0.500854,0.3909,-0.564819,-5583,9110,-1615,1182,-29889
978,206436,1.52646,-9.56553,1.87578,-78.7555,-8.86597,-86.7316,0.183105,0,0.12207,0.52652,-0.500854,0.3909,-0.564819,-5584,9107,-1613,1182,-29889
984,206442,1.52646,-9.59902,1.8375,-78.7555,-8.86597,-86.7316,0.427246,0.0610352,0.244141,0.52655,-0.500824,0.3909,-0.564819,-5581,9107,-1611,1182,-29889
990,206448,1.50254,-9.59424,1.82314,-78.75,-8.86047,-86.7316,0.427246,0,0.305176,0.52655,-0.500824,0.3909,-0.564819,-5579,9106,-1607,1182,-29889
996,206454,1.49297,-9.62295,1.87578,-78.75,-8.86047,-86.7316,0.610352,-0.305176,0.366211,0.526581,-0.500793,0.390869,-0.564789,-5577,9106,-1608,1182,-29889
1002,206460,1.54082,-9.58467,1.91406,-78.7445,-8.86047,-86.7261,0.732422,-0.305176,0.366211,0.526611,-0.500793,0.390869,-0.564789,-5575,9106,-1609,1182,-29889
1008,206466,1.47861,-9.52246,1.95234,-78.739,-8.85498,-86.7261,0.305176,-0.0610352,0.488281,0.526642,-0.500763,0.390839,-0.564819,-5565,9104,-1610,1182,-29889
1014,206472,1.53125,-9.56074,1.89014,-78.739,-8.85498,-86.7261,0.427246,0,0.244141,0.526672,-0.500732,0.390839,-0.564789,-5558,9103,-1613,1182,-29889
1020,206478,1.55039,-9.57988,1.92363,-78.739,-8.85498,-86.7261,0.305176,0.183105,0.0610352,0.526672,-0.500732,0.390839,-0.564819,-5554,9102,-1613,1182,-29889
1026,206484,1.49775,-9.55117,1.90928,-78.7335,-8.84949,-86.7261,0.488281,0.12207,0.366211,0.526672,-0.500702,0.390839,-0.564819,-5554,9099,-1609,1182,-29889
1032,206490,1.52646,-9.53682,1.89014,-78.7335,-8.84949,-86.7316,0.305176,0.244141,0.305176,0.526703,-0.500702,0.390839,-0.564819,-5553,9097,-1603,1182,-29889
1038,206496,1.50732,-9.55117,1.91885,-78.728,-8.84949,-86.7316,0.793457,0.12207,0.12207,0.526703,-0.500671,0.390839,-0.564819,-5555,9096,-1587,1182,-29889
1044,206502,1.48818,-9.48897,1.92363,-78.7225,-8.84949,-86.7316,0.732422,0.12207,0.183105,0.526733,-0.500641,0.390839,-0.56485,-5555,9099,-1581,1182,-29889
1050,206508,1.51211,-9.5416,1.91406,-78.7225,-8.84399,-86.7316,0.183105,0.12207,0.305176,0.526733,-0.50061,0.390839,-0.56485,-5555,9101,-1578,1182,-29889
1056,206514,1.47861,-9.57031,1.93799,-78.7225,-8.84399,-86.7316,0.366211,0.305176,0.244141,0.526764,-0.50061,0.390839,-0.56485,-5553,9104,-1575,1182,-29889
1062,206520,1.48818,-9.51289,1.89014,-78.717,-8.84399,-86.7316,0.549316,0.183105,0.183105,0.526764,-0.50058,0.390839,-0.56485,-5552,9103,-1574,1182,-29889
1068,206526,1.53125,-9.5751,1.91885,-78.717,-8.8385,-86.7371,0.183105,0,0.305176,0.526764,-0.500549,0.390839,-0.56488,-5548,9098,-1575,1182,-29889
1074,206532,1.51211,-9.57031,1.90928,-78.717,-8.8385,-86.7371,0.366211,0.366211,0.183105,0.526794,-0.500519,0.390839,-0.56488,-5549,9100,-1573,1182,-29889
1080,206538,1.50732,-9.57031,1.88535,-78.7115,-8.8385,-86.7371,0.366211,0.366211,0.183105,0.526794,-0.500519,0.390839,-0.56488,-5550,9100,-1574,1182,-29889
1086,206544,1.52168,-9.54639,1.89014,-78.7115,-8.8385,-86.7371,0.366211,0.12207,0.12207,0.526794,-0.500488,0.390839,-0.56488,-5551,9104,-1577,1182,-29889
1092,206550,1.52168,-9.54639,1.93799,-78.7115,-8.8385,-86.7371,0.305176,0.305176,0.12207,0.526825,-0.500488,0.390839,-0.564911,-5554,9110,-1578,1182,-29889
1098,206556,1.47861,-9.55117,1.92842,-78.7061,-8.83301,-86.7426,0.12207,0.305176,0.305176,0.526825,-0.500458,0.390839,-0.564911,-5554,9117,-1582,1182,-29889
1104,206562,1.48818,-9.5416,1.95234,-78.7061,-8.83301,-86.7426,0.183105,0.244141,0,0.526825,-0.500427,0.390869,-0.564911,-5557,9119,-1578,1182,-29889
1110,206568,1.52168,-9.5416,1.93799,-78.7061,-8.83301,-86.7426,0.183105,0.183105,0,0.526825,-0.500427,0.390869,-0.564911,-5563,9120,-1577,1182,-29889
1116,206574,1.45947,-9.53203,1.89492,-78.7061,-8.83301,-86.748,0.0610352,0.244141,0,0.526825,-0.500427,0.390869,-0.564941,-5564,9118,-1584,1182,-29889
1122,206580,1.52168,-9.5416,1.89014,-78.7006,-8.83301,-86.748,0.12207,0.244141,0.0610352,0.526825,-0.500397,0.390869,-0.564941,-5568,9115,-1589,1182,-29889
1128,206586,1.51689,-9.58467,1.83271,-78.7006,-8.82751,-86.748,0.0610352,0.244141,0,0.526825,-0.500397,0.390869,-0.564941,-5567,9109,-1604,1182,-29889
1134,206592,1.55039,-9.5751,1.90928,-78.7006,-8.82751,-86.748,0.244141,0.12207,0.12207,0.526825,-0.500366,0.390869,-0.564941,-5565,9106,-1608,1182,-29889
1140,206598,1.48818,-9.52246,1.88535,-78.7006,-8.82751,-86.748,0.305176,0.183105,0.305176,0.526855,-0.500366,0.390869,-0.564941,-5564,9104,-1607,1182,-29889
1146,206604,1.51689,-9.59902,1.90449,-78.6951,-8.82751,-86.7535,0.244141,0.244141,0.183105,0.526855,-0.500336,0.3909,-0.564941,-5563,9104,-1611,1182,-29889
1152,206610,1.52168,-9.56553,1.87578,-78.6951,-8.82751,-86.7535,0.549316,0.183105,-0.12207,0.526855,-0.500336,0.390869,-0.564972,-5563,9102,-1616,1182,-29889
1158,206616,1.51211,-9.52725,1.89492,-78.6896,-8.82202,-86.7535,0.488281,0.305176,0.366211,0.526855,-0.500305,0.390869,-0.564972,-5562,9100,-1624,1182,-29889
1164,206622,1.49297,-9.5416,1.91406,-78.6896,-8.82202,-86.7535,0.183105,0.183105,0.183105,0.526886,-0.500275,0.3909,-0.565002,-5563,9099,-1619,1182,-29889
1170,206628,1.52646,-9.56553,1.92842,-78.6896,-8.82202,-86.759,0.305176,0.305176,0.305176,0.526886,-0.500244,0.3909,-0.565002,-5564,9100,-1613,1182,-29889
1176,206634,1.49775,-9.52725,1.91885,-78.6841,-8.82202,-86.759,0.427246,0.183105,0,0.526886,-0.500244,0.3909,-0.565002,-5565,9105,-1606,1182,-29889
1182,206640,1.49297,-9.5416,1.97148,-78.6841,-8.81653,-86.759,0.427246,0.183105,0.488281,0.526917,-0.500214,0.3909,-0.565002,-5566,9111,-1599,1182,-29889
1188,206646,1.45947,-9.5416,1.9332,-78.6786,-8.81653,-86.759,0.549316,0.0610352,0,0.526917,-0.500183,0.3909,-0.565033,-5560,9120,-1595,1182,-29889
1194,206652,1.50254,-9.52725,1.92363,-78.6786,-8.81653,-86.7645,0.488281,0.183105,0,0.526917,-0.500183,0.390869,-0.565033,-5559,9121,-1592,1182,-29889
1200,206658,1.51211,-9.55117,1.92842,-78.6786,-8.81653,-86.7645,0.0610352,0.183105,0.366211,0.526947,-0.500153,0.3909,-0.565033,-5558,9118,-1593,1182,-29889
1206,206664,1.53604,-9.58467,1.91885,-78.6731,-8.81653,-86.7645,0.12207,0.183105,0,0.526947,-0.500153,0.3909,-0.565033,-5559,9114,-1591,1182,-29889
1212,206670,1.52168,-9.56074,1.9332,-78.6731,-8.81104,-86.7645,0.366211,0.244141,0.366211,0.526947,-0.500122,0.3909,-0.565033,-5559,9109,-1584,1182,-29889
1218,206676,1.52168,-9.53203,1.89014,-78.6676,-8.81104,-86.7645,0.488281,0.244141,0.244141,0.526978,-0.500092,0.3909,-0.565063,-5555,9100,-1581,1182,-29889
1224,206682,1.54082,-9.59424,1.88535,-78.6676,-8.81104,-86.7645,0.427246,0.0610352,0.12207,0.526978,-0.500092,0.3909,-0.565063,-5552,9099,-1581,1182,-29889
1230,206688,1.53604,-9.58467,1.89971,-78.6621,-8.80554,-86.7645,0.549316,0.244141,0.366211,0.527008,-0.500061,0.3909,-0.565063,-5549,9096,-1583,1182,-29889
1236,206694,1.57432,-9.51289,1.95234,-78.6621,-8.80554,-86.77,0.610352,0.427246,0.12207,0.527008,-0.500031,0.3909,-0.565094,-5547,9093,-1585,1182,-29889
1242,206700,1.51211,-9.5416,1.94756,-78.6621,-8.80554,-86.77,0.305176,0.366211,0.305176,0.527008,-0.5,0.3909,-0.565094,-5543,9091,-1583,1182,-29889
1248,206706,1.49775,-9.5416,1.92842,-78.6566,-8.80005,-86.7755,0.244141,0.549316,0.244141,0.527008,-0.5,0.3909,-0.565094,-5543,9091,-1585,1182,-29889
1254,206712,1.4499,-9.52725,1.94277,-78.6566,-8.80005,-86.7755,0.183105,0.366211,0.549316,0.527039,-0.499939,0.39093,-0.565094,-5544,9093,-1587,1182,-29889
1260,206718,1.4834,-9.52725,1.90928,-78.6511,-8.80005,-86.781,0.244141,0.671387,0.0610352,0.527039,-0.499939,0.39093,-0.565125,-5547,9096,-1593,1182,-29889
1266,206724,1.47861,-9.54639,1.92842,-78.6511,-8.79456,-86.781,0.183105,0.427246,0,0.527008,-0.499908,0.39093,-0.565125,-5548,9101,-1600,1182,-29889
1272,206730,1.47383,-9.52725,1.91885,-78.6511,-8.79456,-86.781,0.305176,0.305176,0,0.527008,-0.499908,0.39093,-0.565155,-5548,9105,-1608,1182,-29889
1278,206736,1.4834,-9.51289,1.97627,-78.6456,-8.80005,-86.7865,0.183105,0.427246,-0.305176,0.527008,-0.499878,0.39093,-0.565155,-5546,9108,-1616,1182,-29889
1284,206742,1.49297,-9.50332,1.97148,-78.6456,-8.79456,-86.792,-0.12207,0.549316,0,0.527008,-0.499847,0.390961,-0.565186,-5547,9108,-1616,1182,-29889
1290,206748,1.46426,-9.50811,1.95234,-78.6456,-8.80005,-86.792,-0.183105,0.183105,-0.305176,0.526978,-0.499878,0.390961,-0.565216,-5549,9107,-1610,1182,-29889
1296,206754,1.49775,-9.53203,1.9332,-78.6511,-8.80005,-86.792,-0.305176,0.0610352,-0.0610352,0.526978,-0.499878,0.390961,-0.565216,-5549,9108,-1603,1182,-29889
1302,206760,1.52168,-9.51768,1.94756,-78.6511,-8.80005,-86.792,-0.183105,0.427246,-0.244141,0.526947,-0.499878,0.390961,-0.565216,-5551,9109,-1596,1182,-29889
1308,206766,1.51211,-9.52725,1.90449,-78.6511,-8.80005,-86.7975,-0.0610352,0.366211,0,0.526947,-0.499878,0.390991,-0.565216,-5553,9111,-1588,1182,-29889
1314,206772,1.50254,-9.53203,1.92363,-78.6511,-8.80005,-86.7975,-0.366211,0.12207,-0.427246,0.526917,-0.499878,0.390991,-0.565247,-5554,9106,-1588,1182,-29889
1320,206778,1.50254,-9.5751,1.89014,-78.6511,-8.80005,-86.7975,-0.427246,0.366211,-0.0610352,0.526886,-0.499878,0.391022,-0.565247,-5554,9102,-1589,1182,-29889
1326,206784,1.52168,-9.62773,1.871,-78.6511,-8.80554,-86.803,-0.183105,0.549316,-0.366211,0.526886,-0.499878,0.391022,-0.565247,-5554,9098,-1588,1182,-29889
1332,206790,1.50732,-9.59424,1.85664,-78.6511,-8.80005,-86.803,0.0610352,0.488281,-0.0610352,0.526886,-0.499847,0.391022,-0.565277,-5552,9094,-1587,1182,-29889
1338,206796,1.54082,-9.55117,1.91406,-78.6566,-8.80005,-86.8085,-0.183105,0.366211,0,0.526855,-0.499847,0.391022,-0.565277,-5551,9091,-1578,1182,-29889
1344,206802,1.53604,-9.59424,1.88057,-78.6566,-8.80005,-86.8085,-0.183105,0.0610352,0.0610352,0.526855,-0.499847,0.391052,-0.565277,-5549,9087,-1575,1182,-29889
1350,206808,1.51211,-9.59902,1.89014,-78.6566,-8.80005,-86.8085,0.12207,0.305176,0,0.526855,-0.499847,0.391052,-0.565277,-5547,9083,-1574,1182,-29889
1356,206814,1.52168,-9.59902,1.9332,-78.6566,-8.80005,-86.8085,0.0610352,0.244141,0.244141,0.526855,-0.499817,0.391052,-0.565277,-5545,9079,-1575,1182,-29889
1362,206820,1.55039,-9.58945,1.89971,-78.6566,-8.80005,-86.8085,0,0,0.366211,0.526855,-0.499817,0.391083,-0.565277,-5544,9078,-1581,1182,-29889
1368,206826,1.54561,-9.60859,1.871,-78.6566,-8.79456,-86.8085,0.12207,0.244141,0.488281,0.526886,-0.499817,0.391083,-0.565247,-5548,9083,-1587,1182,-29889
1374,206832,1.50254,-9.56553,1.97148,-78.6566,-8.78906,-86.8085,0.0610352,0.0610352,0.610352,0.526886,-0.499786,0.391113,-0.565247,-5549,9086,-1588,1182,-29889
1380,206838,1.52168,-9.53203,1.95234,-78.6566,-8.78906,-86.8085,0.0610352,0.12207,0.854492,0.526917,-0.499786,0.391144,-0.565216,-5549,9087,-1588,1182,-29889
1386,206844,1.41641,-9.52246,1.97627,-78.6566,-8.78357,-86.8085,-0.12207,0.183105,0.549316,0.526917,-0.499756,0.391144,-0.565216,-5550,9088,-1589,1182,-29889
1392,206850,1.44512,-9.54639,1.98584,-78.6566,-8.78357,-86.8085,-0.183105,-0.244141,0.488281,0.526947,-0.499756,0.391144,-0.565186,-5549,9089,-1592,1182,-29889
1398,206856,1.41162,-9.46504,2.02412,-78.6566,-8.78357,-86.8085,-0.366211,0.0610352,-0.0610352,0.526947,-0.499786,0.391174,-0.565186,-5550,9093,-1602,1182,-29889
1404,206862,1.49775,-9.46982,1.99063,-78.6621,-8.77808,-86.803,-0.610352,-0.12207,0.244141,0.526917,-0.499786,0.391174,-0.565155,-5552,9094,-1609,1182,-29889
1410,206868,1.49775,-9.55117,2.00498,-78.6676,-8.77808,-86.8085,-0.976563,0.0610352,-0.0610352,0.526917,-0.499817,0.391205,-0.565155,-5553,9091,-1616,1182,-29889
1416,206874,1.4834,-9.5416,1.99063,-78.6676,-8.77808,-86.803,-0.915527,-0.244141,0.183105,0.526886,-0.499847,0.391235,-0.565125,-5553,9090,-1623,1182,-29889
1422,206880,1.52168,-9.55117,1.92842,-78.6731,-8.77808,-86.803,-1.2207,0.12207,0.183105,0.526886,-0.499847,0.391266,-0.565094,-5554,9088,-1627,1182,-29889
1428,206886,1.51689,-9.61338,1.86621,-78.6951,-8.77808,-86.803,-1.77002,-0.549316,0.12207,0.526825,-0.499939,0.391327,-0.565033,-5555,9085,-1623,1182,-29889
1434,206892,1.53604,-9.60859,1.79922,-78.7006,-8.77808,-86.7975,-1.70898,-0.732422,0.488281,0.526794,-0.5,0.391388,-0.564972,-5557,9084,-1611,1182,-29889
1440,206898,1.57432,-9.65645,1.78486,-78.7115,-8.77258,-86.792,-1.46484,-0.793457,0.488281,0.526794,-0.500031,0.391388,-0.564911,-5557,9082,-1602,1182,-29889
1446,206904,1.53604,-9.67559,1.73701,-78.717,-8.77258,-86.792,-1.0376,-0.732422,0.915527,0.526794,-0.500061,0.391418,-0.56488,-5558,9081,-1594,1182,-29889
1452,206910,1.51689,-9.62295,1.76572,-78.717,-8.76709,-86.7865,-0.610352,-1.15967,0.793457,0.526825,-0.500092,0.391449,-0.564819,-5557,9078,-1586,1182,-29889
1458,206916,1.4834,-9.57031,1.80879,-78.7225,-8.7616,-86.77,0,-1.58691,1.0376,0.526917,-0.500122,0.391418,-0.564697,-5555,9070,-1575,1182,-29889
1464,206922,1.45947,-9.52725,1.89971,-78.728,-8.7561,-86.759,-0.12207,-1.52588,1.34277,0.526978,-0.500153,0.391418,-0.564636,-5555,9069,-1567,1182,-29889
1470,206928,1.44033,-9.48897,1.89492,-78.728,-8.75061,-86.748,-0.244141,-1.64795,1.28174,0.527039,-0.500183,0.391418,-0.564575,-5557,9070,-1565,1182,-29889
1476,206934,1.44033,-9.51768,1.90449,-78.7335,-8.74512,-86.7426,-0.183105,-1.83105,1.15967,0.527069,-0.500183,0.391418,-0.564514,-5558,9071,-1568,1182,-29889
1482,206940,1.42119,-9.53203,1.84707,-78.7335,-8.74512,-86.7316,-0.12207,-1.70898,0.976563,0.52713,-0.500214,0.391418,-0.564453,-5559,9072,-1571,1182,-29889
1488,206946,1.46426,-9.53203,1.88057,-78.739,-8.73413,-86.7206,0,-1.2207,1.28174,0.527222,-0.500244,0.391418,-0.564331,-5566,9076,-1583,1182,-29889
1494,206952,1.43555,-9.53682,1.86143,-78.739,-8.72864,-86.7096,0.183105,-1.2207,1.09863,0.527283,-0.500244,0.391418,-0.56427,-5567,9078,-1585,1182,-29889
1500,206958,1.47383,-9.50811,1.88057,-78.739,-8.72864,-86.7041,0.366211,-1.34277,0.854492,0.527313,-0.500244,0.391388,-0.56424,-5568,9081,-1587,1182,-29889
1506,206964,1.46426,-9.49375,1.91885,-78.7335,-8.72314,-86.7041,0.488281,-0.915527,0.610352,0.527344,-0.500244,0.391388,-0.56424,-5567,9083,-1589,1182,-29889
1512,206970,1.46426,-9.51768,1.89492,-78.7335,-8.71765,-86.6986,0.183105,-0.671387,0.915527,0.527374,-0.500244,0.391388,-0.564209,-5564,9083,-1589,1182,-29889
1518,206976,1.4499,-9.53203,1.94277,-78.7335,-8.71765,-86.6931,0.305176,-0.732422,0.549316,0.527435,-0.500244,0.391388,-0.564148,-5558,9082,-1587,1182,-29889
1524,206982,1.44512,-9.51289,1.97627,-78.7335,-8.71216,-86.6876,0.305176,-0.732422,0.366211,0.527466,-0.500244,0.391357,-0.564148,-5554,9080,-1584,1182,-29889
1530,206988,1.45947,-9.51289,1.94756,-78.7335,-8.71216,-86.6876,0.0610352,-0.732422,0.244141,0.527466,-0.500244,0.391357,-0.564117,-5551,9081,-1583,1182,-29889
1536,206994,1.4834,-9.49375,1.9667,-78.7335,-8.71216,-86.6876,0.12207,-0.366211,0,0.527496,-0.500244,0.391357,-0.564117,-5550,9083,-1582,1182,-29889
1542,207000,1.43076,-9.45547,2.12939,-78.7335,-8.71216,-86.6876,-0.0610352,0,0,0.527496,-0.500244,0.391357,-0.564117,-5550,9084,-1581,1182,-29889
1548,207006,1.58389,-9.47461,2.01455,-78.739,-8.71765,-86.6821,-1.2207,-0.12207,-0.0610352,0.527466,-0.500275,0.391388,-0.564087,-5555,9086,-1582,1182,-29889
1554,207012,1.68916,-9.69951,1.84229,-78.7445,-8.71765,-86.6876,-1.70898,0.366211,-0.0610352,0.527405,-0.500336,0.391418,-0.564087,-5557,9085,-1581,1182,-29889
1560,207018,1.65088,-9.88135,1.68438,-78.75,-8.71216,-86.6876,-0.793457,0.366211,0.427246,0.527405,-0.500336,0.391449,-0.564056,-5556,9083,-1581,1182,-29889
1566,207024,1.78486,-9.84785,1.68916,-78.75,-8.70667,-86.6876,0.244141,0.671387,0.915527,0.527405,-0.500275,0.391479,-0.564056,-5555,9082,-1579,1182,-29889
1572,207030,1.64609,-9.79521,1.804,-78.7445,-8.70117,-86.6986,0.549316,0.793457,1.77002,0.527435,-0.500214,0.391541,-0.564087,-5555,9081,-1578,1182,-29889
1578,207036,1.69395,-9.79043,1.82314,-78.7445,-8.68469,-86.6986,0.488281,0.244141,1.95313,0.527496,-0.500122,0.391632,-0.564056,-5554,9081,-1576,1182,-29889
1584,207042,1.76572,-9.91963,1.76572,-78.739,-8.66821,-86.6986,0.427246,0,2.86865,0.527557,-0.500061,0.391693,-0.563995,-5553,9082,-1575,1182,-29889
1590,207048,1.81357,-9.95791,1.76094,-78.7335,-8.65723,-86.6986,1.28174,0,3.41797,0.527649,-0.499969,0.391724,-0.563934,-5551,9083,-1577,1182,-29889
1596,207054,1.81357,-9.93877,1.73223,-78.7335,-8.63525,-86.6931,1.34277,-0.610352,4.45557,0.527771,-0.499878,0.391785,-0.563873,-5548,9083,-1581,1182,-29889
1602,207060,1.86621,-10.4173,1.74658,-78.728,-8.61328,-86.6821,2.50244,-2.80762,7.08008,0.527954,-0.499786,0.391846,-0.563751,-5547,9084,-1586,1182,-29889
1608,207066,1.89492,-10.3503,1.62695,-78.7006,-8.54736,-86.6437,4.63867,-4.27246,8.48389,0.528534,-0.499542,0.391876,-0.563416,-5543,9086,-1596,1182,-29889
1614,207072,1.99063,-10.2785,1.73223,-78.6786,-8.50891,-86.6107,5.7373,-5.31006,9.46045,0.528931,-0.499359,0.391846,-0.563202,-5543,9086,-1600,1182,-29889
1620,207078,2.11504,-10.1685,1.76094,-78.6566,-8.45947,-86.5833,5.79834,-5.37109,11.2915,0.529358,-0.499176,0.391846,-0.562958,-5541,9088,-1605,1182,-29889
1626,207084,1.98105,-10.2594,1.73223,-78.6401,-8.40454,-86.5503,5.85938,-5.12695,13.1226,0.529846,-0.498932,0.391907,-0.562683,-5539,9089,-1608,1182,-29889
1632,207090,2.00977,-10.0728,2.00977,-78.6127,-8.34412,-86.5118,7.14111,-6.46973,15.625,0.530396,-0.498688,0.391937,-0.562378,-5537,9089,-1611,1182,-29889
1638,207096,2.12939,-9.86221,2.55527,-78.5632,-8.20129,-86.4404,6.10352,-4.27246,17.7612,0.531586,-0.498077,0.39212,-0.561676,-5528,9086,-1613,1182,-29889
1644,207102,1.90928,-9.45068,2.60313,-78.5522,-8.10791,-86.413,2.68555,-1.64795,19.4092,0.532074,-0.497742,0.392426,-0.561249,-5523,9081,-1612,1182,-29889
1650,207108,1.77051,-9.53682,2.61748,-78.5632,-8.01453,-86.391,-0.427246,-0.732422,20.3247,0.532562,-0.497437,0.392853,-0.560791,-5516,9076,-1612,1182,-29889
1656,207114,1.75615,-9.61338,2.23467,-78.5797,-7.91565,-86.369,-3.17383,-0.915527,21.6064,0.53299,-0.497192,0.393341,-0.560242,-5509,9072,-1612,1182,-29889
1662,207120,2.01455,-10.0249,2.24902,-78.6017,-7.81677,-86.3525,-2.56348,1.89209,23.1934,0.533386,-0.496918,0.393921,-0.559692,-5502,9067,-1608,1182,-29889
1668,207126,1.85186,-9.77129,2.0959,-78.6346,-7.59705,-86.3306,-2.50244,2.92969,23.3765,0.534271,-0.496155,0.395111,-0.558685,-5488,9054,-1601,1182,-29889
1674,207132,1.6748,-9.71865,2.18682,-78.6456,-7.48169,-86.3361,-2.80762,5.67627,24.1089,0.534668,-0.495697,0.395782,-0.558228,-5483,9047,-1599,1182,-29889
1680,207138,1.26328,-9.64688,2.07197,-78.6566,-7.36084,-86.347,-3.23486,6.95801,24.1699,0.535034,-0.495239,0.396515,-0.5578,-5476,9039,-1593,1182,-29889
1686,207144,1.14844,-9.69951,1.95713,-78.6786,-7.24548,-86.358,-4.02832,7.14111,23.7427,0.5354,-0.494751,0.397247,-0.557373,-5469,9033,-1592,1182,-29889
1692,207150,0.913965,-9.65166,1.75615,-78.6896,-7.13013,-86.3745,-4.08936,9.27734,23.1934,0.535736,-0.494232,0.39798,-0.556946,-5460,9028,-1593,1182,-29889
1698,207156,0.492871,-9.61338,1.85186,-78.7225,-6.89941,-86.4294,-3.66211,10.1318,22.2778,0.536285,-0.493225,0.399536,-0.556244,-5445,9019,-1586,1182,-29889
1704,207162,0.0765625,-9.30234,1.79443,-78.7445,-6.79504,-86.4404,-5.49316,7.14111,21.1182,0.53653,-0.492828,0.400269,-0.555817,-5440,9015,-1583,1182,-29889
1710,207168,0.0526367,-9.17314,1.96191,-78.783,-6.69617,-86.4404,-7.8125,3.2959,19.7754,0.536743,-0.492584,0.40094,-0.555328,-5436,9009,-1578,1182,-29889
1716,207174,0.0717773,-9.11572,1.9667,-78.8434,-6.60828,-86.424,-11.5356,0,19.104,0.536957,-0.492523,0.401611,-0.554688,-5433,9002,-1574,1182,-29889
1722,207180,0.334961,-9.73301,1.91885,-78.9203,-6.52039,-86.391,-15.7471,-6.10352,18.5547,0.53714,-0.492645,0.402252,-0.553955,-5429,8997,-1572,1182,-29889
1728,207186,0.468945,-9.84307,1.90928,-79.0906,-6.36108,-86.2866,-16.4795,-7.62939,18.3716,0.537567,-0.493073,0.403473,-0.552246,-5414,8987,-1567,1182,-29889
1734,207192,0.46416,-9.9627,1.91406,-79.173,-6.27869,-86.2262,-16.2354,-8.78906,18.1885,0.537811,-0.493317,0.404053,-0.551361,-5405,8981,-1567,1182,-29889
1740,207198,0.392383,-9.98184,1.86143,-79.2609,-6.19629,-86.1713,-16.2354,-8.72803,18.7988,0.538055,-0.493591,0.404633,-0.550476,-5395,8976,-1565,1182,-29889
1746,207204,-0.0191406,-9.99141,1.8375,-79.3433,-6.11389,-86.1108,-15.4419,-8.36182,18.9819,0.53833,-0.493774,0.405212,-0.549591,-5387,8970,-1562,1182,-29889
1752,207210,-1.46426,-9.36455,2.15332,-79.5026,-5.9491,-86.0175,-16.2354,-6.46973,15.9302,0.538574,-0.493988,0.405792,-0.548737,-5379,8961,-1559,1182,-29889
1758,207216,-2.00498,-9.44111,1.86143,-79.6179,-5.89966,-85.9625,-21.7285,-9.21631,10.8032,0.538727,-0.49469,0.406952,-0.547119,-5365,8941,-1542,1182,-29889
1764,207222,-1.91885,-10.7522,1.44033,-79.7333,-5.88867,-85.9076,-23.3765,-10.9863,3.41797,0.538513,-0.495392,0.407379,-0.546387,-5357,8931,-1537,1182,-29889
1770,207228,-1.36377,-12.2021,1.01924,-79.8212,-5.90515,-85.8582,-16.1743,-12.5122,-3.05176,0.53833,-0.496033,0.407471,-0.545898,-5351,8924,-1533,1182,-29889
1776,207234,-0.846973,-12.7812,1.07187,-79.8541,-5.9436,-85.8087,-6.28662,-12.7563,-7.8125,0.538239,-0.496552,0.407227,-0.545715,-5346,8920,-1528,1182,-29889
1782,207240,-0.062207,-11.7811,1.39248,-79.8157,-6.01501,-85.7098,8.72803,-13.4277,-6.04248,0.53833,-0.496887,0.406769,-0.545654,-5340,8915,-1528,1182,-29889
1788,207246,-0.172266,-10.8623,1.55996,-79.7607,-6.02051,-85.6659,12.3901,-12.146,-1.77002,0.539032,-0.496948,0.405731,-0.545654,-5323,8904,-1537,1182,-29889
1794,207252,-0.531152,-10.0201,1.93799,-79.7113,-6.00403,-85.6055,11.5967,-13.916,3.54004,0.539612,-0.496826,0.405334,-0.545502,-5312,8897,-1542,1182,-29889
1800,207258,-0.827832,-9.42676,2.18682,-79.6783,-5.96558,-85.5341,7.69043,-15.1978,7.87354,0.540222,-0.496765,0.40509,-0.545135,-5302,8889,-1544,1182,-29889
1806,207264,-1.1915,-9.21621,2.15332,-79.6838,-5.90515,-85.4462,1.2207,-18.0664,11.5356,0.540833,-0.496857,0.405029,-0.544464,-5293,8883,-1547,1182,-29889
1812,207270,-0.985742,-9.79043,1.85664,-79.7607,-5.76782,-85.2319,-7.38525,-22.2168,15.2588,0.541473,-0.49707,0.40506,-0.54361,-5283,8879,-1549,1182,-29889
1818,207276,-0.75127,-10.3742,1.9667,-79.8212,-5.69641,-85.1111,-9.39941,-24.5972,15.7471,0.542694,-0.497803,0.405273,-0.541565,-5270,8871,-1554,1182,-29889
1824,207282,-0.339746,-10.7379,1.78486,-79.8761,-5.61951,-84.9847,-8.97217,-24.6582,16.0522,0.543335,-0.498169,0.405396,-0.540497,-5263,8868,-1557,1182,-29889
1830,207288,-0.119629,-11.0633,1.75137,-79.9255,-5.5426,-84.8639,-7.20215,-24.231,17.0288,0.544006,-0.498474,0.405518,-0.539429,-5256,8865,-1558,1182,-29889
1836,207294,0.196191,-11.0776,1.84707,-79.9585,-5.45471,-84.7485,-3.60107,-23.6816,18.0664,0.544769,-0.498688,0.405579,-0.538452,-5249,8861,-1560,1182,-29889
1842,207300,0.0813477,-10.3934,2.44043,-79.9805,-5.26794,-84.5398,-0.183105,-19.043,19.8364,0.545593,-0.498749,0.40564,-0.537506,-5244,8857,-1560,1182,-29889
1848,207306,-0.00478516,-10.1206,2.59355,-79.9915,-5.16907,-84.4519,-0.915527,-16.9678,19.9585,0.54715,-0.498657,0.405914,-0.535797,-5229,8846,-1567,1182,-29889
1854,207312,-0.181836,-10.2067,2.64619,-80.0079,-5.07568,-84.375,-2.2583,-15.7471,19.2261,0.547852,-0.498596,0.406158,-0.534973,-5220,8841,-1573,1182,-29889
1860,207318,-0.220117,-10.3024,2.55049,-80.0299,-4.9823,-84.3036,-3.17383,-13.855,17.5171,0.548431,-0.498566,0.406372,-0.53421,-5210,8838,-1580,1182,-29889
1866,207324,-0.0861328,-10.5321,2.49785,-80.0464,-4.9054,-84.2322,-2.86865,-13.6719,15.686,0.549011,-0.498535,0.406586,-0.533478,-5201,8834,-1580,1182,-29889
1872,207330,0.330176,-10.8145,2.44521,-80.0519,-4.74609,-84.1278,0.305176,-10.0098,14.7705,0.549561,-0.498444,0.406769,-0.532867,-5193,8832,-1578,1182,-29889
1878,207336,0.559863,-10.8145,2.44043,-80.0409,-4.6637,-84.0784,2.62451,-9.0332,15.3198,0.55069,-0.498047,0.407104,-0.53183,-5178,8825,-1571,1182,-29889
1884,207342,0.674707,-10.5513,2.4165,-80.0189,-4.57581,-84.0454,4.5166,-5.98145,17.2729,0.5513,-0.49765,0.407318,-0.531372,-5169,8821,-1573,1182,-29889
1890,207348,0.665137,-10.2354,2.51221,-79.986,-4.47144,-84.0125,5.49316,-5.06592,19.5313,0.552002,-0.497192,0.407562,-0.530914,-5158,8818,-1579,1182,-29889
1896,207354,0.794336,-9.84307,2.53135,-79.9585,-4.35059,-83.9905,5.7373,-2.99072,22.2778,0.552704,-0.496613,0.407928,-0.530457,-5146,8814,-1590,1182,-29889
1902,207360,0.957031,-9.29756,2.65576,-79.9036,-4.08142,-83.9685,3.66211,1.15967,26.7944,0.553375,-0.495972,0.408386,-0.529968,-5118,8804,-1618,1182,-29889
1908,207366,1.01924,-9.13486,2.62227,-79.8871,-3.93311,-83.9685,2.19727,2.68555,28.0151,0.554749,-0.494568,0.409637,-0.5289,-5106,8799,-1632,1182,-29889
1914,207372,0.976172,-8.98652,2.44521,-79.8761,-3.78479,-83.974,0.671387,5.37109,28.2593,0.555328,-0.493835,0.4104,-0.528381,-5096,8794,-1642,1182,-29889
1920,207378,0.976172,-9.03916,2.57441,-79.8706,-3.63647,-83.996,-0.366211,6.83594,27.9541,0.555847,-0.493103,0.411194,-0.527893,-5085,8789,-1649,1182,-29889
1926,207384,1.06709,-8.89082,2.46436,-79.8706,-3.48816,-84.0234,-1.40381,9.76563,27.8931,0.556305,-0.49234,0.412079,-0.527435,-5076,8783,-1655,1182,-29889
1932,207390,1.2585,-8.89082,1.99063,-79.8706,-3.20251,-84.1223,-1.95313,14.4653,25.2075,0.556671,-0.491547,0.412994,-0.527069,-5055,8770,-1672,1182,-29889
1938,207396,1.0958,-9.01045,1.89014,-79.8651,-3.07068,-84.1827,-0.305176,15.7471,23.9868,0.55722,-0.489899,0.414856,-0.526581,-5046,8763,-1680,1182,-29889
1944,207402,1.31113,-8.69463,2.00498,-79.8431,-2.94983,-84.2542,1.83105,16.2964,21.9116,0.557465,-0.489014,0.415649,-0.526489,-5035,8755,-1689,1182,-29889
1950,207408,1.27764,-8.29746,1.90449,-79.8212,-2.82898,-84.3311,1.58691,18.2495,21.1792,0.557678,-0.488129,0.416504,-0.526459,-5023,8750,-1700,1182,-29889
1956,207414,1.20107,-7.78545,2.14375,-79.7992,-2.71912,-84.408,2.80762,18.4937,19.6533,0.557831,-0.487213,0.417297,-0.526489,-5011,8743,-1710,1191,-29890
1962,207420,1.72266,-7.15859,2.20596,-79.7662,-2.52686,-84.5728,0.0610352,18.4937,16.6626,0.557922,-0.486389,0.41803,-0.52655,-4982,8726,-1725,1191,-29890
1968,207426,1.96191,-6.9959,2.19639,-79.7552,-2.43347,-84.6552,-0.366211,19.4092,15.9302,0.557983,-0.484863,0.419556,-0.526703,-4968,8717,-1732,1191,-29890
1974,207432,2.16768,-6.85234,2.17725,-79.7498,-2.35107,-84.7485,-0.854492,20.813,15.3198,0.557922,-0.4841,0.420349,-0.526825,-4954,8708,-1737,1191,-29890
1980,207438,2.50264,-6.704,2.25859,-79.7388,-2.27417,-84.8364,-1.28174,21.3013,13.855,0.557831,-0.483398,0.421082,-0.526978,-4943,8701,-1741,1191,-29890
1986,207444,2.62227,-6.60352,2.21074,-79.7278,-2.20276,-84.9408,-0.976563,23.1934,12.6953,0.557678,-0.482666,0.421814,-0.527222,-4936,8694,-1742,1191,-29890
1992,207450,2.81367,-6.47432,2.34473,-79.6948,-2.0874,-85.166,0.854492,26.9775,9.09424,0.557495,-0.481903,0.422516,-0.527557,-4923,8682,-1740,1191,-29890
1998,207456,2.66055,-6.44561,2.2873,-79.6619,-2.04895,-85.2924,2.74658,28.6255,6.10352,0.556946,-0.480347,0.423737,-0.528564,-4918,8679,-1736,1191,-29890
2004,207462,2.59355,-6.29727,2.33516,-79.6179,-2.03247,-85.4242,5.31006,29.48,2.01416,0.55661,-0.479584,0.424164,-0.529297,-4913,8675,-1734,1191,-29890
2010,207468,2.40693,-6.05801,2.27773,-79.563,-2.03247,-85.5615,6.95801,31.311,-1.89209,0.556183,-0.47879,0.4245,-0.530182,-4909,8672,-1731,1191,-29890
2016,207474,2.02891,-6.04844,2.05283,-79.5026,-2.05994,-85.7043,7.87354,30.6396,-6.7749,0.555664,-0.478088,0.424683,-0.531189,-4905,8669,-1730,1191,-29890
2022,207480,2.08154,-6.02451,1.9667,-79.3433,-2.19177,-85.9845,12.3291,29.2969,-17.0288,0.555115,-0.477478,0.424652,-0.532379,-4898,8660,-1722,1191,-29890
2028,207486,2.30645,-5.93838,2.05283,-79.2554,-2.29065,-86.1163,13.855,27.8931,-20.4468,0.553894,-0.47641,0.424072,-0.535034,-4896,8656,-1721,1191,-29890
2034,207492,2.4165,-5.93359,1.94756,-79.162,-2.40051,-86.2427,14.4043,27.5269,-22.8271,0.553223,-0.475983,0.423615,-0.536469,-4893,8652,-1717,1191,-29890
2040,207498,2.4835,-6.01494,1.97627,-79.0631,-2.52136,-86.3745,15.1978,27.5879,-24.7803,0.552551,-0.475555,0.423096,-0.537933,-4893,8650,-1715,1191,-29890
2046,207504,2.49307,-6.24941,2.18203,-78.9642,-2.65869,-86.5063,14.5874,26.9775,-27.6489,0.551819,-0.47525,0.422516,-0.539459,-4894,8649,-1714,1191,-29890
2052,207510,2.36387,-7.3165,2.01455,-78.783,-2.97729,-86.759,12.8784,26.2451,-34.2407,0.551025,-0.475006,0.421844,-0.540985,-4895,8653,-1715,1191,-29890
2058,207516,2.39736,-7.93379,1.82314,-78.6896,-3.16406,-86.8964,14.1602,26.001,-38.0249,0.549133,-0.474792,0.420288,-0.544312,-4897,8655,-1717,1191,-29890
2064,207522,2.50264,-8.38359,1.59824,-78.5852,-3.3728,-87.0337,16.2354,25.8789,-41.8701,0.548096,-0.474701,0.419312,-0.546173,-4899,8659,-1721,1191,-29890
2070,207528,2.60791,-8.61328,1.63652,-78.4644,-3.59253,-87.1765,18.7378,25.9399,-44.6167,0.547028,-0.474609,0.418243,-0.548126,-4904,8666,-1728,1191,-29890
2076,207534,2.66055,-8.7042,1.53125,-78.338,-3.82324,-87.3303,20.752,27.1606,-47.1802,0.545898,-0.474487,0.417114,-0.550201,-4910,8672,-1733,1191,-29890
2082,207540,2.43086,-8.89082,1.23457,-78.0743,-4.30664,-87.6654,22.3999,28.8696,-50.7202,0.544708,-0.474365,0.415955,-0.552399,-4927,8693,-1745,1191,-29890
2088,207546,2.20596,-8.85732,1.10537,-77.937,-4.56482,-87.8522,22.9492,29.9683,-53.1006,0.542114,-0.47406,0.413605,-0.556946,-4936,8704,-1751,1191,-29890
2094,207552,2.04326,-8.79512,0.880469,-77.8052,-4.82849,-88.0389,21.7896,29.7852,-54.6875,0.54068,-0.473938,0.412445,-0.559296,-4946,8713,-1752,1191,-29890
2100,207558,1.95713,-8.85732,0.631641,-77.6788,-5.09766,-88.2367,20.6299,29.7852,-56.4575,0.539154,-0.473877,0.411285,-0.561676,-4958,8723,-1745,1191,-29890
2106,207564,1.86621,-8.91953,0.382813,-77.5635,-5.37231,-88.4399,19.9585,29.7852,-57.9834,0.537537,-0.473846,0.410156,-0.564087,-4972,8736,-1742,1191,-29890
2112,207570,1.88057,-8.80469,-0.100488,-77.3492,-5.93262,-88.8574,17.5781,28.6255,-59.9365,0.535828,-0.473877,0.409058,-0.566467,-5001,8765,-1735,1191,-29890
2118,207576,1.86143,-8.52236,-0.30625,-77.2559,-6.21277,-89.0771,16.1743,28.0151,-59.7534,0.532227,-0.473999,0.406982,-0.571228,-5017,8783,-1735,1191,-29890
2124,207582,1.84707,-8.22568,-0.387598,-77.1735,-6.49841,-89.2859,13.9771,26.3672,-59.6313,0.530365,-0.474152,0.406036,-0.573517,-5034,8799,-1737,1191,-29890
2130,207588,1.9667,-7.97207,-0.47373,-77.1075,-6.77856,-89.4946,10.7422,24.9023,-59.7534,0.528412,-0.474396,0.405151,-0.575714,-5050,8818,-1736,1191,-29890
2136,207594,2.02891,-7.88115,-0.555078,-77.0636,-7.05872,-89.7089,7.75146,24.1699,-59.9365,0.526367,-0.474731,0.404388,-0.577881,-5067,8839,-1734,1191,-29890
2142,207600,2.14375,-7.67061,-0.645996,-77.0197,-7.64099,-90.1208,2.13623,20.4468,-61.5234,0.524261,-0.475189,0.403625,-0.579956,-5108,8876,-1718,1191,-29890
2148,207606,2.29209,-7.74238,-0.62207,-77.0197,-7.93762,-90.3296,-0.732422,19.5313,-62.439,0.519775,-0.476379,0.402283,-0.583923,-5132,8896,-1710,1191,-29890
2154,207612,2.21074,-7.8668,-0.645996,-77.0361,-8.23975,-90.5328,-3.2959,18.6157,-62.6831,0.517395,-0.477081,0.401703,-0.585846,-5158,8914,-1701,1191,-29890
2160,207618,2.22988,-8.01035,-0.631641,-77.0636,-8.53638,-90.7361,-5.43213,17.8223,-62.7441,0.514984,-0.477844,0.401184,-0.587708,-5185,8934,-1694,1191,-29890
2166,207624,2.18203,-8.1252,-0.689063,-77.1021,-8.82751,-90.9448,-7.50732,17.4561,-61.7065,0.512543,-0.478638,0.400757,-0.589478,-5213,8953,-1687,1191,-29890
2172,207630,1.86143,-9.12051,-0.00478516,-77.2174,-9.37134,-91.3403,-12.146,16.5405,-55.2368,0.510071,-0.479462,0.400421,-0.591187,-5270,8987,-1665,1191,-29890
2178,207636,-2.39736,19.5474,19.2411,-77.7393,-9.05823,-92.1149,-130.432,168.945,30.4565,0.502869,-0.478394,0.407776,-0.593201,-5299,9005,-1654,1191,-29890
2184,207642,-39.1952,39.1474,25.8638,-77.8436,-8.88245,-93.6859,-82.4585,326.843,-45.6543,0.494995,-0.472412,0.41568,-0.599091,-5330,9022,-1637,1191,-29890
2190,207648,-57.843,-39.6259,-53.5938,-77.3492,-9.09668,-93.5486,109.619,-41.3818,-56.7627,0.496796,-0.471741,0.411499,-0.601013,-5360,9041,-1619,1191,-29890
2196,207654,19.5713,-37.3338,39.2144,-76.9208,-9.42078,-92.6642,115.051,-183.594,-38.208,0.501831,-0.474487,0.403961,-0.599762,-5389,9062,-1606,1191,-29890
2202,207660,8.66592,-2.59834,-9.25449,-76.9043,-9.40979,-92.6038,-79.2847,28.4424,-0.244141,0.50415,-0.473694,0.400818,-0.600555,-5447,9106,-1590,1191,-29890
2208,207666,9.25449,-20.5331,-0.885254,-77.2504,-9.4043,-92.4335,-62.9272,-31.3721,3.05176,0.501709,-0.476685,0.404846,-0.597504,-5474,9126,-1587,1191,-29890
2214,207672,11.8433,-16.8103,-4.1248,-77.1405,-9.36035,-92.4115,26.2451,-3.90625,6.28662,0.502472,-0.476074,0.404388,-0.597656,-5500,9142,-1585,1191,-29890
2220,207678,5.2541,-8.1252,0.937891,-76.9318,-9.21753,-92.5214,41.5039,25.5127,20.813,0.503387,-0.474121,0.404449,-0.598389,-5524,9154,-1584,1191,-29890
2226,207684,-1.94756,-7.5127,3.84727,-76.8933,-9.06921,-92.5323,9.21631,9.33838,26.2451,0.50415,-0.473236,0.40506,-0.598053,-5543,9166,-1582,1191,-29890
2232,207690,0.808691,-10.8336,3.0625,-77.1075,-8.87695,-92.3181,-13.9771,-13.4277,16.7236,0.505188,-0.47403,0.40625,-0.595764,-5567,9187,-1587,1191,-29890
2238,207696,0.660352,-9.78564,1.3542,-77.124,-8.79456,-92.2577,-0.793457,-7.08008,15.3809,0.505798,-0.473969,0.406494,-0.595123,-5574,9194,-1585,1191,-29890
2244,207702,-0.00957031,-8.97217,2.0959,-77.1515,-8.72314,-92.1808,-1.70898,-8.8501,13.5498,0.506378,-0.473999,0.406677,-0.594482,-5582,9200,-1581,1191,-29890
2250,207708,0.378027,-8.86211,2.67012,-77.1844,-8.66272,-92.0929,-3.479,-12.3901,12.207,0.506958,-0.474182,0.406799,-0.59375,-5588,9203,-1576,1191,-29890
2256,207714,0.636426,-8.90518,2.43564,-77.2174,-8.60779,-92.005,-3.66211,-12.6953,11.2915,0.507507,-0.474396,0.406891,-0.593048,-5593,9206,-1572,1191,-29890
2262,207720,0.502441,-8.68027,2.6127,-77.2723,-8.5199,-91.8512,-2.86865,-9.46045,6.7749,0.508453,-0.474792,0.406921,-0.591888,-5597,9209,-1567,1191,-29890
2268,207726,0.421094,-8.74248,2.98115,-77.3053,-8.49792,-91.7798,-4.88281,-9.0332,3.96729,0.508789,-0.475067,0.406952,-0.59137,-5598,9211,-1565,1191,-29890
2274,207732,0.488086,-8.90518,2.97158,-77.3492,-8.48145,-91.7084,-6.83594,-9.8877,2.0752,0.509033,-0.475464,0.406952,-0.590851,-5601,9212,-1560,1191,-29890
2280,207738,1.07666,-9.10137,2.56484,-77.4042,-8.48145,-91.6315,-9.33838,-10.9863,0.12207,0.509216,-0.475952,0.406921,-0.590302,-5603,9213,-1557,1191,-29890
2286,207744,2.26338,-10.4316,0.703418,-77.4701,-8.47595,-91.5601,-11.4746,-9.70459,-0.0610352,0.509308,-0.476471,0.406982,-0.589752,-5604,9212,-1554,1191,-29890
2292,207750,2.08154,-10.824,0.421094,-77.558,-8.44849,-91.4722,-5.24902,-3.66211,2.0752,0.509491,-0.477081,0.407227,-0.588959,-5605,9210,-1555,1191,-29890
2298,207756,1.7083,-10.5991,0.818262,-77.5635,-8.43201,-91.4447,0.610352,-2.99072,2.44141,0.509705,-0.477112,0.407196,-0.588745,-5605,9210,-1561,1191,-29890
2304,207762,1.60781,-9.97705,1.42119,-77.5525,-8.41003,-91.4117,3.84521,-3.72314,2.99072,0.51001,-0.477081,0.407104,-0.588562,-5607,9212,-1562,1191,-29890
2310,207768,1.58867,-9.39805,1.94756,-77.5415,-8.39355,-91.3843,3.96729,-2.68555,3.23486,0.510315,-0.477051,0.407043,-0.588409,-5609,9213,-1566,1182,-29889
2316,207774,1.25371,-9.23057,2.2873,-77.536,-8.37158,-91.3623,2.44141,-1.09863,3.17383,0.510529,-0.47699,0.407013,-0.588257,-5612,9215,-1571,1182,-29889
2322,207780,1.225,-9.39805,2.05762,-77.5415,-8.33313,-91.3239,-0.244141,-0.305176,2.19727,0.510864,-0.476959,0.407104,-0.587952,-5611,9214,-1580,1182,-29889
2328,207786,1.30635,-9.66123,2.04326,-77.5415,-8.31665,-91.3074,0.12207,-0.0610352,1.64795,0.510986,-0.476959,0.407135,-0.587799,-5611,9212,-1584,1182,-29889
2334,207792,1.27764,-9.63731,1.99541,-77.5415,-8.30017,-91.2964,1.40381,-0.0610352,1.83105,0.511139,-0.476929,0.407135,-0.587708,-5610,9211,-1588,1182,-29889
2340,207798,1.23936,-9.55596,2.03848,-77.536,-8.28918,-91.2744,1.40381,-0.915527,1.28174,0.511292,-0.476959,0.407074,-0.587585,-5609,9210,-1589,1182,-29889
2346,207804,1.30635,-9.45068,2.2251,-77.536,-8.2782,-91.2524,1.09863,-1.2207,1.2207,0.511475,-0.476959,0.407043,-0.587463,-5610,9210,-1588,1182,-29889
2352,207810,1.34941,-9.46504,2.33516,-77.5415,-8.26172,-91.2085,-0.427246,-1.77002,0.732422,0.511749,-0.477081,0.406982,-0.587158,-5607,9211,-1579,1182,-29889
2358,207816,1.38291,-9.39805,2.30645,-77.5525,-8.25623,-91.1755,-1.15967,-2.38037,0.549316,0.511871,-0.477203,0.406921,-0.586975,-5608,9213,-1570,1182,-29889
2364,207822,1.50254,-9.43154,2.31123,-77.569,-8.25073,-91.1481,-2.38037,-2.68555,0.366211,0.511993,-0.477386,0.406891,-0.586761,-5607,9212,-1562,1182,-29889
2370,207828,1.52168,-9.41719,2.24902,-77.5909,-8.25073,-91.1151,-3.2959,-2.13623,0.244141,0.512054,-0.47757,0.406891,-0.586548,-5606,9208,-1556,1182,-29889
2376,207834,1.43555,-9.49375,2.25859,-77.6129,-8.24524,-91.0876,-4.94385,-3.35693,0.488281,0.512115,-0.477753,0.406921,-0.586334,-5607,9204,-1551,1182,-29889
2382,207840,1.53604,-9.51289,2.14854,-77.6733,-8.23975,-91.0107,-5.5542,-3.78418,1.0376,0.512299,-0.478241,0.406952,-0.585754,-5608,9199,-1547,1182,-29889
2388,207846,1.58389,-9.54639,2.12939,-77.7063,-8.23425,-90.9723,-6.40869,-4.39453,1.2207,0.51239,-0.478546,0.406982,-0.585419,-5608,9200,-1552,1182,-29889
2394,207852,1.63652,-9.55117,2.09111,-77.7502,-8.22876,-90.9229,-7.01904,-5.18799,1.70898,0.512482,-0.478851,0.407013,-0.585052,-5608,9200,-1549,1182,-29889
2400,207858,1.54082,-9.46025,2.01455,-77.7942,-8.22327,-90.8734,-7.99561,-5.61523,1.89209,0.512573,-0.479187,0.407074,-0.584656,-5606,9196,-1551,1182,-29889
2406,207864,1.46426,-9.47461,2.07676,-77.8436,-8.21228,-90.8185,-9.0332,-6.71387,2.56348,0.512665,-0.479614,0.407135,-0.584198,-5602,9193,-1550,1182,-29889
2412,207870,1.33984,-9.44111,1.89492,-77.948,-8.20129,-90.7086,-9.39941,-6.71387,2.68555,0.512848,-0.480377,0.407288,-0.583282,-5595,9185,-1545,1182,-29889
2418,207876,1.29678,-9.59424,1.90928,-77.9974,-8.19031,-90.6537,-8.91113,-7.26318,2.2583,0.51297,-0.480774,0.407318,-0.582825,-5593,9185,-1546,1182,-29889
