TimeSinceCollection,Timestamp,AccX,AccY,AccZ,AngleRoll,AnglePitch,AngleYaw,AngularVelX,AngularVelY,AngularVelZ,Q1,Q2,Q3,Q4,MagX,MagY,MagZ,Height,Airpressure
0,52830,0.0526367,-0.947461,9.75693,-5.60303,-0.280151,-44.22,0.12207,0,0.0610352,0.925262,-0.0462036,0.0160828,-0.376038,-7669,8647,-8869,-3913,-29276
6,52836,0.0334961,-0.937891,9.74258,-5.60303,-0.280151,-44.22,-0.183105,-0.0610352,-0.0610352,0.925262,-0.0462036,0.0160828,-0.376038,-7666,8645,-8865,-3913,-29276
12,52842,0.0574219,-0.961816,9.75693,-5.60303,-0.280151,-44.22,-0.488281,0,-0.183105,0.925262,-0.0462341,0.0161133,-0.376038,-7665,8643,-8863,-3913,-29276
18,52848,0.0478516,-0.961816,9.75215,-5.60303,-0.280151,-44.22,0.12207,0,0.0610352,0.925262,-0.0462341,0.0160828,-0.376038,-7660,8637,-8863,-3913,-29276
24,52854,0.062207,-0.957031,9.75215,-5.60303,-0.280151,-44.22,0.366211,0.0610352,0,0.925262,-0.0462036,0.0160828,-0.376038,-7657,8635,-8868,-3913,-29276
30,52860,0.0239258,-0.91875,9.78564,-5.60303,-0.280151,-44.22,0.244141,0,-0.183105,0.925262,-0.0462036,0.0160828,-0.376038,-7654,8632,-8868,-3913,-29276
36,52866,0.0526367,-0.942676,9.78564,-5.59753,-0.280151,-44.22,0.244141,0,-0.0610352,0.925262,-0.0462036,0.0160828,-0.376038,-7652,8631,-8870,-3913,-29276
42,52872,0.0191406,-0.942676,9.76172,-5.60303,-0.280151,-44.22,-0.183105,0.0610352,0.0610352,0.925262,-0.0462036,0.0160828,-0.376038,-7649,8630,-8869,-3913,-29276
48,52878,0.0382813,-0.952246,9.77607,-5.60303,-0.280151,-44.22,-0.183105,0,0,0.925262,-0.0462341,0.0161133,-0.376038,-7644,8631,-8870,-3913,-29276
54,52884,0.0382813,-0.961816,9.74736,-5.60303,-0.280151,-44.22,0,-0.0610352,0.12207,0.925262,-0.0462341,0.0161133,-0.376038,-7643,8632,-8871,-3913,-29276
60,52890,0.0430664,-0.947461,9.77129,-5.60303,-0.280151,-44.22,0.305176,0,0.0610352,0.925262,-0.0462036,0.0161133,-0.376038,-7641,8634,-8871,-3913,-29276
66,52896,0.0287109,-0.966602,9.7665,-5.59753,-0.280151,-44.22,0.366211,-0.12207,-0.0610352,0.925262,-0.0462036,0.0160828,-0.376038,-7641,8634,-8866,-3913,-29276
72,52902,0.0430664,-0.952246,9.75693,-5.60303,-0.280151,-44.2145,-0.610352,-0.0610352,-0.183105,0.925262,-0.0462036,0.0160828,-0.376007,-7641,8633,-8860,-3913,-29276
78,52908,0.0526367,-0.952246,9.74258,-5.60852,-0.280151,-44.2145,-0.549316,0,0.183105,0.925262,-0.0462341,0.0161133,-0.376007,-7643,8627,-8848,-3913,-29276
84,52914,0.062207,-0.961816,9.75215,-5.60852,-0.280151,-44.22,-0.12207,0,-0.12207,0.925262,-0.0462341,0.0161133,-0.376038,-7644,8627,-8848,-3913,-29276
90,52920,0.0478516,-0.952246,9.72822,-5.60303,-0.280151,-44.22,0.366211,0,0.0610352,0.925262,-0.0462341,0.0161133,-0.376007,-7644,8628,-8845,-3913,-29276
96,52926,0.0526367,-0.92832,9.7043,-5.60303,-0.280151,-44.22,0.244141,-0.183105,0,0.925262,-0.0462341,0.0160828,-0.376007,-7646,8629,-8839,-3913,-29276
102,52932,0.0239258,-0.942676,9.7665,-5.60303,-0.280151,-44.2145,-0.0610352,0,0.0610352,0.925262,-0.0462036,0.0160828,-0.376007,-7648,8632,-8839,-3913,-29276
108,52938,0.0334961,-0.961816,9.78564,-5.60303,-0.280151,-44.2145,-0.0610352,-0.12207,-0.0610352,0.925262,-0.0462341,0.0160828,-0.376007,-7654,8630,-8854,-3913,-29276
114,52944,0.0382813,-0.957031,9.7665,-5.60303,-0.280151,-44.2145,-0.183105,0,0.0610352,0.925262,-0.0462341,0.0160828,-0.376007,-7657,8630,-8865,-3913,-29276
120,52950,0.0430664,-0.957031,9.75693,-5.60303,-0.280151,-44.22,-0.12207,0,-0.12207,0.925262,-0.0462341,0.0160828,-0.376007,-7660,8628,-8878,-3913,-29276
126,52956,0.0717773,-0.971387,9.77129,-5.60303,-0.280151,-44.22,0,0.0610352,-0.0610352,0.925262,-0.0462341,0.0160828,-0.376038,-7665,8625,-8886,-3913,-29276
132,52962,0.0382813,-0.957031,9.7665,-5.60303,-0.280151,-44.22,0.244141,-0.0610352,-0.0610352,0.925262,-0.0462341,0.0160828,-0.376007,-7667,8622,-8886,-3913,-29276
138,52968,0.0574219,-0.913965,9.77129,-5.60303,-0.285645,-44.2145,0,-0.183105,0.0610352,0.925262,-0.0462036,0.0160828,-0.376007,-7672,8613,-8880,-3913,-29276
144,52974,0.0430664,-0.952246,9.74258,-5.60303,-0.285645,-44.2145,-0.305176,0.12207,0,0.925262,-0.0462341,0.0160828,-0.376007,-7674,8609,-8878,-3913,-29276
150,52980,0.0478516,-0.942676,9.7665,-5.60303,-0.285645,-44.22,-0.305176,-0.0610352,-0.12207,0.925262,-0.0462341,0.0160828,-0.376038,-7676,8607,-8876,-3913,-29276
156,52986,0.0334961,-0.966602,9.75693,-5.60303,-0.285645,-44.22,-0.12207,0,0,0.925262,-0.0462341,0.0160828,-0.376038,-7677,8607,-8881,-3913,-29276
162,52992,0.0574219,-0.961816,9.75215,-5.60303,-0.285645,-44.2145,0.366211,0,0.244141,0.925262,-0.0462341,0.0160828,-0.376007,-7676,8607,-8882,-3913,-29276
168,52998,0.0287109,-0.952246,9.72344,-5.60303,-0.285645,-44.2145,0.12207,0,0,0.925262,-0.0462036,0.0160828,-0.376007,-7676,8613,-8882,-3913,-29276
174,53004,0.0526367,-0.961816,9.76172,-5.60303,-0.285645,-44.2145,-0.0610352,0,-0.0610352,0.925262,-0.0462036,0.0160828,-0.376007,-7673,8614,-8888,-3913,-29276
180,53010,0.0430664,-0.947461,9.74258,-5.60303,-0.285645,-44.2145,-0.0610352,-0.12207,-0.0610352,0.925262,-0.0462036,0.0160828,-0.376007,-7670,8615,-8891,-3913,-29276
186,53016,0.0526367,-0.947461,9.74736,-5.60303,-0.285645,-44.2145,-0.0610352,-0.0610352,0.0610352,0.925262,-0.0462036,0.0160828,-0.376007,-7668,8616,-8894,-3913,-29276
192,53022,0.0143555,-0.952246,9.75693,-5.60303,-0.285645,-44.2145,0.244141,0.0610352,0.244141,0.925262,-0.0462036,0.0160828,-0.376007,-7668,8617,-8895,-3913,-29276
198,53028,0.0334961,-0.947461,9.76172,-5.59753,-0.285645,-44.2145,0.244141,0,-0.12207,0.925262,-0.0462036,0.0160522,-0.376007,-7671,8625,-8897,-3913,-29276
204,53034,0.0334961,-0.971387,9.77607,-5.59753,-0.285645,-44.2145,0,0,0,0.925262,-0.0462036,0.0160522,-0.376007,-7671,8629,-8899,-3913,-29276
210,53040,0.0765625,-0.947461,9.78564,-5.59753,-0.285645,-44.2145,0,0,0,0.925262,-0.0462036,0.0160522,-0.376007,-7671,8631,-8899,-3913,-29276
216,53046,0.0334961,-0.957031,9.76172,-5.59753,-0.280151,-44.2145,0.0610352,0.0610352,0.0610352,0.925262,-0.0462036,0.0160828,-0.375977,-7668,8631,-8895,-3913,-29276
222,53052,0.0334961,-0.957031,9.74258,-5.59753,-0.280151,-44.2145,-0.183105,0,-0.0610352,0.925293,-0.0462036,0.0160828,-0.375977,-7664,8629,-8891,-3913,-29276
228,53058,0.0239258,-0.971387,9.74736,-5.59753,-0.285645,-44.2145,0,-0.12207,-0.366211,0.925262,-0.0462036,0.0160828,-0.376007,-7661,8623,-8881,-3913,-29276
234,53064,0.0430664,-0.947461,9.75215,-5.59753,-0.285645,-44.2145,0.244141,0,-0.183105,0.925262,-0.0461731,0.0160522,-0.376007,-7662,8621,-8879,-3913,-29276
240,53070,0.0287109,-0.913965,9.74258,-5.59753,-0.285645,-44.2145,0.183105,0,0.183105,0.925262,-0.0461731,0.0160522,-0.376007,-7664,8619,-8877,-3913,-29276
246,53076,0.0526367,-0.92832,9.74258,-5.59753,-0.280151,-44.2145,-0.12207,0,0.12207,0.925262,-0.0461731,0.0160522,-0.376007,-7668,8619,-8879,-3913,-29276
252,53082,0.0574219,-0.957031,9.7665,-5.59753,-0.280151,-44.2145,0.0610352,0.0610352,-0.0610352,0.925262,-0.0461731,0.0160828,-0.376007,-7669,8620,-8874,-3913,-29276
258,53088,0.0478516,-0.971387,9.73301,-5.59753,-0.280151,-44.2145,0.0610352,0,0.12207,0.925262,-0.0461731,0.0160828,-0.376007,-7671,8622,-8864,-3913,-29276
264,53094,0.062207,-0.957031,9.75693,-5.59753,-0.280151,-44.2145,-0.0610352,0.0610352,-0.12207,0.925262,-0.0461731,0.0160828,-0.376007,-7670,8624,-8860,-3913,-29276
270,53100,0.0430664,-0.957031,9.7665,-5.59753,-0.280151,-44.2145,0,0.0610352,0.0610352,0.925262,-0.0461731,0.0160828,-0.376007,-7671,8624,-8860,-3913,-29276
276,53106,0.062207,-0.971387,9.75215,-5.59753,-0.280151,-44.2145,-0.12207,-0.183105,0,0.925262,-0.0461731,0.0160828,-0.376007,-7671,8623,-8858,-3913,-29276
282,53112,0.0334961,-0.966602,9.75215,-5.59753,-0.280151,-44.2145,0,0.0610352,0.0610352,0.925262,-0.0461731,0.0160828,-0.376007,-7671,8622,-8857,-3913,-29276
288,53118,0.0478516,-0.947461,9.77607,-5.59753,-0.280151,-44.2145,0,0.0610352,0,0.925262,-0.0461731,0.0160828,-0.376007,-7664,8617,-8853,-3913,-29276
294,53124,0.0430664,-0.980957,9.78564,-5.59753,-0.280151,-44.2145,0.12207,0.0610352,0,0.925262,-0.0461731,0.0160828,-0.376007,-7661,8617,-8850,-3913,-29276
300,53130,0,-0.92832,9.80957,-5.59753,-0.280151,-44.2145,-0.0610352,0.0610352,0.0610352,0.925262,-0.0461731,0.0160828,-0.375977,-7659,8618,-8852,-3913,-29276
306,53136,0.0478516,-0.957031,9.77129,-5.59753,-0.280151,-44.2145,-0.305176,0,-0.12207,0.925262,-0.0462036,0.0160828,-0.376007,-7657,8619,-8859,-3913,-29276
312,53142,0.0334961,-0.957031,9.75693,-5.59753,-0.280151,-44.2145,0.0610352,0,0.0610352,0.925262,-0.0462036,0.0160828,-0.375977,-7657,8620,-8867,-3913,-29276
318,53148,0.0430664,-0.933105,9.73779,-5.59753,-0.280151,-44.2145,0,0,0.0610352,0.925293,-0.0461731,0.0160828,-0.375977,-7658,8621,-8882,-3913,-29276
324,53154,0,-0.937891,9.73301,-5.59753,-0.280151,-44.2145,0,0.0610352,-0.183105,0.925262,-0.0461731,0.0160828,-0.376007,-7659,8621,-8888,-3913,-29276
330,53160,0.0430664,-0.933105,9.72822,-5.59753,-0.280151,-44.2145,-0.12207,-0.0610352,-0.12207,0.925262,-0.0462036,0.0160828,-0.376007,-7659,8624,-8888,-3913,-29276
336,53166,0.0334961,-0.980957,9.7665,-5.59753,-0.280151,-44.2145,0,-0.183105,0.366211,0.925293,-0.0462036,0.0160828,-0.375977,-7660,8626,-8890,-3913,-29276
342,53172,0.0334961,-0.952246,9.77129,-5.59753,-0.280151,-44.209,0.366211,0.12207,0.305176,0.925293,-0.0461731,0.0160522,-0.375977,-7655,8631,-8890,-3913,-29276
348,53178,0.0334961,-0.966602,9.79521,-5.59753,-0.280151,-44.209,0,0.0610352,0,0.925293,-0.0461731,0.0160828,-0.375977,-7653,8633,-8888,-3913,-29276
354,53184,0.0334961,-0.957031,9.76172,-5.59753,-0.280151,-44.209,0,0,0.244141,0.925293,-0.0461731,0.0160828,-0.375946,-7652,8635,-8884,-3913,-29276
360,53190,0.0526367,-0.961816,9.76172,-5.59753,-0.280151,-44.209,-0.183105,-0.0610352,0.12207,0.925293,-0.0461731,0.0160828,-0.375946,-7652,8637,-8877,-3913,-29276
366,53196,0.0574219,-0.961816,9.7665,-5.59753,-0.280151,-44.209,-0.244141,-0.12207,-0.0610352,0.925293,-0.0461731,0.0160828,-0.375946,-7653,8638,-8869,-3913,-29276
372,53202,0.0478516,-0.961816,9.78086,-5.59753,-0.280151,-44.209,0.183105,0,0.183105,0.925293,-0.0461731,0.0160828,-0.375946,-7656,8633,-8863,-3913,-29276
378,53208,0.0478516,-0.937891,9.75215,-5.59753,-0.280151,-44.209,0.427246,0,-0.183105,0.925293,-0.0461731,0.0160522,-0.375946,-7656,8629,-8862,-3913,-29276
384,53214,0.0430664,-0.933105,9.79043,-5.59204,-0.280151,-44.209,0.12207,0,0.183105,0.925293,-0.0461426,0.0160522,-0.375946,-7657,8624,-8860,-3913,-29276
390,53220,0.062207,-0.937891,9.78086,-5.59204,-0.280151,-44.209,0,0.0610352,0.0610352,0.925293,-0.0461426,0.0160522,-0.375946,-7656,8620,-8862,-3913,-29276
396,53226,0.0478516,-0.942676,9.79043,-5.59753,-0.280151,-44.209,-0.366211,0,0.183105,0.925293,-0.0461731,0.0160828,-0.375946,-7657,8618,-8866,-3913,-29276
402,53232,0.0239258,-0.942676,9.77607,-5.59753,-0.280151,-44.2035,-0.183105,0,0,0.925293,-0.0461731,0.0160828,-0.375946,-7665,8620,-8876,-3913,-29276
408,53238,0.0334961,-0.966602,9.74258,-5.59753,-0.280151,-44.2035,0.183105,0,0.12207,0.925293,-0.0461731,0.0160828,-0.375916,-7669,8625,-8882,-3913,-29276
414,53244,0.0478516,-0.957031,9.7665,-5.59753,-0.280151,-44.2035,0.305176,0.12207,-0.0610352,0.925293,-0.0461731,0.0160828,-0.375916,-7672,8629,-8886,-3913,-29276
420,53250,0.0430664,-0.947461,9.7665,-5.59753,-0.280151,-44.2035,-0.0610352,0,0.0610352,0.925293,-0.0461731,0.0160828,-0.375916,-7675,8635,-8890,-3913,-29276
426,53256,0.0526367,-0.971387,9.73301,-5.59753,-0.280151,-44.209,-0.305176,-0.12207,-0.244141,0.925293,-0.0461731,0.0160828,-0.375946,-7675,8640,-8896,-3913,-29276
432,53262,0.0669922,-0.952246,9.71865,-5.59753,-0.280151,-44.209,-0.0610352,-0.12207,0.0610352,0.925293,-0.0461731,0.0160828,-0.375946,-7676,8648,-8904,-3913,-29276
438,53268,0.0191406,-0.937891,9.73779,-5.59753,-0.280151,-44.2035,-0.0610352,-0.12207,0.244141,0.925293,-0.0462036,0.0160828,-0.375916,-7676,8648,-8907,-3913,-29276
444,53274,0.0191406,-0.942676,9.75215,-5.59753,-0.280151,-44.2035,0.366211,-0.0610352,-0.12207,0.925293,-0.0461731,0.0160828,-0.375916,-7677,8648,-8910,-3913,-29276
450,53280,0.0287109,-0.942676,9.7665,-5.59753,-0.280151,-44.2035,0.366211,0,0.183105,0.925293,-0.0461731,0.0160828,-0.375916,-7676,8648,-8913,-3913,-29276
456,53286,0.0334961,-0.91875,9.77129,-5.59753,-0.280151,-44.2035,0.183105,-0.12207,-0.0610352,0.925293,-0.0461426,0.0160522,-0.375916,-7677,8647,-8915,-3913,-29276
462,53292,0.0430664,-0.947461,9.80479,-5.59204,-0.280151,-44.2035,0,-0.305176,0.12207,0.925293,-0.0461426,0.0160522,-0.375916,-7678,8644,-8915,-3913,-29276
468,53298,0.0334961,-0.947461,9.77129,-5.59204,-0.280151,-44.2035,0,-0.0610352,0.0610352,0.925323,-0.0461426,0.0160522,-0.375916,-7678,8641,-8913,-3913,-29276
474,53304,0.0526367,-0.952246,9.76172,-5.59204,-0.280151,-44.2035,-0.0610352,0.0610352,0,0.925323,-0.0461426,0.0160522,-0.375916,-7679,8639,-8916,-3913,-29276
480,53310,0.0334961,-0.961816,9.77129,-5.59204,-0.280151,-44.2035,-0.0610352,0.0610352,-0.183105,0.925293,-0.0461426,0.0160522,-0.375916,-7680,8641,-8921,-3913,-29276
486,53316,0.0334961,-0.947461,9.75693,-5.59753,-0.280151,-44.2035,-0.244141,0.0610352,0.366211,0.925323,-0.0461731,0.0160522,-0.375916,-7682,8644,-8926,-3913,-29276
492,53322,0.0191406,-0.947461,9.75693,-5.59753,-0.280151,-44.2035,0,0,0.0610352,0.925323,-0.0461731,0.0160828,-0.375916,-7682,8647,-8935,-3913,-29276
498,53328,0.0239258,-0.966602,9.8,-5.59753,-0.280151,-44.2035,0.12207,0,0.0610352,0.925323,-0.0461426,0.0160828,-0.375885,-7681,8647,-8936,-3913,-29276
504,53334,0.0478516,-0.961816,9.72822,-5.59753,-0.280151,-44.2035,0,0,0.0610352,0.925323,-0.0461426,0.0160828,-0.375885,-7680,8645,-8931,-3913,-29276
510,53340,0.0526367,-0.933105,9.75215,-5.59753,-0.280151,-44.2035,-0.0610352,0,0,0.925323,-0.0461426,0.0160828,-0.375885,-7678,8641,-8925,-3913,-29276
516,53346,0.0478516,-0.957031,9.78086,-5.59753,-0.280151,-44.2035,-0.0610352,0,-0.12207,0.925323,-0.0461731,0.0160828,-0.375916,-7674,8638,-8922,-3913,-29276
522,53352,0.0334961,-0.947461,9.72822,-5.59753,-0.280151,-44.2035,-0.0610352,0,-0.0610352,0.925323,-0.0461731,0.0160828,-0.375916,-7669,8637,-8913,-3913,-29276
528,53358,0.0669922,-0.942676,9.75215,-5.59753,-0.280151,-44.2035,-0.0610352,-0.12207,0,0.925323,-0.0461731,0.0160828,-0.375916,-7667,8637,-8908,-3913,-29276
534,53364,0.0334961,-0.961816,9.78564,-5.59753,-0.280151,-44.2035,0.0610352,-0.12207,0.0610352,0.925323,-0.0461731,0.0160522,-0.375885,-7669,8639,-8906,-3913,-29276
540,53370,0.0574219,-0.923535,9.7665,-5.59204,-0.280151,-44.2035,0.366211,0,0,0.925323,-0.0461426,0.0160522,-0.375885,-7669,8640,-8905,-3913,-29276
546,53376,0.062207,-0.961816,9.8,-5.59204,-0.280151,-44.2035,-0.12207,-0.183105,0.0610352,0.925323,-0.0461426,0.0160522,-0.375885,-7670,8639,-8904,-3913,-29276
552,53382,0.0334961,-0.952246,9.74258,-5.59753,-0.280151,-44.198,-0.366211,0,0.0610352,0.925323,-0.0461731,0.0160522,-0.375885,-7674,8632,-8894,-3913,-29276
558,53388,0.0239258,-0.933105,9.71865,-5.59753,-0.280151,-44.198,0,-0.12207,0.0610352,0.925323,-0.0461731,0.0160522,-0.375885,-7676,8630,-8895,-3913,-29276
564,53394,0.0430664,-0.971387,9.73779,-5.59753,-0.280151,-44.198,0.0610352,0,0,0.925323,-0.0461731,0.0160522,-0.375885,-7676,8628,-8897,-3913,-29276
570,53400,0.0574219,-0.937891,9.76172,-5.59753,-0.280151,-44.198,0.244141,0,-0.183105,0.925323,-0.0461731,0.0160522,-0.375885,-7677,8627,-8898,-3913,-29276
576,53406,0.0287109,-0.961816,9.75215,-5.59753,-0.280151,-44.2035,0.12207,0.0610352,0,0.925323,-0.0461731,0.0160522,-0.375885,-7679,8629,-8899,-3913,-29276
582,53412,0.0287109,-0.957031,9.7665,-5.59753,-0.280151,-44.2035,0.0610352,0.12207,0.0610352,0.925323,-0.0461731,0.0160522,-0.375885,-7679,8631,-8895,-3913,-29276
588,53418,0.0334961,-0.92832,9.77607,-5.59753,-0.280151,-44.2035,-0.0610352,0,0,0.925323,-0.0461731,0.0160828,-0.375885,-7676,8634,-8898,-3913,-29276
594,53424,0.0478516,-0.947461,9.74258,-5.59753,-0.280151,-44.198,-0.0610352,-0.12207,0.0610352,0.925323,-0.0461731,0.0160522,-0.375885,-7671,8637,-8899,-3913,-29276
600,53430,0.0526367,-0.952246,9.74258,-5.59204,-0.280151,-44.198,0.305176,0,-0.0610352,0.925323,-0.0461426,0.0160522,-0.375885,-7666,8638,-8907,-3913,-29276
606,53436,0.0382813,-0.937891,9.7665,-5.59753,-0.280151,-44.198,-0.0610352,-0.12207,0.305176,0.925323,-0.0461426,0.0160522,-0.375885,-7660,8640,-8912,-3913,-29276
612,53442,0.0574219,-0.942676,9.74736,-5.59753,-0.280151,-44.198,-0.0610352,-0.0610352,0.12207,0.925323,-0.0461731,0.0160522,-0.375885,-7649,8639,-8919,-3913,-29276
618,53448,0.0334961,-0.961816,9.73779,-5.59753,-0.280151,-44.198,-0.12207,0,0,0.925323,-0.0461731,0.0160522,-0.375885,-7644,8639,-8923,-3913,-29276
624,53454,0.0478516,-0.952246,9.75693,-5.59753,-0.280151,-44.198,0.0610352,0,-0.0610352,0.925323,-0.0461731,0.0160522,-0.375885,-7643,8639,-8924,-3913,-29276
630,53460,0.0526367,-0.947461,9.76172,-5.59753,-0.280151,-44.198,0,-0.0610352,-0.0610352,0.925323,-0.0461731,0.0160522,-0.375885,-7643,8638,-8925,-3913,-29276
636,53466,0.0334961,-0.952246,9.78564,-5.59204,-0.280151,-44.2035,0.12207,0,-0.244141,0.925323,-0.0461426,0.0160522,-0.375885,-7644,8637,-8926,-3913,-29276
642,53472,0.062207,-0.92832,9.78086,-5.59204,-0.280151,-44.2035,0.12207,0,0,0.925323,-0.0461426,0.0160522,-0.375885,-7645,8631,-8932,-3913,-29276
648,53478,0.062207,-0.971387,9.76172,-5.59204,-0.280151,-44.2035,0.0610352,0,-0.0610352,0.925323,-0.0461426,0.0160522,-0.375885,-7644,8629,-8937,-3913,-29276
654,53484,0.0430664,-0.947461,9.74258,-5.59204,-0.280151,-44.198,-0.305176,0.0610352,0.244141,0.925323,-0.0461426,0.0160522,-0.375885,-7645,8629,-8939,-3913,-29276
660,53490,0.062207,-0.952246,9.73301,-5.59753,-0.280151,-44.198,-0.366211,-0.12207,0,0.925323,-0.0461731,0.0160522,-0.375885,-7646,8627,-8938,-3913,-29276
666,53496,0.0239258,-0.957031,9.77607,-5.59753,-0.280151,-44.198,-0.0610352,0.0610352,0,0.925323,-0.0461731,0.0160522,-0.375885,-7647,8631,-8936,-3913,-29276
672,53502,0.0239258,-0.971387,9.77607,-5.59204,-0.280151,-44.198,0.366211,-0.183105,0,0.925323,-0.0461426,0.0160522,-0.375885,-7646,8633,-8927,-3913,-29276
678,53508,0.0239258,-0.923535,9.75215,-5.59204,-0.285645,-44.198,0.183105,-0.183105,-0.183105,0.925323,-0.0461426,0.0160217,-0.375885,-7644,8632,-8927,-3913,-29276
684,53514,0.0478516,-0.957031,9.73779,-5.59204,-0.285645,-44.198,-0.12207,-0.0610352,0,0.925323,-0.0461426,0.0160217,-0.375885,-7641,8630,-8925,-3913,-29276
690,53520,0.0478516,-0.942676,9.75215,-5.59204,-0.285645,-44.198,-0.12207,0,0.0610352,0.925323,-0.0461426,0.0160217,-0.375885,-7639,8626,-8923,-3913,-29276
696,53526,0.0239258,-0.952246,9.74736,-5.59204,-0.285645,-44.198,-0.12207,-0.0610352,0.0610352,0.925323,-0.0461426,0.0160522,-0.375885,-7639,8625,-8921,-3913,-29276
702,53532,0.0430664,-0.957031,9.76172,-5.59204,-0.285645,-44.198,0.0610352,-0.183105,0.0610352,0.925323,-0.0461426,0.0160217,-0.375854,-7645,8622,-8915,-3913,-29276
708,53538,0.0478516,-0.976172,9.78086,-5.59204,-0.285645,-44.198,0.0610352,0.0610352,-0.0610352,0.925323,-0.0461426,0.0160217,-0.375854,-7650,8620,-8911,-3913,-29276
714,53544,0.0382813,-0.933105,9.7665,-5.59204,-0.285645,-44.198,0.0610352,0,-0.244141,0.925323,-0.0461426,0.0160217,-0.375885,-7654,8617,-8909,-3913,-29276
720,53550,0.0430664,-0.971387,9.72344,-5.59204,-0.285645,-44.198,-0.0610352,-0.0610352,0.0610352,0.925323,-0.0461426,0.0160217,-0.375885,-7656,8615,-8907,-3913,-29276
726,53556,0.0334961,-0.957031,9.77129,-5.59204,-0.285645,-44.198,-0.12207,0.0610352,-0.0610352,0.925323,-0.0461426,0.0160522,-0.375885,-7654,8614,-8901,-3913,-29276
732,53562,0.0430664,-0.966602,9.78086,-5.59204,-0.285645,-44.198,0.305176,0,0,0.925323,-0.0461426,0.0160217,-0.375885,-7648,8613,-8892,-3913,-29276
738,53568,0.0334961,-0.957031,9.79521,-5.59204,-0.285645,-44.198,-0.0610352,-0.0610352,0,0.925323,-0.0461426,0.0160217,-0.375885,-7646,8615,-8888,-3913,-29276
744,53574,0.0382813,-0.91875,9.75693,-5.59204,-0.285645,-44.198,-0.0610352,-0.0610352,0.183105,0.925323,-0.0461426,0.0160217,-0.375854,-7648,8616,-8885,-3913,-29276
750,53580,0.0382813,-0.942676,9.77607,-5.59204,-0.285645,-44.198,-0.183105,0.12207,-0.366211,0.925323,-0.0461426,0.0160217,-0.375885,-7650,8618,-8885,-3913,-29276
756,53586,0.0334961,-0.952246,9.76172,-5.59204,-0.285645,-44.198,0,-0.183105,0.12207,0.925323,-0.0461426,0.0160217,-0.375885,-7651,8619,-8884,-3913,-29276
762,53592,0.0478516,-0.976172,9.73301,-5.59204,-0.285645,-44.198,0.0610352,0,0.12207,0.925323,-0.0461426,0.0160217,-0.375885,-7649,8617,-8879,-3913,-29276
768,53598,0.0334961,-0.923535,9.73779,-5.59204,-0.285645,-44.198,0,-0.12207,0.12207,0.925323,-0.0461426,0.0160217,-0.375885,-7646,8617,-8884,-3913,-29276
774,53604,0.0574219,-0.937891,9.73779,-5.59204,-0.285645,-44.198,-0.12207,0.0610352,0,0.925323,-0.0461426,0.0160217,-0.375885,-7644,8614,-8890,-3913,-29276
780,53610,0.062207,-0.942676,9.7665,-5.59204,-0.285645,-44.2035,-0.12207,0.12207,-0.366211,0.925323,-0.0461426,0.0160522,-0.375885,-7642,8610,-8897,-3913,-29276
786,53616,0.0478516,-0.957031,9.75693,-5.59204,-0.285645,-44.2035,0.244141,0.12207,-0.244141,0.925323,-0.0461426,0.0160522,-0.375885,-7640,8609,-8898,-3913,-29276
792,53622,0.0430664,-0.952246,9.72344,-5.59204,-0.280151,-44.2035,-0.0610352,0,0.244141,0.925323,-0.0461426,0.0160522,-0.375885,-7639,8614,-8895,-3913,-29276
798,53628,0.0334961,-0.947461,9.73301,-5.59204,-0.280151,-44.2035,-0.244141,-0.0610352,0,0.925323,-0.0461426,0.0160522,-0.375885,-7640,8618,-8893,-3913,-29276
804,53634,0.0287109,-0.985742,9.78086,-5.59204,-0.285645,-44.198,-0.0610352,-0.0610352,0.244141,0.925323,-0.0461426,0.0160522,-0.375885,-7640,8620,-8894,-3913,-29276
810,53640,0.0478516,-0.966602,9.7665,-5.59204,-0.285645,-44.198,0.183105,-0.12207,0.0610352,0.925323,-0.0461426,0.0160522,-0.375885,-7641,8620,-8893,-3913,-29276
816,53646,0.0382813,-0.947461,9.77129,-5.59204,-0.285645,-44.198,0.183105,0.0610352,0.0610352,0.925323,-0.0461426,0.0160217,-0.375885,-7642,8618,-8893,-3913,-29276
822,53652,0.0334961,-0.942676,9.75215,-5.59204,-0.280151,-44.198,-0.12207,0,-0.183105,0.925323,-0.0461121,0.0160217,-0.375885,-7643,8616,-8898,-3913,-29276
828,53658,0.0239258,-0.947461,9.7665,-5.59204,-0.285645,-44.198,-0.305176,-0.0610352,0,0.925323,-0.0461426,0.0160522,-0.375885,-7641,8615,-8899,-3913,-29276
834,53664,0.0191406,-0.942676,9.77129,-5.59204,-0.285645,-44.198,-0.183105,0,-0.0610352,0.925323,-0.0461426,0.0160522,-0.375885,-7641,8616,-8901,-3913,-29276
840,53670,0.0334961,-0.947461,9.74736,-5.59204,-0.280151,-44.198,0,0.0610352,0,0.925323,-0.0461426,0.0160522,-0.375885,-7642,8616,-8897,-3913,-29276
846,53676,0.0334961,-0.91875,9.70908,-5.59204,-0.280151,-44.198,0.183105,-0.0610352,0.0610352,0.925323,-0.0461426,0.0160522,-0.375885,-7642,8616,-8894,-3913,-29276
852,53682,0.0334961,-0.947461,9.7665,-5.59204,-0.280151,-44.198,0.0610352,0,0.0610352,0.925323,-0.0461426,0.0160522,-0.375885,-7643,8614,-8895,-3913,-29276
858,53688,0.0334961,-0.952246,9.77129,-5.59204,-0.280151,-44.198,-0.0610352,0,0.0610352,0.925323,-0.0461426,0.0160522,-0.375885,-7643,8612,-8895,-3913,-29276
864,53694,0.0287109,-0.961816,9.75215,-5.59204,-0.280151,-44.198,-0.0610352,0,0.0610352,0.925323,-0.0461426,0.0160522,-0.375854,-7641,8608,-8898,-3913,-29276
870,53700,0.0526367,-0.957031,9.76172,-5.59204,-0.280151,-44.198,0,-0.0610352,-0.12207,0.925323,-0.0461426,0.0160522,-0.375885,-7640,8603,-8901,-3913,-29276
876,53706,0.0526367,-0.942676,9.78086,-5.59204,-0.280151,-44.198,0,0,0.366211,0.925323,-0.0461426,0.0160522,-0.375885,-7640,8602,-8900,-3913,-29276
882,53712,0.0526367,-0.957031,9.7665,-5.59204,-0.280151,-44.198,0,0,0,0.925323,-0.0461426,0.0160522,-0.375854,-7639,8601,-8901,-3913,-29276
888,53718,0.0478516,-0.933105,9.74258,-5.59204,-0.280151,-44.198,-0.183105,-0.0610352,0,0.925323,-0.0461426,0.0160522,-0.375854,-7640,8600,-8901,-3913,-29276
894,53724,0.0526367,-0.961816,9.75215,-5.59204,-0.280151,-44.198,-0.0610352,-0.0610352,-0.12207,0.925323,-0.0461426,0.0160522,-0.375854,-7640,8599,-8903,-3913,-29276
900,53730,0.0430664,-0.976172,9.75693,-5.59204,-0.280151,-44.198,0,-0.0610352,0,0.925323,-0.0461426,0.0160522,-0.375854,-7642,8597,-8907,-3913,-29276
906,53736,0.0478516,-0.966602,9.77607,-5.59204,-0.280151,-44.198,0.12207,-0.183105,0.0610352,0.925323,-0.0461426,0.0160522,-0.375854,-7646,8596,-8914,-3913,-29276
912,53742,0.0478516,-0.957031,9.8,-5.59204,-0.280151,-44.198,-0.0610352,0,0.12207,0.925323,-0.0461426,0.0160522,-0.375854,-7649,8595,-8923,-3913,-29276
918,53748,0.0430664,-0.947461,9.7665,-5.59204,-0.285645,-44.198,-0.12207,-0.0610352,-0.0610352,0.925323,-0.0461426,0.0160522,-0.375854,-7650,8595,-8924,-3913,-29276
924,53754,0.0574219,-0.966602,9.73301,-5.59204,-0.285645,-44.198,-0.305176,0,0,0.925323,-0.0461426,0.0160522,-0.375854,-7648,8595,-8922,-3913,-29276
930,53760,0.0574219,-0.937891,9.72344,-5.59753,-0.285645,-44.198,-0.244141,-0.0610352,0,0.925323,-0.0461731,0.0160522,-0.375854,-7648,8597,-8918,-3913,-29276
936,53766,0.0334961,-0.957031,9.73779,-5.59204,-0.280151,-44.198,0.183105,0.0610352,-0.0610352,0.925323,-0.0461731,0.0160522,-0.375854,-7649,8599,-8914,-3913,-29276
942,53772,0.0334961,-0.957031,9.74258,-5.59204,-0.285645,-44.198,0.183105,-0.0610352,0.12207,0.925323,-0.0461426,0.0160522,-0.375854,-7654,8603,-8907,-3913,-29276
948,53778,0.0334961,-0.957031,9.76172,-5.59204,-0.285645,-44.198,0.305176,-0.12207,-0.183105,0.925323,-0.0461426,0.0160217,-0.375854,-7657,8604,-8907,-3913,-29276
954,53784,0.0574219,-0.966602,9.7665,-5.59204,-0.285645,-44.198,0,0.0610352,0.0610352,0.925323,-0.0461426,0.0160217,-0.375854,-7658,8606,-8908,-3913,-29276
960,53790,0.062207,-0.942676,9.75693,-5.59204,-0.285645,-44.198,-0.12207,-0.12207,0,0.925323,-0.0461426,0.0160217,-0.375854,-7658,8608,-8913,-3913,-29276
966,53796,0.0143555,-0.961816,9.77129,-5.59204,-0.285645,-44.198,0,-0.12207,-0.12207,0.925323,-0.0461426,0.0160217,-0.375854,-7657,8611,-8921,-3913,-29276
972,53802,0.0191406,-0.961816,9.78564,-5.59204,-0.285645,-44.198,0.183105,0,0,0.925323,-0.0461426,0.0160217,-0.375854,-7655,8614,-8942,-3913,-29276
978,53808,0.0334961,-0.913965,9.77129,-5.59204,-0.285645,-44.198,0.12207,0,-0.366211,0.925323,-0.0461426,0.0160217,-0.375885,-7655,8614,-8953,-3913,-29276
984,53814,0.0478516,-0.957031,9.7665,-5.59204,-0.285645,-44.198,0,0.0610352,0.0610352,0.925323,-0.0461426,0.0160217,-0.375885,-7652,8614,-8958,-3913,-29276
990,53820,0.0430664,-0.957031,9.78086,-5.59204,-0.285645,-44.198,-0.0610352,0,-0.0610352,0.925323,-0.0461426,0.0160217,-0.375885,-7649,8613,-8959,-3913,-29276
996,53826,0.0526367,-0.947461,9.75215,-5.59204,-0.285645,-44.198,-0.0610352,-0.0610352,0.183105,0.925323,-0.0461426,0.0160217,-0.375885,-7647,8613,-8955,-3913,-29276
1002,53832,0.0287109,-0.947461,9.75693,-5.59204,-0.285645,-44.198,-0.0610352,0.0610352,-0.244141,0.925323,-0.0461426,0.0160217,-0.375885,-7642,8615,-8944,-3913,-29276
1008,53838,0.0478516,-0.976172,9.73301,-5.59204,-0.285645,-44.198,0.183105,-0.0610352,0.0610352,0.925323,-0.0461426,0.0160217,-0.375885,-7641,8619,-8943,-3913,-29276
1014,53844,0.0430664,-0.980957,9.76172,-5.59204,-0.285645,-44.198,0.12207,-0.12207,0,0.925323,-0.0461426,0.0160217,-0.375885,-7639,8622,-8941,-3913,-29276
1020,53850,0.0334961,-0.937891,9.7665,-5.59204,-0.285645,-44.198,-0.0610352,0.12207,0.244141,0.925323,-0.0461426,0.0160217,-0.375854,-7637,8624,-8936,-3913,-29276
1026,53856,0.0526367,-0.947461,9.74736,-5.59204,-0.285645,-44.198,0,0,0.0610352,0.925323,-0.0461426,0.0160217,-0.375854,-7634,8627,-8921,-3913,-29276
1032,53862,0.0382813,-0.966602,9.78564,-5.59204,-0.280151,-44.198,-0.0610352,0,0,0.925323,-0.0461426,0.0160217,-0.375854,-7635,8627,-8915,-3913,-29276
1038,53868,0.0334961,-0.961816,9.73779,-5.59204,-0.280151,-44.198,-0.244141,0,-0.12207,0.925323,-0.0461426,0.0160522,-0.375854,-7638,8629,-8911,-3913,-29276
1044,53874,0.0334961,-0.971387,9.72822,-5.59204,-0.280151,-44.198,-0.0610352,0,0,0.925323,-0.0461426,0.0160522,-0.375854,-7641,8631,-8910,-3913,-29276
1050,53880,0.0478516,-0.933105,9.73779,-5.59204,-0.285645,-44.198,0.244141,-0.12207,-0.244141,0.925323,-0.0461426,0.0160217,-0.375885,-7645,8632,-8908,-3913,-29276
1056,53886,0.0430664,-0.966602,9.74258,-5.58655,-0.285645,-44.198,0.366211,0,-0.244141,0.925323,-0.0461426,0.0160217,-0.375885,-7651,8626,-8904,-3913,-29276
1062,53892,0.0382813,-0.947461,9.78086,-5.58655,-0.285645,-44.198,0.183105,-0.183105,-0.12207,0.925323,-0.0461121,0.0160217,-0.375885,-7653,8625,-8903,-3913,-29276
1068,53898,0.0334961,-0.952246,9.77607,-5.58655,-0.285645,-44.198,0.12207,0,0.183105,0.925323,-0.0461121,0.0160217,-0.375885,-7653,8622,-8904,-3913,-29276
1074,53904,0.0334961,-0.947461,9.78086,-5.58655,-0.285645,-44.198,-0.183105,0,0,0.925323,-0.0461121,0.0160217,-0.375885,-7653,8620,-8908,-3913,-29276
1080,53910,0.0287109,-0.957031,9.7665,-5.58655,-0.285645,-44.2035,-0.0610352,-0.0610352,-0.305176,0.925323,-0.0461121,0.0160217,-0.375885,-7651,8619,-8912,-3913,-29276
1086,53916,0.0334961,-0.966602,9.78564,-5.58655,-0.285645,-44.198,0.0610352,0,0.244141,0.925323,-0.0461121,0.0160217,-0.375885,-7649,8618,-8917,-3913,-29276
1092,53922,0.0191406,-0.942676,9.80479,-5.58655,-0.285645,-44.2035,0.183105,0,-0.244141,0.925323,-0.0461121,0.0160217,-0.375885,-7648,8621,-8917,-3913,-29276
1098,53928,0.0478516,-0.942676,9.77607,-5.58655,-0.285645,-44.2035,-0.0610352,-0.12207,0,0.925323,-0.0461121,0.0160217,-0.375885,-7649,8622,-8914,-3913,-29276
1104,53934,0.0478516,-0.942676,9.81436,-5.59204,-0.280151,-44.2035,-0.305176,0.12207,0,0.925323,-0.0461121,0.0160217,-0.375885,-7652,8625,-8913,-3913,-29276
1110,53940,0.0478516,-0.952246,9.76172,-5.59204,-0.280151,-44.198,-0.488281,0,0.12207,0.925323,-0.0461426,0.0160522,-0.375885,-7656,8627,-8912,-3913,-29276
1116,53946,0.0430664,-0.971387,9.74736,-5.59204,-0.280151,-44.198,-0.0610352,0,0.0610352,0.925323,-0.0461426,0.0160522,-0.375885,-7659,8624,-8910,-3913,-29276
1122,53952,0.0478516,-0.947461,9.74258,-5.59204,-0.280151,-44.198,0,-0.0610352,0,0.925323,-0.0461426,0.0160522,-0.375885,-7658,8621,-8907,-3913,-29276
1128,53958,0.0382813,-0.966602,9.72822,-5.59204,-0.280151,-44.198,0.183105,0,0,0.925323,-0.0461426,0.0160522,-0.375885,-7658,8619,-8904,-3913,-29276
1134,53964,0.0478516,-0.942676,9.72344,-5.59204,-0.280151,-44.2035,0,0,-0.183105,0.925323,-0.0461426,0.0160522,-0.375885,-7659,8616,-8902,-3913,-29276
1140,53970,0.0478516,-0.976172,9.73779,-5.59204,-0.285645,-44.2035,0,-0.244141,-0.183105,0.925323,-0.0461426,0.0160522,-0.375885,-7659,8615,-8900,-3913,-29276
1146,53976,0.062207,-0.990527,9.74736,-5.59204,-0.285645,-44.2035,-0.12207,0,-0.244141,0.925323,-0.0461426,0.0160522,-0.375885,-7661,8618,-8898,-3913,-29276
1152,53982,0.0382813,-0.966602,9.73301,-5.59204,-0.285645,-44.2035,-0.12207,-0.244141,-0.0610352,0.925323,-0.0461426,0.0160217,-0.375885,-7664,8618,-8896,-3913,-29276
1158,53988,0.0382813,-0.942676,9.75215,-5.59204,-0.285645,-44.2035,0.366211,0.0610352,0,0.925323,-0.0461426,0.0160217,-0.375885,-7666,8617,-8895,-3913,-29276
1164,53994,0.0574219,-0.947461,9.76172,-5.59204,-0.285645,-44.198,0.183105,0.0610352,0.244141,0.925323,-0.0461426,0.0160217,-0.375885,-7666,8614,-8893,-3913,-29276
1170,54000,0.0334961,-0.947461,9.79043,-5.59204,-0.285645,-44.198,0.183105,-0.12207,0,0.925323,-0.0461121,0.0160217,-0.375885,-7666,8612,-8888,-3913,-29276
1176,54006,0.0430664,-0.952246,9.79043,-5.59204,-0.285645,-44.198,-0.0610352,-0.0610352,0.0610352,0.925323,-0.0461121,0.0160217,-0.375885,-7661,8613,-8877,-3913,-29276
1182,54012,0.0526367,-0.966602,9.79521,-5.59204,-0.285645,-44.198,-0.183105,0.0610352,-0.0610352,0.925323,-0.0461426,0.0160217,-0.375885,-7661,8616,-8873,-3913,-29276
1188,54018,0.0574219,-0.966602,9.75215,-5.59204,-0.285645,-44.198,-0.12207,0,0,0.925323,-0.0461426,0.0160217,-0.375885,-7661,8620,-8872,-3913,-29276
1194,54024,0.062207,-0.947461,9.75693,-5.59204,-0.285645,-44.198,-0.183105,0,0.12207,0.925323,-0.0461426,0.0160522,-0.375885,-7658,8621,-8875,-3913,-29276
1200,54030,0.0382813,-0.952246,9.77129,-5.59204,-0.285645,-44.198,-0.0610352,0,0.183105,0.925323,-0.0461426,0.0160522,-0.375885,-7655,8625,-8885,-3913,-29276
1206,54036,0.0478516,-0.92832,9.74258,-5.59204,-0.280151,-44.198,-0.0610352,0,0.0610352,0.925323,-0.0461426,0.0160522,-0.375885,-7651,8630,-8900,-3913,-29276
1212,54042,0.0478516,-0.952246,9.7665,-5.59204,-0.280151,-44.198,0,0,-0.183105,0.925323,-0.0461426,0.0160522,-0.375885,-7651,8632,-8909,-3913,-29276
1218,54048,0.0430664,-0.92832,9.73779,-5.59204,-0.280151,-44.198,-0.0610352,0,0,0.925323,-0.0461426,0.0160522,-0.375885,-7650,8633,-8912,-3913,-29276
1224,54054,0.0287109,-0.952246,9.71865,-5.59753,-0.280151,-44.198,-0.305176,-0.0610352,0.488281,0.925323,-0.0461731,0.0160522,-0.375854,-7648,8630,-8917,-3913,-29276
1230,54060,0.0239258,-0.971387,9.74736,-5.59753,-0.280151,-44.198,0,0,-0.0610352,0.925323,-0.0461731,0.0160522,-0.375854,-7645,8627,-8921,-3913,-29276
1236,54066,0.0191406,-0.957031,9.77607,-5.59204,-0.285645,-44.198,0.305176,0.0610352,-0.0610352,0.925323,-0.0461731,0.0160522,-0.375854,-7640,8618,-8924,-3913,-29276
1242,54072,0.0574219,-0.966602,9.79043,-5.59204,-0.285645,-44.198,0.183105,-0.12207,0.0610352,0.925323,-0.0461426,0.0160217,-0.375854,-7640,8617,-8923,-3913,-29276
1248,54078,0.0574219,-0.957031,9.77607,-5.59204,-0.285645,-44.198,-0.0610352,0.0610352,0,0.925323,-0.0461426,0.0160522,-0.375854,-7642,8618,-8925,-3913,-29276
1254,54084,0.0430664,-0.937891,9.77607,-5.59204,-0.280151,-44.198,-0.183105,0.12207,0,0.925323,-0.0461426,0.0160522,-0.375854,-7646,8621,-8925,-3913,-29276
1260,54090,0.0239258,-0.942676,9.8,-5.59204,-0.280151,-44.198,-0.0610352,-0.0610352,0.0610352,0.925323,-0.0461426,0.0160522,-0.375854,-7650,8623,-8927,-3913,-29276
1266,54096,0.0239258,-0.923535,9.77129,-5.59204,-0.280151,-44.198,-0.12207,0.0610352,0.0610352,0.925323,-0.0461426,0.0160522,-0.375854,-7654,8623,-8924,-3913,-29276
1272,54102,0.0478516,-0.961816,9.74736,-5.59753,-0.280151,-44.198,-0.305176,0,-0.12207,0.925323,-0.0461731,0.0160522,-0.375854,-7656,8622,-8920,-3913,-29276
1278,54108,0.0430664,-0.947461,9.72344,-5.59753,-0.280151,-44.198,-0.305176,0,0,0.925323,-0.0461731,0.0160522,-0.375854,-7658,8620,-8919,-3913,-29276
1284,54114,0.0382813,-0.952246,9.72822,-5.59753,-0.280151,-44.198,0,0,0.12207,0.925323,-0.0461731,0.0160522,-0.375854,-7660,8618,-8913,-3913,-29276
1290,54120,0.0478516,-0.957031,9.71865,-5.59753,-0.280151,-44.1925,0.183105,-0.0610352,0.0610352,0.925323,-0.0461731,0.0160522,-0.375854,-7662,8617,-8907,-3913,-29276
1296,54126,0.0478516,-0.957031,9.75215,-5.59204,-0.280151,-44.198,0.183105,0,0.12207,0.925323,-0.0461731,0.0160522,-0.375854,-7663,8617,-8897,-3913,-29276
1302,54132,0.062207,-0.961816,9.78564,-5.59204,-0.280151,-44.198,-0.0610352,0,-0.366211,0.925323,-0.0461731,0.0160522,-0.375854,-7666,8619,-8899,-3913,-29276
1308,54138,0.0239258,-0.971387,9.7665,-5.59753,-0.285645,-44.198,-0.0610352,-0.0610352,-0.0610352,0.925323,-0.0461731,0.0160522,-0.375854,-7668,8620,-8904,-3913,-29276
1314,54144,0.0669922,-0.971387,9.77129,-5.59753,-0.285645,-44.198,-0.0610352,0,-0.12207,0.925323,-0.0461731,0.0160522,-0.375854,-7670,8621,-8907,-3913,-29276
1320,54150,0.0382813,-0.971387,9.76172,-5.59753,-0.285645,-44.198,0,-0.0610352,0.183105,0.925323,-0.0461731,0.0160522,-0.375854,-7671,8624,-8913,-3913,-29276
1326,54156,0.0334961,-0.952246,9.78564,-5.59204,-0.280151,-44.198,0.244141,0.0610352,0.183105,0.925323,-0.0461731,0.0160522,-0.375854,-7670,8627,-8926,-3913,-29276
1332,54162,0.0382813,-0.947461,9.82871,-5.59204,-0.285645,-44.198,0,-0.0610352,0,0.925323,-0.0461426,0.0160522,-0.375854,-7669,8628,-8931,-3913,-29276
1338,54168,0.0526367,-0.933105,9.78086,-5.59753,-0.285645,-44.198,-0.183105,0,-0.0610352,0.925323,-0.0461731,0.0160522,-0.375854,-7668,8626,-8933,-3913,-29276
1344,54174,0.0287109,-0.947461,9.78564,-5.59753,-0.285645,-44.198,-0.549316,-0.12207,0.183105,0.925323,-0.0461731,0.0160522,-0.375854,-7668,8626,-8934,-3913,-29276
1350,54180,0.0430664,-0.966602,9.77607,-5.59753,-0.285645,-44.1925,-0.183105,0,0.0610352,0.925323,-0.0462036,0.0160522,-0.375854,-7667,8624,-8930,-3913,-29276
1356,54186,0.0239258,-0.957031,9.76172,-5.59753,-0.280151,-44.198,0.366211,0.183105,-0.183105,0.925354,-0.0461731,0.0160522,-0.375824,-7667,8622,-8924,-3913,-29276
1362,54192,0.0430664,-0.942676,9.77607,-5.59753,-0.280151,-44.198,-0.0610352,0.0610352,0,0.925323,-0.0461731,0.0160522,-0.375854,-7670,8618,-8924,-3913,-29276
1368,54198,0.0430664,-0.92832,9.73779,-5.59753,-0.280151,-44.198,-0.427246,0,-0.0610352,0.925323,-0.0461731,0.0160828,-0.375854,-7673,8618,-8926,-3913,-29276
1374,54204,0.0287109,-0.952246,9.70908,-5.60303,-0.280151,-44.1925,-0.610352,0,0.244141,0.925323,-0.0462036,0.0160828,-0.375824,-7676,8618,-8932,-3913,-29276
1380,54210,0.0382813,-0.971387,9.74258,-5.60303,-0.280151,-44.1925,-0.183105,0,0,0.925323,-0.0462036,0.0160828,-0.375824,-7678,8619,-8937,-3913,-29276
1386,54216,0.0478516,-0.961816,9.74736,-5.59753,-0.280151,-44.1925,0.183105,-0.0610352,0,0.925323,-0.0462036,0.0160828,-0.375854,-7680,8621,-8938,-3913,-29276
1392,54222,0.0334961,-0.947461,9.74736,-5.59753,-0.280151,-44.198,0,-0.183105,-0.12207,0.925323,-0.0462036,0.0160828,-0.375854,-7682,8622,-8939,-3913,-29276
1398,54228,0.0382813,-0.957031,9.73301,-5.60303,-0.280151,-44.1925,-0.366211,-0.0610352,0.12207,0.925323,-0.0462036,0.0160828,-0.375854,-7684,8623,-8937,-3913,-29276
1404,54234,0.0478516,-0.976172,9.72344,-5.60303,-0.280151,-44.198,-0.244141,0,-0.0610352,0.925323,-0.0462036,0.0160828,-0.375854,-7687,8625,-8939,-3913,-29276
1410,54240,0.0478516,-0.957031,9.75215,-5.60303,-0.280151,-44.1925,-0.0610352,0,0.244141,0.925354,-0.0462341,0.0160828,-0.375824,-7688,8626,-8939,-3913,-29276
1416,54246,0.0191406,-0.976172,9.77607,-5.59753,-0.280151,-44.1925,0.305176,-0.0610352,0,0.925354,-0.0462036,0.0160522,-0.375824,-7689,8629,-8930,-3913,-29276
1422,54252,0.0430664,-0.971387,9.78086,-5.59753,-0.280151,-44.1925,0.0610352,-0.0610352,0.12207,0.925354,-0.0462036,0.0160522,-0.375824,-7688,8630,-8926,-3913,-29276
1428,54258,0.0239258,-0.947461,9.77607,-5.59753,-0.280151,-44.1925,-0.12207,-0.0610352,-0.12207,0.925354,-0.0462036,0.0160522,-0.375824,-7685,8630,-8922,-3913,-29276
1434,54264,0.0382813,-0.957031,9.77607,-5.60303,-0.280151,-44.1925,-0.244141,0.0610352,0.0610352,0.925354,-0.0462036,0.0160828,-0.375824,-7682,8630,-8919,-3913,-29276
1440,54270,0.0334961,-0.961816,9.75693,-5.60303,-0.280151,-44.1925,-0.244141,0.0610352,0,0.925354,-0.0462036,0.0160828,-0.375824,-7678,8631,-8918,-3913,-29276
1446,54276,0.0526367,-0.937891,9.75215,-5.60303,-0.280151,-44.198,0.244141,0.12207,-0.183105,0.925323,-0.0462036,0.0160828,-0.375854,-7674,8633,-8919,-3913,-29276
1452,54282,0.0526367,-0.92832,9.7665,-5.60303,-0.280151,-44.198,0,0,0,0.925323,-0.0462036,0.0160828,-0.375854,-7674,8633,-8920,-3913,-29276
1458,54288,0.0430664,-0.947461,9.73779,-5.60303,-0.280151,-44.198,-0.12207,-0.0610352,0,0.925323,-0.0462036,0.0160828,-0.375854,-7676,8630,-8917,-3913,-29276
1464,54294,0.0334961,-0.942676,9.73779,-5.60303,-0.280151,-44.1925,-0.244141,0,0.0610352,0.925323,-0.0462341,0.0160828,-0.375854,-7675,8627,-8912,-3913,-29276
1470,54300,0.0430664,-0.980957,9.73301,-5.60303,-0.280151,-44.198,-0.0610352,0.0610352,-0.12207,0.925323,-0.0462341,0.0160828,-0.375854,-7673,8625,-8908,-3913,-29276
1476,54306,0.0334961,-0.971387,9.74736,-5.60303,-0.280151,-44.198,0,0,0,0.925323,-0.0462341,0.0160828,-0.375854,-7669,8623,-8910,-3913,-29276
1482,54312,0.0430664,-0.961816,9.75693,-5.60303,-0.280151,-44.1925,0.183105,0.183105,0.0610352,0.925323,-0.0462036,0.0160828,-0.375854,-7668,8625,-8916,-3913,-29276
1488,54318,0.062207,-0.942676,9.76172,-5.60303,-0.280151,-44.198,0,-0.0610352,-0.12207,0.925323,-0.0462036,0.0160828,-0.375854,-7669,8628,-8918,-3913,-29276
1494,54324,0.0334961,-0.957031,9.77607,-5.60303,-0.280151,-44.198,0,-0.12207,0,0.925323,-0.0462036,0.0160828,-0.375854,-7671,8633,-8921,-3913,-29276
1500,54330,0.062207,-0.957031,9.77129,-5.60303,-0.280151,-44.198,-0.0610352,0,-0.0610352,0.925323,-0.0462036,0.0160828,-0.375854,-7672,8638,-8923,-3913,-29276
1506,54336,0.0334961,-0.947461,9.73301,-5.60303,-0.280151,-44.198,-0.183105,0,0,0.925323,-0.0462341,0.0160828,-0.375854,-7670,8646,-8929,-3913,-29276
1512,54342,0.0239258,-0.976172,9.73301,-5.60303,-0.280151,-44.198,-0.244141,-0.0610352,0.183105,0.925323,-0.0462341,0.0161133,-0.375854,-7671,8647,-8936,-3913,-29276
1518,54348,0.0430664,-0.957031,9.72822,-5.60852,-0.280151,-44.198,-0.366211,-0.0610352,-0.183105,0.925323,-0.0462341,0.0161133,-0.375854,-7672,8643,-8939,-3913,-29276
1524,54354,0.0430664,-0.966602,9.74258,-5.60852,-0.280151,-44.198,-0.0610352,0,-0.12207,0.925323,-0.0462646,0.0161133,-0.375854,-7674,8638,-8941,-3913,-29276
1530,54360,0.0430664,-0.966602,9.73779,-5.60852,-0.280151,-44.198,0.366211,-0.12207,0.0610352,0.925323,-0.0462646,0.0161133,-0.375854,-7677,8637,-8945,-3913,-29276
1536,54366,0.0334961,-0.952246,9.73779,-5.60303,-0.280151,-44.198,0.305176,-0.0610352,-0.244141,0.925323,-0.0462341,0.0160828,-0.375854,-7682,8632,-8956,-3913,-29276
1542,54372,0.062207,-0.942676,9.75215,-5.60303,-0.280151,-44.198,-0.0610352,-0.0610352,0,0.925323,-0.0462341,0.0160828,-0.375854,-7684,8631,-8960,-3913,-29276
1548,54378,0.0287109,-0.971387,9.74258,-5.60303,-0.280151,-44.198,-0.244141,-0.12207,0,0.925323,-0.0462341,0.0160828,-0.375854,-7688,8631,-8971,-3913,-29276
1554,54384,0.0143555,-0.947461,9.74736,-5.60852,-0.280151,-44.198,-0.12207,-0.0610352,0.183105,0.925323,-0.0462341,0.0160828,-0.375854,-7690,8631,-8978,-3913,-29276
1560,54390,0.0334961,-0.952246,9.78086,-5.60852,-0.280151,-44.198,0.12207,-0.183105,0.0610352,0.925323,-0.0462341,0.0161133,-0.375854,-7690,8633,-8984,-3913,-29276
1566,54396,0.0526367,-0.971387,9.75215,-5.60303,-0.280151,-44.198,0.0610352,0.0610352,-0.12207,0.925323,-0.0462341,0.0160828,-0.375854,-7684,8636,-8975,-3913,-29276
1572,54402,0.0191406,-0.957031,9.73779,-5.60852,-0.280151,-44.198,-0.244141,-0.12207,-0.0610352,0.925323,-0.0462646,0.0160828,-0.375854,-7678,8636,-8974,-3913,-29276
1578,54408,0.0526367,-0.952246,9.76172,-5.60852,-0.280151,-44.198,-0.12207,0.0610352,0.0610352,0.925323,-0.0462646,0.0161133,-0.375854,-7673,8637,-8974,-3913,-29276
1584,54414,0.0334961,-0.980957,9.74736,-5.60852,-0.280151,-44.198,-0.0610352,0,0.305176,0.925323,-0.0462646,0.0161133,-0.375854,-7668,8636,-8973,-3913,-29276
1590,54420,0.0430664,-0.957031,9.7665,-5.60852,-0.280151,-44.198,0.305176,0,0,0.925323,-0.0462646,0.0160828,-0.375854,-7665,8633,-8976,-3913,-29276
1596,54426,0.0334961,-0.952246,9.77129,-5.60303,-0.280151,-44.198,0.244141,0,-0.0610352,0.925323,-0.0462341,0.0160828,-0.375854,-7664,8626,-8970,-3913,-29276
1602,54432,0.0478516,-0.952246,9.75693,-5.60303,-0.280151,-44.198,-0.0610352,-0.0610352,-0.0610352,0.925323,-0.0462341,0.0160828,-0.375854,-7667,8623,-8968,-3913,-29276
1608,54438,0.0574219,-0.942676,9.77607,-5.60303,-0.280151,-44.198,0,-0.12207,0,0.925323,-0.0462341,0.0160828,-0.375854,-7669,8620,-8964,-3913,-29276
1614,54444,0.0430664,-0.947461,9.78564,-5.60303,-0.280151,-44.198,-0.183105,-0.0610352,0,0.925323,-0.0462341,0.0160828,-0.375854,-7672,8618,-8965,-3913,-29276
1620,54450,0.0574219,-0.933105,9.73779,-5.60303,-0.280151,-44.198,-0.12207,0.183105,-0.0610352,0.925323,-0.0462341,0.0160828,-0.375854,-7675,8616,-8962,-3913,-29276
1626,54456,0.0334961,-0.947461,9.79043,-5.60852,-0.280151,-44.198,-0.0610352,0,0.0610352,0.925323,-0.0462646,0.0160828,-0.375854,-7679,8608,-8960,-3913,-29276
1632,54462,0.0239258,-0.966602,9.73779,-5.60852,-0.280151,-44.198,0.0610352,0,0,0.925323,-0.0462341,0.0160828,-0.375854,-7681,8604,-8961,-3913,-29276
1638,54468,0.0478516,-0.942676,9.72344,-5.60852,-0.280151,-44.198,-0.0610352,-0.0610352,0,0.925323,-0.0462646,0.0160828,-0.375854,-7684,8600,-8961,-3913,-29276
1644,54474,0.0191406,-0.976172,9.75215,-5.60852,-0.280151,-44.198,0,0.0610352,0.0610352,0.925323,-0.0462646,0.0161133,-0.375854,-7687,8599,-8961,-3913,-29276
1650,54480,0.0478516,-0.937891,9.73779,-5.60852,-0.280151,-44.198,0,0.0610352,-0.305176,0.925323,-0.0462646,0.0161133,-0.375854,-7690,8602,-8960,-3913,-29276
1656,54486,0.0382813,-0.966602,9.75215,-5.60852,-0.280151,-44.198,-0.0610352,0.12207,0.0610352,0.925323,-0.0462646,0.0161133,-0.375854,-7694,8606,-8950,-3913,-29276
1662,54492,0.0334961,-0.971387,9.74736,-5.60852,-0.280151,-44.198,0.244141,0,-0.366211,0.925323,-0.0462341,0.0161133,-0.375885,-7696,8608,-8944,-3913,-29276
1668,54498,0.0430664,-0.971387,9.75693,-5.60303,-0.280151,-44.198,0.366211,-0.183105,0.12207,0.925323,-0.0462341,0.0160828,-0.375885,-7697,8608,-8941,-3913,-29276
1674,54504,0.0430664,-0.937891,9.78564,-5.60303,-0.280151,-44.198,0.305176,0.0610352,-0.12207,0.925323,-0.0462341,0.0160828,-0.375885,-7699,8608,-8937,-3913,-29276
1680,54510,0.062207,-0.990527,9.77607,-5.60303,-0.280151,-44.198,-0.305176,0.12207,0.183105,0.925323,-0.0462036,0.0160828,-0.375885,-7700,8609,-8932,-3913,-29276
1686,54516,0.0334961,-0.947461,9.78086,-5.60852,-0.280151,-44.198,-0.305176,-0.12207,0,0.925323,-0.0462341,0.0161133,-0.375885,-7701,8612,-8935,-3913,-29276
1692,54522,0.0526367,-0.942676,9.76172,-5.60852,-0.280151,-44.198,-0.0610352,0,-0.183105,0.925323,-0.0462341,0.0161133,-0.375885,-7701,8613,-8939,-3913,-29276
1698,54528,0.062207,-0.947461,9.76172,-5.60852,-0.280151,-44.198,-0.0610352,0,-0.12207,0.925323,-0.0462341,0.0161133,-0.375885,-7702,8611,-8943,-3913,-29276
1704,54534,0.0717773,-0.937891,9.74258,-5.60852,-0.280151,-44.198,0.0610352,0.12207,0,0.925323,-0.0462341,0.0161133,-0.375885,-7702,8607,-8949,-3913,-29276
1710,54540,0.0478516,-0.942676,9.74258,-5.60852,-0.280151,-44.2035,-0.0610352,0,0,0.925323,-0.0462341,0.0161133,-0.375885,-7701,8603,-8954,-3913,-29276
1716,54546,0.0334961,-0.957031,9.7665,-5.60852,-0.280151,-44.2035,-0.0610352,0.0610352,0,0.925323,-0.0462341,0.0161133,-0.375885,-7698,8598,-8950,-3913,-29276
1722,54552,0.0334961,-0.971387,9.78086,-5.60852,-0.280151,-44.198,-0.12207,-0.0610352,0.0610352,0.925323,-0.0462646,0.0161133,-0.375885,-7696,8598,-8947,-3913,-29276
1728,54558,0.0334961,-0.947461,9.75215,-5.60852,-0.280151,-44.2035,-0.0610352,0,-0.0610352,0.925323,-0.0462646,0.0161133,-0.375885,-7693,8599,-8945,-3913,-29276
1734,54564,0.0478516,-0.961816,9.7665,-5.60852,-0.280151,-44.2035,-0.0610352,-0.244141,0,0.925323,-0.0462646,0.0161133,-0.375885,-7694,8602,-8945,-3913,-29276
1740,54570,0.0526367,-0.957031,9.75215,-5.60852,-0.280151,-44.2035,0.183105,0,-0.0610352,0.925323,-0.0462646,0.0161133,-0.375885,-7694,8603,-8945,-3913,-29276
1746,54576,0.0478516,-0.947461,9.79043,-5.60852,-0.280151,-44.198,0,-0.12207,0.0610352,0.925323,-0.0462646,0.0161133,-0.375885,-7696,8608,-8944,-3913,-29276
1752,54582,0.0478516,-0.937891,9.78086,-5.60852,-0.280151,-44.2035,-0.183105,0,-0.0610352,0.925323,-0.0462646,0.0161133,-0.375885,-7699,8613,-8947,-3913,-29276
1758,54588,0.0574219,-0.957031,9.78086,-5.60852,-0.280151,-44.198,-0.244141,-0.0610352,0.183105,0.925323,-0.0462646,0.0161133,-0.375885,-7701,8616,-8945,-3913,-29276
1764,54594,0.0382813,-0.952246,9.75215,-5.60852,-0.280151,-44.2035,-0.305176,0.183105,-0.183105,0.925323,-0.0462646,0.0161133,-0.375885,-7700,8619,-8948,-3913,-29276
1770,54600,0.0382813,-0.961816,9.78564,-5.60852,-0.280151,-44.2035,0.12207,0,0,0.925323,-0.0462646,0.0161133,-0.375885,-7697,8622,-8953,-3913,-29276
1776,54606,0.0478516,-0.942676,9.74736,-5.60852,-0.280151,-44.2035,0.183105,-0.0610352,-0.244141,0.925323,-0.0462646,0.0161133,-0.375885,-7693,8623,-8953,-3913,-29276
1782,54612,0.0478516,-0.961816,9.7665,-5.60852,-0.280151,-44.2035,0,-0.0610352,-0.183105,0.925293,-0.0462646,0.0161133,-0.375916,-7691,8625,-8951,-3913,-29276
1788,54618,0.0526367,-0.957031,9.75215,-5.60852,-0.280151,-44.2035,-0.305176,0,0.12207,0.925293,-0.0462646,0.0161133,-0.375916,-7685,8624,-8944,-3913,-29276
1794,54624,0.0430664,-0.957031,9.73301,-5.61401,-0.280151,-44.2035,-0.183105,0,0.0610352,0.925293,-0.0462952,0.0161133,-0.375885,-7680,8623,-8939,-3913,-29276
1800,54630,0.0239258,-0.961816,9.77607,-5.60852,-0.280151,-44.2035,0.244141,-0.12207,0,0.925323,-0.0462952,0.0161133,-0.375885,-7672,8626,-8937,-3913,-29276
1806,54636,0.0574219,-0.971387,9.75693,-5.60852,-0.280151,-44.2035,0.12207,-0.0610352,0.183105,0.925323,-0.0462646,0.0161133,-0.375885,-7669,8628,-8938,-3913,-29276
1812,54642,0.0574219,-0.942676,9.77607,-5.60852,-0.280151,-44.2035,0.305176,0.0610352,0,0.925323,-0.0462646,0.0161133,-0.375885,-7667,8630,-8938,-3913,-29276
1818,54648,0.0334961,-0.976172,9.7665,-5.60852,-0.280151,-44.2035,-0.0610352,0,-0.244141,0.925323,-0.0462646,0.0161133,-0.375885,-7666,8629,-8939,-3913,-29276
1824,54654,0.062207,-0.947461,9.78086,-5.60852,-0.280151,-44.2035,-0.12207,0.0610352,0.0610352,0.925323,-0.0462646,0.0161133,-0.375885,-7667,8628,-8939,-3913,-29276
1830,54660,0.0143555,-0.957031,9.76172,-5.60852,-0.280151,-44.2035,0.183105,0.0610352,0.0610352,0.925323,-0.0462646,0.0161133,-0.375885,-7673,8621,-8937,-3913,-29276
1836,54666,0.0239258,-0.947461,9.76172,-5.60852,-0.280151,-44.2035,0.305176,-0.12207,0.0610352,0.925323,-0.0462341,0.0160828,-0.375885,-7678,8615,-8937,-3913,-29276
1842,54672,0.0574219,-0.966602,9.78564,-5.60303,-0.280151,-44.2035,0.12207,0.0610352,0,0.925323,-0.0462341,0.0160828,-0.375885,-7683,8610,-8937,-3913,-29276
1848,54678,0.0334961,-0.957031,9.79521,-5.60852,-0.280151,-44.198,-0.0610352,0,0.12207,0.925323,-0.0462341,0.0160828,-0.375885,-7688,8608,-8935,-3913,-29276
1854,54684,0.0382813,-0.971387,9.7665,-5.60852,-0.280151,-44.198,-0.183105,0,0.0610352,0.925323,-0.0462646,0.0161133,-0.375885,-7690,8607,-8938,-3913,-29276
1860,54690,0.0430664,-0.937891,9.72822,-5.60852,-0.280151,-44.2035,0,0.0610352,-0.244141,0.925323,-0.0462646,0.0161133,-0.375885,-7690,8611,-8940,-3913,-29276
1866,54696,0.0143555,-0.942676,9.76172,-5.60852,-0.280151,-44.2035,0,0,-0.0610352,0.925323,-0.0462646,0.0161133,-0.375885,-7691,8611,-8941,-3913,-29276
1872,54702,0.062207,-0.952246,9.77129,-5.60852,-0.280151,-44.2035,0.0610352,0,0.12207,0.925323,-0.0462646,0.0161133,-0.375885,-7693,8612,-8941,-3913,-29276
1878,54708,0.0430664,-0.942676,9.7665,-5.60852,-0.280151,-44.198,0.0610352,0,0.183105,0.925323,-0.0462646,0.0161133,-0.375885,-7693,8610,-8944,-3913,-29276
1884,54714,0.0430664,-0.942676,9.78564,-5.60852,-0.280151,-44.2035,0.0610352,0,-0.244141,0.925323,-0.0462646,0.0161133,-0.375885,-7691,8610,-8944,-3913,-29276
1890,54720,0.0526367,-0.947461,9.7665,-5.60852,-0.280151,-44.2035,-0.12207,0.0610352,0.244141,0.925293,-0.0462646,0.0161133,-0.375916,-7690,8612,-8951,-3913,-29276
1896,54726,0.0334961,-0.952246,9.74736,-5.60852,-0.280151,-44.2035,-0.0610352,-0.0610352,-0.0610352,0.925323,-0.0462646,0.0161133,-0.375885,-7690,8613,-8953,-3913,-29276
1902,54732,0.0430664,-0.933105,9.74736,-5.60852,-0.280151,-44.2035,0,0.0610352,0,0.925323,-0.0462646,0.0161133,-0.375885,-7690,8614,-8956,-3913,-29276
1908,54738,0.0574219,-0.947461,9.73301,-5.60852,-0.280151,-44.2035,0.12207,-0.0610352,0,0.925323,-0.0462646,0.0161133,-0.375885,-7690,8614,-8957,-3913,-29276
1914,54744,0.0574219,-0.92832,9.75693,-5.60852,-0.280151,-44.2035,0.12207,-0.0610352,-0.244141,0.925293,-0.0462646,0.0161133,-0.375916,-7689,8615,-8962,-3913,-29276
1920,54750,0.0574219,-0.971387,9.75693,-5.60852,-0.280151,-44.2035,-0.12207,0,0,0.925323,-0.0462646,0.0161133,-0.375916,-7692,8617,-8975,-3913,-29276
1926,54756,0.0478516,-0.966602,9.7665,-5.60852,-0.280151,-44.2035,0.0610352,0,0,0.925323,-0.0462646,0.0161133,-0.375916,-7694,8617,-8981,-3913,-29276
1932,54762,0.0430664,-0.937891,9.7665,-5.60852,-0.280151,-44.2035,0,0.183105,0,0.925323,-0.0462341,0.0161133,-0.375916,-7697,8614,-8982,-3913,-29276
1938,54768,0.0334961,-0.937891,9.75693,-5.60852,-0.280151,-44.2035,-0.183105,-0.12207,0.244141,0.925323,-0.0462646,0.0161133,-0.375885,-7699,8614,-8981,-3913,-29276
1944,54774,0.0430664,-0.952246,9.74736,-5.60852,-0.280151,-44.2035,0.0610352,0,-0.183105,0.925323,-0.0462646,0.0161133,-0.375885,-7700,8614,-8979,-3913,-29276
1950,54780,0.0287109,-0.966602,9.72822,-5.60852,-0.280151,-44.2035,0.183105,-0.0610352,-0.0610352,0.925323,-0.0462341,0.0161133,-0.375916,-7700,8613,-8977,-3913,-29276
1956,54786,0.0478516,-0.942676,9.75693,-5.60303,-0.280151,-44.2035,0.183105,0,0.0610352,0.925323,-0.0462341,0.0161133,-0.375916,-7703,8615,-8977,-3913,-29276
1962,54792,0.0478516,-0.957031,9.76172,-5.60303,-0.280151,-44.2035,0.183105,0.0610352,0,0.925323,-0.0462341,0.0161133,-0.375916,-7703,8614,-8975,-3913,-29276
1968,54798,0.0382813,-0.933105,9.78086,-5.60303,-0.280151,-44.2035,0.12207,-0.0610352,-0.0610352,0.925323,-0.0462341,0.0161133,-0.375916,-7703,8614,-8974,-3913,-29276
1974,54804,0.0334961,-0.942676,9.77607,-5.60303,-0.280151,-44.2035,-0.0610352,0,0,0.925323,-0.0462341,0.0161133,-0.375916,-7702,8615,-8969,-3913,-29276
1980,54810,0.0382813,-0.966602,9.77607,-5.60303,-0.280151,-44.2035,0,0.0610352,0.0610352,0.925323,-0.0462341,0.0161133,-0.375916,-7700,8617,-8958,-3913,-29276
1986,54816,0.0478516,-0.937891,9.7665,-5.60303,-0.280151,-44.2035,-0.0610352,0.0610352,0.183105,0.925323,-0.0462036,0.0161133,-0.375885,-7700,8623,-8955,-3913,-29276
1992,54822,0.0574219,-0.942676,9.76172,-5.60303,-0.280151,-44.2035,-0.244141,0,0.12207,0.925323,-0.0462341,0.0161133,-0.375885,-7705,8627,-8953,-3913,-29276
1998,54828,0.062207,-0.966602,9.74258,-5.60852,-0.280151,-44.198,-0.305176,0,0.183105,0.925323,-0.0462341,0.0161133,-0.375885,-7707,8628,-8955,-3913,-29276
2004,54834,0.0143555,-0.966602,9.74736,-5.60852,-0.280151,-44.198,-0.244141,0,0,0.925323,-0.0462341,0.0161133,-0.375885,-7710,8627,-8956,-3913,-29276
2010,54840,0.0430664,-0.942676,9.70908,-5.60852,-0.280151,-44.198,0,0.0610352,-0.0610352,0.925323,-0.0462341,0.0161133,-0.375885,-7718,8623,-8961,-3913,-29276
2016,54846,0.0382813,-0.976172,9.72344,-5.60852,-0.280151,-44.198,0,-0.0610352,0,0.925323,-0.0462341,0.0161133,-0.375885,-7717,8622,-8961,-3913,-29276
2022,54852,0.0430664,-0.952246,9.75215,-5.60852,-0.280151,-44.198,0.0610352,0.0610352,0,0.925323,-0.0462341,0.0161133,-0.375885,-7719,8621,-8962,-3913,-29276
2028,54858,0.0430664,-0.971387,9.74258,-5.60852,-0.280151,-44.2035,0.12207,0,-0.0610352,0.925323,-0.0462341,0.0161133,-0.375885,-7718,8619,-8962,-3913,-29276
2034,54864,0.0334961,-0.961816,9.77607,-5.60303,-0.280151,-44.2035,0.0610352,-0.0610352,-0.0610352,0.925323,-0.0462341,0.0161133,-0.375885,-7718,8617,-8960,-3913,-29276
2040,54870,0.0430664,-0.952246,9.7665,-5.60303,-0.280151,-44.198,0.0610352,-0.0610352,0.12207,0.925323,-0.0462341,0.0161133,-0.375885,-7721,8608,-8956,-3913,-29276
2046,54876,0.0334961,-0.942676,9.76172,-5.60303,-0.280151,-44.198,0,0,0,0.925323,-0.0462341,0.0161133,-0.375885,-7721,8607,-8951,-3913,-29276
2052,54882,0.0574219,-0.961816,9.75693,-5.60303,-0.280151,-44.198,0.12207,0,0.183105,0.925323,-0.0462341,0.0161133,-0.375885,-7720,8606,-8951,-3913,-29276
2058,54888,0.0430664,-0.952246,9.74736,-5.60303,-0.280151,-44.198,0.183105,0.0610352,-0.183105,0.925323,-0.0462036,0.0161133,-0.375885,-7716,8606,-8954,-3913,-29276
2064,54894,0.0287109,-0.942676,9.7665,-5.60303,-0.280151,-44.2035,0,0,-0.12207,0.925323,-0.0462036,0.0161133,-0.375885,-7711,8605,-8961,-3913,-29276
2070,54900,0.0526367,-0.966602,9.74736,-5.60303,-0.280151,-44.2035,-0.0610352,0,0.0610352,0.925323,-0.0462341,0.0161133,-0.375885,-7703,8605,-8976,-3913,-29276
2076,54906,0.0526367,-0.957031,9.75215,-5.60303,-0.280151,-44.2035,0,0,0.12207,0.925323,-0.0462341,0.0161133,-0.375885,-7700,8606,-8982,-3913,-29276
2082,54912,0.0526367,-0.952246,9.78086,-5.60303,-0.280151,-44.2035,-0.12207,0,-0.244141,0.925323,-0.0462341,0.0161133,-0.375916,-7699,8609,-8984,-3913,-29276
2088,54918,0.0287109,-0.957031,9.7665,-5.60303,-0.280151,-44.2035,0,-0.183105,-0.0610352,0.925323,-0.0462341,0.0161133,-0.375916,-7698,8612,-8986,-3913,-29276
2094,54924,0.062207,-0.966602,9.74258,-5.60303,-0.280151,-44.2035,-0.0610352,0.0610352,0.0610352,0.925323,-0.0462341,0.0161133,-0.375916,-7696,8612,-8985,-3913,-29276
2100,54930,0.062207,-0.952246,9.72822,-5.60303,-0.280151,-44.2035,-0.0610352,0,0.305176,0.925323,-0.0462341,0.0161133,-0.375885,-7694,8609,-8970,-3913,-29276
2106,54936,0.0478516,-0.961816,9.77129,-5.60303,-0.280151,-44.2035,0,0,0.12207,0.925323,-0.0462341,0.0161133,-0.375885,-7695,8606,-8958,-3913,-29276
2112,54942,0.0382813,-0.957031,9.72822,-5.60303,-0.280151,-44.2035,0.183105,0,-0.244141,0.925323,-0.0462341,0.0161133,-0.375885,-7693,8604,-8947,-3913,-29276
2118,54948,0.0382813,-0.957031,9.74736,-5.60303,-0.280151,-44.2035,0,-0.12207,0.183105,0.925323,-0.0462341,0.0161133,-0.375885,-7691,8605,-8934,-3913,-29276
2124,54954,0.0430664,-0.957031,9.77129,-5.60303,-0.280151,-44.2035,0,0,-0.0610352,0.925323,-0.0462341,0.0161133,-0.375885,-7692,8608,-8924,-3913,-29276
2130,54960,0.0478516,-0.957031,9.76172,-5.60303,-0.280151,-44.198,0.0610352,0.0610352,0.0610352,0.925323,-0.0462341,0.0161133,-0.375885,-7695,8613,-8907,-3913,-29276
2136,54966,0.0430664,-0.952246,9.78086,-5.60303,-0.280151,-44.198,0,-0.0610352,0.12207,0.925323,-0.0462341,0.0161133,-0.375885,-7698,8617,-8903,-3913,-29276
2142,54972,0.0526367,-0.942676,9.77129,-5.60303,-0.280151,-44.198,0,0,0.0610352,0.925323,-0.0462341,0.0161133,-0.375885,-7699,8620,-8900,-3913,-29276
2148,54978,0.0574219,-0.966602,9.77607,-5.60303,-0.280151,-44.198,0,-0.0610352,0.0610352,0.925323,-0.0462341,0.0161133,-0.375885,-7700,8623,-8901,-3913,-29276
2154,54984,0.0574219,-0.947461,9.76172,-5.60303,-0.280151,-44.198,-0.244141,-0.12207,0.0610352,0.925323,-0.0462341,0.0161133,-0.375885,-7699,8624,-8902,-3913,-29276
2160,54990,0.0526367,-0.976172,9.74258,-5.60852,-0.280151,-44.198,0,0.0610352,0,0.925323,-0.0462341,0.0161133,-0.375885,-7696,8623,-8910,-3913,-29276
2166,54996,0.0430664,-0.961816,9.75215,-5.60852,-0.280151,-44.198,0,0,0.0610352,0.925323,-0.0462341,0.0161133,-0.375854,-7695,8617,-8912,-3913,-29276
2172,55002,0.0574219,-0.966602,9.7665,-5.60303,-0.280151,-44.198,0.12207,0.12207,-0.0610352,0.925323,-0.0462341,0.0161133,-0.375885,-7696,8614,-8914,-3913,-29276
2178,55008,0.0334961,-0.952246,9.74258,-5.60303,-0.280151,-44.198,-0.0610352,0,0,0.925323,-0.0462341,0.0161133,-0.375885,-7697,8612,-8920,-3913,-29276
2184,55014,0.0478516,-0.947461,9.73301,-5.60303,-0.280151,-44.198,0,0,0,0.925323,-0.0462341,0.0161133,-0.375885,-7698,8612,-8920,-3913,-29276
2190,55020,0.0574219,-0.980957,9.76172,-5.60852,-0.280151,-44.198,-0.0610352,0.0610352,0.12207,0.925323,-0.0462341,0.0161133,-0.375854,-7703,8616,-8923,-3913,-29276
2196,55026,0.0334961,-0.971387,9.74736,-5.60852,-0.280151,-44.198,0,0.0610352,0,0.925323,-0.0462341,0.0161438,-0.375854,-7702,8620,-8925,-3913,-29276
2202,55032,0.0574219,-0.961816,9.7665,-5.60852,-0.280151,-44.198,0.183105,0.0610352,0,0.925323,-0.0462341,0.0161133,-0.375885,-7702,8625,-8926,-3913,-29276
2208,55038,0.0430664,-0.957031,9.74258,-5.60303,-0.274658,-44.198,0.244141,0.0610352,-0.0610352,0.925323,-0.0462341,0.0161133,-0.375885,-7701,8627,-8925,-3913,-29276
2214,55044,0.0334961,-0.966602,9.75215,-5.60303,-0.274658,-44.198,-0.12207,-0.0610352,0.12207,0.925323,-0.0462341,0.0161133,-0.375885,-7701,8626,-8925,-3913,-29276
2220,55050,0.0478516,-0.952246,9.74258,-5.60852,-0.274658,-44.198,-0.0610352,0.0610352,0,0.925323,-0.0462341,0.0161438,-0.375885,-7700,8621,-8928,-3913,-29276
2226,55056,0.0430664,-0.947461,9.75693,-5.60852,-0.274658,-44.198,0,0,0.244141,0.925323,-0.0462341,0.0161438,-0.375854,-7700,8620,-8933,-3913,-29276
2232,55062,0.0478516,-0.947461,9.77129,-5.60303,-0.274658,-44.198,0.183105,0.0610352,-0.244141,0.925323,-0.0462341,0.0161438,-0.375885,-7699,8619,-8936,-3913,-29276
2238,55068,0.0478516,-0.966602,9.74736,-5.60303,-0.274658,-44.198,0.305176,0,0.0610352,0.925323,-0.0462036,0.0161133,-0.375854,-7699,8619,-8935,-3913,-29276
2244,55074,0.0191406,-0.947461,9.78086,-5.60303,-0.274658,-44.198,-0.0610352,0,-0.183105,0.925323,-0.0462036,0.0161133,-0.375854,-7700,8618,-8932,-3913,-29276
2250,55080,0.0239258,-0.976172,9.74736,-5.60303,-0.274658,-44.198,-0.366211,0,-0.12207,0.925323,-0.0462341,0.0161438,-0.375885,-7695,8618,-8920,-3913,-29276
2256,55086,0.0334961,-0.971387,9.77607,-5.60303,-0.274658,-44.198,-0.0610352,0.0610352,0,0.925323,-0.0462341,0.0161438,-0.375885,-7692,8619,-8918,-3913,-29276
2262,55092,0.0334961,-0.985742,9.74736,-5.60303,-0.274658,-44.198,0.12207,0.0610352,0.0610352,0.925323,-0.0462341,0.0161438,-0.375885,-7689,8619,-8917,-3913,-29276
