TimeSinceCollection,Timestamp,AccX,AccY,AccZ,AngleRoll,AnglePitch,AngleYaw,AngularVelX,AngularVelY,             AngularVelZ,Q1,Q2,Q3,Q4,MagX,MagY,MagZ,Height,Airpressure
0,68474,-1.44033,-9.66123,0.6125,-88.3136,8.54736,83.8806,-0.671387,-0.0610352,0.610352,-0.497406,0.552429,0.424561,-0.516754,7206,4151,541,6698,-30549
6,68480,-1.48818,-9.67559,0.6125,-88.3136,8.54736,83.8806,-0.671387,0.12207,0.732422,-0.497406,0.55246,0.4245,-0.516785,7205,4151,539,6698,-30549
12,68486,-1.46904,-9.67559,0.564648,-88.3081,8.55835,83.8751,-0.671387,-0.0610352,0.549316,-0.497406,0.55246,0.424438,-0.516785,7203,4149,539,6698,-30549
18,68492,-1.47383,-9.69473,0.574219,-88.3081,8.55835,83.8751,-0.732422,-0.183105,0.488281,-0.497437,0.55249,0.424408,-0.516785,7201,4148,540,6698,-30549
24,68498,-1.44033,-9.68037,0.579004,-88.3026,8.56384,83.8696,-0.610352,-0.183105,0.610352,-0.497437,0.55249,0.424377,-0.516815,7199,4147,542,6698,-30549
30,68504,-1.44512,-9.68994,0.60293,-88.3026,8.56384,83.8696,-0.488281,-0.305176,0.732422,-0.497437,0.55249,0.424347,-0.516815,7198,4147,542,6698,-30549
36,68510,-1.44033,-9.66123,0.6125,-88.2971,8.56934,83.8696,-0.244141,-0.244141,0.854492,-0.497437,0.55249,0.424286,-0.516876,7199,4149,540,6698,-30549
42,68516,-1.45469,-9.65166,0.583789,-88.2861,8.58032,83.8641,-0.366211,-0.12207,0.915527,-0.497467,0.552521,0.424225,-0.516907,7199,4153,536,6698,-30549
48,68522,-1.45947,-9.68994,0.617285,-88.2861,8.58032,83.8641,-0.183105,0.183105,0.976563,-0.497467,0.552521,0.424164,-0.516937,7197,4155,535,6698,-30549
54,68528,-1.44033,-9.68516,0.636426,-88.2806,8.58582,83.8586,-0.183105,0.183105,1.15967,-0.497467,0.552521,0.424103,-0.516937,7195,4157,536,6698,-30549
60,68534,-1.45947,-9.68037,0.6125,-88.2751,8.5968,83.8586,-0.183105,0,1.15967,-0.497498,0.552551,0.424042,-0.516968,7194,4159,537,6698,-30549
66,68540,-1.46904,-9.66123,0.607715,-88.2697,8.60229,83.8531,-0.366211,0.183105,1.28174,-0.497498,0.552582,0.42392,-0.517029,7195,4160,537,6698,-30549
72,68546,-1.46426,-9.66123,0.62207,-88.2642,8.61328,83.8477,-0.12207,0.12207,1.34277,-0.497528,0.552582,0.423859,-0.517059,7195,4162,535,6698,-30549
78,68552,-1.47383,-9.63731,0.62207,-88.2587,8.61877,83.8422,-0.366211,0.12207,1.34277,-0.497528,0.552612,0.423798,-0.51709,7196,4163,535,6698,-30549
84,68558,-1.47383,-9.64688,0.636426,-88.2532,8.62427,83.8422,-0.549316,0.12207,1.34277,-0.497528,0.552612,0.423737,-0.51712,7197,4165,534,6698,-30549
90,68564,-1.42119,-9.61338,0.665137,-88.2532,8.63525,83.8367,-0.732422,0.12207,1.40381,-0.497528,0.552643,0.423676,-0.517151,7197,4166,534,6698,-30549
96,68570,-1.49297,-9.66123,0.631641,-88.2532,8.64075,83.8367,-0.793457,0.0610352,1.46484,-0.497498,0.552704,0.423553,-0.517181,7198,4166,534,6698,-30549
102,68576,-1.48818,-9.67559,0.636426,-88.2477,8.65173,83.8312,-0.732422,0.183105,1.52588,-0.497498,0.552734,0.423523,-0.517212,7198,4166,536,6698,-30549
108,68582,-1.4834,-9.66123,0.6125,-88.2477,8.66272,83.8257,-0.976563,0.183105,1.34277,-0.497467,0.552765,0.423462,-0.517242,7198,4165,538,6698,-30549
114,68588,-1.51211,-9.68037,0.60293,-88.2477,8.66821,83.8257,-0.915527,0.0610352,1.34277,-0.497467,0.552795,0.423401,-0.517242,7198,4163,541,6698,-30549
120,68594,-1.48818,-9.70908,0.579004,-88.2477,8.67371,83.8202,-0.915527,0,1.46484,-0.497467,0.552826,0.42337,-0.517273,7198,4162,544,6698,-30549
126,68600,-1.53125,-9.70908,0.564648,-88.2422,8.6792,83.8202,-0.671387,0.0610352,1.2207,-0.497437,0.552887,0.423248,-0.517303,7198,4162,545,6698,-30549
132,68606,-1.52646,-9.69951,0.559863,-88.2367,8.69019,83.8147,-0.549316,0.0610352,1.2207,-0.497437,0.552887,0.423187,-0.517334,7194,4158,549,6698,-30549
138,68612,-1.53125,-9.69951,0.559863,-88.2367,8.69568,83.8147,-0.427246,-0.0610352,1.0376,-0.497437,0.552917,0.423157,-0.517365,7193,4158,549,6698,-30549
144,68618,-1.45947,-9.68516,0.607715,-88.2312,8.70117,83.8092,-0.183105,-0.305176,1.09863,-0.497437,0.552917,0.423096,-0.517395,7191,4158,548,6698,-30549
150,68624,-1.44033,-9.68037,0.660352,-88.2257,8.70667,83.8092,-0.183105,-0.244141,1.09863,-0.497437,0.552948,0.423035,-0.517426,7189,4158,546,6698,-30549
156,68630,-1.48818,-9.6708,0.636426,-88.2202,8.71216,83.8092,-0.183105,0.0610352,1.2207,-0.497467,0.552948,0.422913,-0.517487,7189,4158,542,6698,-30549
162,68636,-1.47861,-9.68037,0.6125,-88.2092,8.72314,83.8037,0.0610352,-0.0610352,1.34277,-0.497467,0.552979,0.422852,-0.517517,7190,4156,532,6698,-30549
168,68642,-1.4499,-9.62295,0.631641,-88.2037,8.73413,83.7982,-0.12207,0.12207,1.46484,-0.497467,0.552979,0.422791,-0.517548,7190,4155,531,6698,-30549
174,68648,-1.44512,-9.61338,0.712988,-88.2037,8.73962,83.7982,-0.366211,0.183105,1.40381,-0.497467,0.552979,0.422729,-0.517578,7189,4154,529,6698,-30549
180,68654,-1.4499,-9.64209,0.674707,-88.1982,8.74512,83.7927,-0.488281,0.427246,1.70898,-0.497498,0.553009,0.422668,-0.517609,7187,4153,527,6698,-30549
186,68660,-1.4834,-9.6708,0.607715,-88.1982,8.7561,83.7872,-0.610352,0.488281,1.52588,-0.497467,0.55307,0.422516,-0.51767,7187,4152,527,6698,-30549
192,68666,-1.51211,-9.65166,0.593359,-88.1927,8.77258,83.7762,-0.488281,0.366211,1.58691,-0.497467,0.553131,0.422424,-0.5177,7186,4152,532,6698,-30549
198,68672,-1.51689,-9.6708,0.598145,-88.1873,8.77808,83.7762,-0.427246,0.427246,1.64795,-0.497467,0.553162,0.422363,-0.5177,7185,4153,537,6698,-30549
204,68678,-1.49297,-9.69473,0.588574,-88.1873,8.78357,83.7708,-0.183105,0.488281,1.46484,-0.497467,0.553192,0.422302,-0.517731,7183,4154,541,6698,-30549
210,68684,-1.54561,-9.68994,0.559863,-88.1818,8.79456,83.7653,-0.12207,0.732422,1.28174,-0.497498,0.553223,0.422211,-0.517761,7182,4153,541,6698,-30549
216,68690,-1.54561,-9.68037,0.60293,-88.1763,8.80005,83.7598,-0.12207,0.549316,1.15967,-0.497528,0.553253,0.422058,-0.517792,7180,4154,540,6698,-30549
222,68696,-1.45947,-9.6708,0.607715,-88.1653,8.80554,83.7543,0.183105,0,1.09863,-0.497528,0.553253,0.421997,-0.517822,7181,4154,534,6698,-30549
228,68702,-1.4834,-9.66123,0.636426,-88.1598,8.81104,83.7543,0.244141,0.12207,1.15967,-0.497559,0.553253,0.421936,-0.517853,7183,4155,532,6698,-30549
234,68708,-1.47383,-9.64688,0.626855,-88.1488,8.81653,83.7488,0.244141,0.305176,1.09863,-0.497589,0.553253,0.421875,-0.517914,7185,4156,532,6698,-30549
240,68714,-1.53125,-9.64688,0.641211,-88.1433,8.82202,83.7433,0.488281,0.305176,1.09863,-0.497589,0.553284,0.421783,-0.517944,7186,4158,534,6698,-30549
246,68720,-1.49297,-9.63731,0.636426,-88.1378,8.82751,83.7433,0.244141,0.244141,1.0376,-0.49765,0.553284,0.421631,-0.518005,7187,4160,538,6698,-30549
252,68726,-1.4834,-9.65645,0.669922,-88.1268,8.8385,83.7323,-0.12207,0.183105,0.854492,-0.497681,0.553284,0.4216,-0.518005,7187,4164,541,6698,-30549
258,68732,-1.45947,-9.62295,0.645996,-88.1213,8.8385,83.7323,-0.244141,0.244141,0.854492,-0.497711,0.553284,0.421539,-0.518036,7187,4165,544,6698,-30549
264,68738,-1.48818,-9.63731,0.655566,-88.1213,8.84399,83.7268,-0.183105,0.488281,0.976563,-0.497711,0.553314,0.421478,-0.518036,7186,4166,543,6698,-30549
270,68744,-1.50254,-9.6708,0.645996,-88.1158,8.84949,83.7213,-0.366211,0.244141,1.0376,-0.497742,0.553314,0.421417,-0.518066,7187,4165,542,6698,-30549
276,68750,-1.49297,-9.68037,0.62207,-88.1104,8.85498,83.7158,-0.488281,0.305176,1.0376,-0.497772,0.553345,0.421295,-0.518097,7185,4164,541,6698,-30549
282,68756,-1.48818,-9.66123,0.660352,-88.1049,8.86597,83.7103,-0.244141,0.305176,1.09863,-0.497772,0.553375,0.421234,-0.518097,7185,4161,535,6698,-30549
288,68762,-1.50732,-9.66123,0.626855,-88.0994,8.87146,83.7048,-0.183105,0.549316,0.976563,-0.497772,0.553406,0.421173,-0.518127,7185,4161,533,6698,-30549
294,68768,-1.51211,-9.68037,0.6125,-88.0994,8.87695,83.6993,-0.183105,0.427246,0.976563,-0.497803,0.553406,0.421112,-0.518158,7185,4161,534,6698,-30549
300,68774,-1.52646,-9.6708,0.60293,-88.0939,8.87695,83.6993,-0.183105,0.305176,0.976563,-0.497833,0.553436,0.421051,-0.518158,7184,4161,535,6698,-30549
306,68780,-1.50254,-9.66123,0.645996,-88.0884,8.88245,83.6938,-0.0610352,0.366211,0.915527,-0.497864,0.553436,0.420929,-0.518188,7184,4161,535,6698,-30549
312,68786,-1.51689,-9.65645,0.60293,-88.0774,8.89343,83.6829,0.0610352,0.427246,0.671387,-0.497894,0.553467,0.420868,-0.518219,7184,4161,535,6698,-30549
318,68792,-1.52646,-9.66602,0.62207,-88.0719,8.89343,83.6829,0,0.305176,0.854492,-0.497925,0.553467,0.420807,-0.518219,7184,4162,533,6698,-30549
324,68798,-1.52646,-9.67559,0.617285,-88.0664,8.89893,83.6774,-0.12207,0.305176,0.732422,-0.497955,0.553467,0.420746,-0.51825,7183,4162,531,6698,-30549
330,68804,-1.51211,-9.64688,0.665137,-88.0609,8.90442,83.6774,-0.0610352,0.0610352,0.610352,-0.497955,0.553467,0.420685,-0.51825,7185,4162,527,6698,-30549
336,68810,-1.50732,-9.64688,0.62207,-88.0554,8.90442,83.6719,0,0.12207,0.488281,-0.498016,0.553467,0.420593,-0.518311,7186,4162,528,6698,-30549
342,68816,-1.52646,-9.64209,0.631641,-88.0499,8.90991,83.6664,-0.305176,-0.0610352,0.549316,-0.498047,0.553497,0.420532,-0.518311,7191,4163,530,6698,-30549
348,68822,-1.50732,-9.67559,0.641211,-88.0499,8.90991,83.6664,-0.305176,-0.0610352,0.427246,-0.498047,0.553467,0.420502,-0.518311,7190,4164,532,6698,-30549
354,68828,-1.55518,-9.72344,0.631641,-88.0444,8.91541,83.6664,-0.183105,-0.427246,0.610352,-0.498077,0.553467,0.420471,-0.518341,7188,4164,530,6698,-30549
360,68834,-1.55996,-9.68037,0.684277,-88.0334,8.91541,83.6719,0.427246,-1.28174,0.732422,-0.498077,0.553467,0.420441,-0.518372,7185,4163,529,6698,-30549
366,68840,-1.53125,-9.68037,0.679492,-88.028,8.9209,83.6664,-0.244141,0.0610352,0.671387,-0.498108,0.553436,0.420349,-0.518433,7182,4161,528,6698,-30549
372,68846,-1.56475,-9.68037,0.655566,-88.0225,8.92639,83.6609,-0.305176,-0.183105,0.488281,-0.498138,0.553467,0.420319,-0.518433,7179,4158,526,6698,-30549
378,68852,-1.4834,-9.68037,0.636426,-88.0225,8.92639,83.6609,-0.305176,-0.732422,0.976563,-0.498138,0.553436,0.420288,-0.518463,7179,4156,526,6698,-30549
384,68858,-1.39727,-9.63252,0.636426,-88.017,8.93188,83.6609,-0.488281,0.305176,0.915527,-0.498138,0.553436,0.420227,-0.518494,7181,4157,525,6698,-30549
390,68864,-1.52646,-9.6708,0.645996,-88.017,8.93738,83.6499,-0.549316,0.854492,0.915527,-0.498138,0.553467,0.420197,-0.518524,7183,4158,526,6698,-30549
396,68870,-1.50732,-9.68994,0.631641,-88.0115,8.94287,83.6499,-0.183105,0.12207,0.854492,-0.498169,0.553497,0.420074,-0.518524,7185,4160,527,6698,-30549
402,68876,-1.45469,-9.66602,0.645996,-88.0005,8.94836,83.6499,-0.12207,0.183105,0.671387,-0.498199,0.553467,0.420044,-0.518555,7186,4166,523,6698,-30549
408,68882,-1.52168,-9.67559,0.665137,-87.995,8.95386,83.6444,-0.244141,0.610352,0.976563,-0.49823,0.553467,0.419983,-0.518585,7186,4166,520,6698,-30549
414,68888,-1.53604,-9.66602,0.655566,-87.9895,8.95386,83.6389,-0.183105,-0.12207,0.671387,-0.49823,0.553497,0.419922,-0.518585,7186,4166,519,6698,-30549
420,68894,-1.49297,-9.65645,0.693848,-87.984,8.95935,83.6389,0.0610352,-0.244141,0.854492,-0.49826,0.553497,0.419891,-0.518616,7186,4166,522,6698,-30549
426,68900,-1.55039,-9.68037,0.669922,-87.9785,8.95935,83.6389,0,0.0610352,0.671387,-0.498291,0.553467,0.419769,-0.518677,7187,4165,525,6698,-30549
432,68906,-1.55518,-9.68037,0.665137,-87.973,8.96484,83.6334,-0.244141,0,0.427246,-0.498322,0.553497,0.419739,-0.518677,7186,4164,531,6698,-30549
438,68912,-1.50254,-9.66123,0.689063,-87.9675,8.97034,83.6334,-0.244141,0,0.366211,-0.498322,0.553497,0.419708,-0.518707,7185,4164,528,6698,-30549
444,68918,-1.46904,-9.63731,0.679492,-87.962,8.97034,83.6279,-0.183105,0,0.610352,-0.498352,0.553467,0.419647,-0.518707,7184,4163,524,6698,-30549
450,68924,-1.49775,-9.63252,0.684277,-87.962,8.97034,83.6279,-0.549316,0.305176,0.366211,-0.498383,0.553467,0.419617,-0.518738,7185,4164,520,6698,-30549
456,68930,-1.54082,-9.64688,0.669922,-87.9565,8.97583,83.6224,-0.549316,0.427246,0.610352,-0.498413,0.553497,0.419525,-0.518738,7187,4164,518,6698,-30549
462,68936,-1.49775,-9.67559,0.679492,-87.9565,8.98132,83.6169,-0.671387,-0.305176,0.488281,-0.498413,0.553497,0.419495,-0.518738,7187,4165,520,6698,-30549
468,68942,-1.46904,-9.68037,0.650781,-87.951,8.98132,83.6169,-0.610352,0,0.488281,-0.498444,0.553497,0.419495,-0.518768,7187,4166,517,6698,-30549
474,68948,-1.48818,-9.67559,0.665137,-87.951,8.98132,83.6169,-0.549316,0.0610352,0.549316,-0.498444,0.553497,0.419464,-0.518768,7187,4167,514,6698,-30549
480,68954,-1.50254,-9.6708,0.655566,-87.9456,8.98682,83.6115,-0.549316,0.12207,0.854492,-0.498444,0.553497,0.419434,-0.518768,7188,4168,507,6698,-30549
486,68960,-1.46426,-9.66123,0.645996,-87.9401,8.99231,83.6115,-0.305176,0,0.732422,-0.498474,0.553528,0.419342,-0.518829,7189,4169,501,6698,-30549
492,68966,-1.49775,-9.69473,0.655566,-87.9346,8.9978,83.606,-0.305176,0.183105,0.976563,-0.498474,0.553528,0.419281,-0.518829,7193,4169,491,6698,-30549
498,68972,-1.49297,-9.66602,0.665137,-87.9291,9.0033,83.606,-0.12207,0.366211,0.915527,-0.498505,0.553528,0.41925,-0.51886,7193,4167,489,6698,-30549
504,68978,-1.52168,-9.68516,0.669922,-87.9236,9.00879,83.6005,-0.183105,0.305176,1.0376,-0.498505,0.553528,0.419189,-0.51889,7191,4166,487,6698,-30549
510,68984,-1.50254,-9.66602,0.665137,-87.9236,9.00879,83.6005,-0.183105,0.305176,0.915527,-0.498535,0.553558,0.419128,-0.518921,7189,4165,487,6698,-30549
516,68990,-1.49775,-9.65645,0.689063,-87.9181,9.01428,83.595,0,0.183105,1.0376,-0.498535,0.553558,0.419037,-0.518951,7188,4165,487,6698,-30549
522,68996,-1.4834,-9.63731,0.693848,-87.9071,9.02527,83.595,0,0.305176,1.28174,-0.498566,0.553558,0.418976,-0.518982,7185,4165,492,6698,-30549
528,69002,-1.49775,-9.58945,0.746484,-87.9016,9.03076,83.5895,-0.12207,0.12207,1.2207,-0.498566,0.553558,0.418915,-0.519012,7182,4165,496,6698,-30549
534,69008,-1.46426,-9.62773,0.746484,-87.8961,9.03625,83.5895,-0.427246,0.0610352,1.46484,-0.498566,0.553589,0.418854,-0.519043,7180,4164,498,6698,-30549
540,69014,-1.4834,-9.64688,0.689063,-87.8961,9.04724,83.5895,-0.549316,0.244141,1.58691,-0.498566,0.553589,0.418793,-0.519104,7179,4163,498,6698,-30549
546,69020,-1.50732,-9.65645,0.693848,-87.8906,9.05273,83.584,-0.549316,0.183105,1.46484,-0.498566,0.55365,0.418671,-0.519135,7176,4162,502,6698,-30549
552,69026,-1.50732,-9.63731,0.703418,-87.8851,9.06921,83.584,-0.610352,-0.0610352,1.64795,-0.498566,0.55365,0.41861,-0.519196,7175,4161,511,6698,-30549
558,69032,-1.52646,-9.61338,0.679492,-87.8851,9.07471,83.5785,-0.793457,0.0610352,1.64795,-0.498535,0.55368,0.418549,-0.519226,7173,4161,518,6698,-30549
564,69038,-1.48818,-9.68037,0.698633,-87.8796,9.0802,83.5785,-0.854492,-0.183105,1.64795,-0.498535,0.553711,0.418518,-0.519257,7172,4163,521,6698,-30549
570,69044,-1.45947,-9.68037,0.712988,-87.8796,9.09119,83.5785,-0.610352,0.0610352,1.95313,-0.498505,0.553741,0.418457,-0.519287,7171,4163,525,6698,-30549
576,69050,-1.51689,-9.74736,0.689063,-87.8796,9.10217,83.573,-0.915527,0.549316,2.01416,-0.498474,0.553802,0.418304,-0.519348,7169,4165,527,6698,-30549
582,69056,-1.51689,-9.67559,0.693848,-87.8741,9.11865,83.5675,-0.366211,0.0610352,2.31934,-0.498444,0.553833,0.418243,-0.519379,7171,4169,530,6698,-30549
588,69062,-1.47861,-9.63731,0.717773,-87.8741,9.12964,83.562,-0.732422,0.366211,2.2583,-0.498444,0.553864,0.418182,-0.519409,7171,4171,530,6698,-30549
594,69068,-1.50254,-9.64209,0.732129,-87.8687,9.14063,83.5565,-0.854492,0.732422,2.44141,-0.498413,0.553925,0.418091,-0.51944,7171,4172,528,6698,-30549
600,69074,-1.49775,-9.68037,0.689063,-87.8687,9.15161,83.5565,-0.793457,0.427246,2.68555,-0.498383,0.553986,0.417999,-0.51947,7171,4173,525,6698,-30549
606,69080,-1.50254,-9.63731,0.679492,-87.8687,9.16809,83.551,-0.793457,0.671387,2.99072,-0.498322,0.554108,0.417816,-0.519562,7170,4173,520,6698,-30549
612,69086,-1.51689,-9.67559,0.717773,-87.8687,9.19556,83.54,-1.15967,0.854492,3.479,-0.498291,0.554199,0.417725,-0.519592,7168,4173,510,6698,-30549
618,69092,-1.53604,-9.66602,0.679492,-87.8741,9.21204,83.5345,-1.34277,0.854492,3.17383,-0.49823,0.55426,0.417633,-0.519623,7167,4174,508,6698,-30549
624,69098,-1.53125,-9.65645,0.732129,-87.8741,9.22852,83.5236,-1.64795,0.976563,3.23486,-0.498199,0.554352,0.417542,-0.519653,7166,4174,508,6698,-30549
630,69104,-1.55996,-9.62295,0.674707,-87.8796,9.245,83.5181,-1.64795,0.854492,3.60107,-0.498138,0.554443,0.41745,-0.519684,7165,4176,507,6698,-30549
636,69110,-1.52646,-9.51768,0.799121,-87.8796,9.26147,83.5181,-1.95313,0.244141,3.84521,-0.497986,0.554626,0.417267,-0.519775,7164,4177,508,6698,-30549
642,69116,-1.55518,-9.64209,0.727344,-87.8906,9.30542,83.5345,-2.50244,-3.23486,5.31006,-0.497864,0.554718,0.417175,-0.519836,7162,4178,500,6698,-30549
648,69122,-1.53125,-9.73779,0.689063,-87.8906,9.33289,83.562,-1.95313,-5.31006,6.16455,-0.497681,0.554779,0.417145,-0.519989,7162,4179,497,6698,-30549
654,69128,-1.13887,-9.75215,0.669922,-87.8851,9.36584,83.5895,-1.0376,-5.18799,6.34766,-0.497437,0.554779,0.417145,-0.520233,7162,4183,492,6698,-30549
660,69134,-1.22021,-9.5416,0.76084,-87.8796,9.3988,83.595,-1.15967,-1.34277,7.44629,-0.497223,0.554779,0.417084,-0.520477,7161,4185,488,6698,-30549
666,69140,-1.88057,-9.56553,0.497656,-87.8796,9.43726,83.595,-1.2207,-0.244141,7.62939,-0.496887,0.555023,0.416748,-0.520813,7158,4186,486,6698,-30549
672,69146,-1.74658,-9.63252,0.689063,-87.8796,9.50317,83.6224,-1.64795,-3.54004,7.14111,-0.496704,0.555115,0.416626,-0.520996,7152,4186,485,6698,-30549
678,69152,-1.50732,-9.59424,0.827832,-87.8796,9.53613,83.6389,-1.64795,-3.05176,6.95801,-0.49646,0.555176,0.416534,-0.52124,7149,4186,489,6698,-30549
684,69158,-1.61738,-9.45068,0.775195,-87.8851,9.5636,83.6444,-2.74658,-1.64795,6.65283,-0.496277,0.555237,0.416443,-0.521423,7146,4186,491,6698,-30549
690,69164,-1.871,-9.5751,0.708203,-87.8961,9.59656,83.6609,-3.72314,-2.86865,6.22559,-0.496063,0.555359,0.416351,-0.521576,7144,4185,494,6698,-30549
696,69170,-1.65088,-9.62773,0.583789,-87.9016,9.62402,83.6829,-3.72314,-4.57764,5.7373,-0.495575,0.555511,0.416351,-0.521881,7141,4185,496,6698,-30549
702,69176,-1.62217,-9.4459,0.698633,-87.9291,9.67346,83.7323,-5.00488,-5.37109,5.43213,-0.49527,0.555542,0.416382,-0.522064,7138,4188,493,6698,-30549
708,69182,-1.53125,-9.53682,0.837402,-87.9456,9.70093,83.7598,-5.85938,-5.49316,6.10352,-0.494965,0.555603,0.416443,-0.522247,7136,4191,493,6698,-30549
714,69188,-1.58867,-9.42676,0.808691,-87.9675,9.72839,83.7817,-6.5918,-4.69971,6.22559,-0.494659,0.555695,0.416534,-0.5224,7134,4194,492,6698,-30549
720,69194,-1.67002,-9.41719,0.775195,-87.995,9.75586,83.8037,-8.17871,-5.06592,6.10352,-0.494324,0.555817,0.416595,-0.522552,7131,4197,492,6698,-30549
726,69200,-1.66523,-9.24014,0.870898,-88.028,9.78333,83.8312,-8.66699,-5.67627,6.16455,-0.49353,0.556122,0.41684,-0.522766,7129,4200,495,6698,-30549
732,69206,-1.71787,-9.21621,0.966602,-88.1104,9.84375,83.9026,-11.8408,-7.87354,5.98145,-0.493103,0.556274,0.416992,-0.522888,7125,4207,500,6698,-30549
738,69212,-1.54561,-9.3167,1.13887,-88.1543,9.87122,83.9465,-12.5732,-9.70459,6.53076,-0.492584,0.556427,0.417236,-0.52301,7124,4210,501,6698,-30549
744,69218,-1.47383,-9.2832,0.875684,-88.2092,9.89868,83.985,-13.9771,-7.93457,6.28662,-0.492035,0.55658,0.417542,-0.523163,7122,4213,500,6698,-30549
750,69224,-1.58389,-9.4124,0.827832,-88.2806,9.92615,84.007,-16.7236,-5.67627,6.10352,-0.491455,0.556763,0.417816,-0.523224,7119,4216,497,6698,-30549
756,69230,-1.88057,-9.72822,0.401953,-88.3575,9.95361,84.0344,-17.9443,-7.14111,5.37109,-0.490295,0.557434,0.418457,-0.523132,7117,4218,498,6698,-30549
762,69236,-1.81836,-9.78564,0.354102,-88.5004,10.0031,84.1113,-17.8223,-9.21631,5.12695,-0.489655,0.557709,0.418823,-0.523102,7109,4224,501,6698,-30549
768,69242,-1.55996,-9.8335,0.545508,-88.5718,10.0305,84.1553,-16.9067,-9.64355,6.04248,-0.489014,0.557953,0.41925,-0.523102,7105,4228,507,6698,-30549
774,69248,-1.52168,-9.76172,0.430664,-88.6322,10.058,84.1937,-15.3198,-8.36182,6.34766,-0.488373,0.558167,0.419647,-0.523163,7151,4234,514,6698,-30549
780,69254,-1.67959,-9.64688,0.31582,-88.6871,10.0854,84.2267,-14.7095,-7.20215,6.28662,-0.487762,0.558411,0.419983,-0.523224,7192,4239,519,6698,-30549
786,69260,-1.77051,-9.62295,0.459375,-88.7421,10.1184,84.2651,-13.916,-8.05664,6.46973,-0.486633,0.558838,0.420532,-0.523346,7178,4243,524,6698,-30549
792,69266,-1.70352,-9.61338,0.416309,-88.8354,10.1678,84.342,-11.9019,-8.72803,5.67627,-0.486084,0.559021,0.420837,-0.523468,7159,4252,520,6698,-30549
798,69272,-1.73223,-9.64688,0.421094,-88.8739,10.1953,84.3805,-11.0474,-7.87354,5.49316,-0.485565,0.559143,0.421082,-0.52359,7149,4256,518,6698,-30549
804,69278,-1.7418,-9.63731,0.354102,-88.9124,10.2173,84.4135,-10.3149,-7.62939,5.18799,-0.485077,0.559265,0.421326,-0.523712,7191,4260,516,6698,-30549
810,69284,-1.80879,-9.64688,0.440234,-88.9453,10.2393,84.4519,-10.0098,-8.11768,4.82178,-0.48465,0.559387,0.421539,-0.523804,7227,4264,515,6698,-30549
816,69290,-0.818262,-4.84258,0.258398,-88.9783,10.2612,84.4904,-8.91113,-7.50732,4.57764,-0.483765,0.55954,0.422028,-0.524078,7257,4267,514,6698,-30549
822,69296,-1.73701,-9.66602,0.373242,-89.0387,10.2997,84.5563,-8.97217,-6.28662,4.15039,-0.483368,0.559631,0.422211,-0.5242,7307,4273,509,6698,-30549
828,69302,-1.84707,-9.70908,0.363672,-89.0717,10.3162,84.5837,-8.8501,-6.40869,3.54004,-0.483002,0.559723,0.422424,-0.524261,7329,4275,505,6698,-30549
834,69308,-1.8375,-9.77129,0.382813,-89.0991,10.3326,84.6167,-8.48389,-6.71387,3.479,-0.482666,0.559814,0.422607,-0.524353,7349,4277,499,6698,-30549
840,69314,-1.7418,-9.82393,0.421094,-89.1266,10.3436,84.6442,-7.44629,-5.98145,3.11279,-0.4823,0.559875,0.422821,-0.524445,7366,4278,493,6698,-30549
846,69320,-1.73701,-9.75693,0.392383,-89.1431,10.3546,84.6606,-5.49316,-3.54004,2.13623,-0.48175,0.559967,0.423157,-0.524567,7382,4280,489,6698,-30549
852,69326,-1.71309,-9.8,0.411523,-89.176,10.3711,84.6881,-4.82178,-2.44141,2.0752,-0.481567,0.560028,0.423248,-0.524597,7406,4285,485,6698,-30549
858,69332,-1.80879,-9.85742,0.354102,-89.187,10.3766,84.6936,-3.84521,-1.46484,1.46484,-0.481415,0.560089,0.42334,-0.524628,7416,4247,486,6698,-30549
864,69338,-1.86621,-9.85264,0.177051,-89.1925,10.3821,84.6991,-2.74658,-1.34277,1.09863,-0.481293,0.56012,0.42337,-0.524628,7426,4214,486,6698,-30549
870,69344,-1.8375,-9.93398,0.196191,-89.1925,10.3876,84.7046,-1.52588,-1.34277,0.671387,-0.481232,0.56015,0.423401,-0.524628,7433,4183,484,6698,-30549
876,69350,-1.76572,-9.83828,0.253613,-89.187,10.3876,84.7046,1.09863,-0.366211,0.244141,-0.481232,0.56012,0.42337,-0.524719,7441,4156,484,6698,-30549
882,69356,-1.70352,-9.82871,0.339746,-89.1595,10.3876,84.7046,1.83105,0.305176,0,-0.481293,0.560059,0.42334,-0.52475,7452,4149,487,6698,-30549
888,69362,-1.73223,-9.75693,0.339746,-89.1431,10.3821,84.6936,2.31934,1.09863,0.0610352,-0.481384,0.559998,0.423248,-0.524811,7457,4165,490,6698,-30549
894,69368,-1.804,-9.67559,0.373242,-89.1266,10.3821,84.6881,2.74658,1.34277,-0.549316,-0.481476,0.559967,0.423157,-0.524811,7463,4179,492,6698,-30549
900,69374,-1.82314,-9.64688,0.387598,-89.1101,10.3766,84.6771,2.62451,1.15967,-0.549316,-0.481628,0.559906,0.423035,-0.524841,7470,4193,496,6698,-30549
906,69380,-1.66523,-9.62295,0.540723,-89.0936,10.3711,84.6716,2.50244,1.40381,-0.915527,-0.481903,0.559784,0.422852,-0.524872,7477,4164,499,6698,-30549
912,69386,-1.67959,-9.59424,0.502441,-89.0607,10.3601,84.6497,2.13623,2.2583,-0.976563,-0.482056,0.559723,0.42276,-0.524872,7489,4115,499,6698,-30549
918,69392,-1.72266,-9.64688,0.47373,-89.0442,10.3546,84.6332,2.44141,2.62451,-0.915527,-0.482208,0.559692,0.422668,-0.524841,7493,4134,497,6698,-30549
924,69398,-1.804,-9.63731,0.430664,-89.0277,10.3491,84.6167,3.05176,2.80762,-1.28174,-0.482361,0.559662,0.422546,-0.524811,7496,4150,493,6698,-30549
930,69404,-1.76572,-9.62295,0.550293,-89.0112,10.3436,84.6057,3.17383,2.44141,-1.46484,-0.482574,0.559631,0.422424,-0.52478,7498,4165,492,6698,-30549
936,69410,-1.56953,-9.5751,0.655566,-88.9893,10.3326,84.5892,3.17383,4.02832,-1.58691,-0.482971,0.559509,0.42218,-0.524719,7500,4177,492,6698,-30549
942,69416,-1.60781,-9.61338,0.502441,-88.9563,10.3162,84.5343,2.56348,5.79834,-1.70898,-0.483185,0.559479,0.422028,-0.524658,7506,4199,490,6698,-30549
948,69422,-1.77529,-9.71865,0.387598,-88.9453,10.3052,84.5013,2.68555,6.71387,-1.64795,-0.483429,0.559509,0.421875,-0.524536,7509,4209,489,6698,-30549
954,69428,-1.88057,-9.75215,0.248828,-88.9343,10.2942,84.4684,2.80762,6.04248,-1.95313,-0.483704,0.55954,0.421692,-0.524414,7513,4219,487,6698,-30549
960,69434,-1.871,-9.74736,0.287109,-88.9124,10.2832,84.4409,3.72314,4.88281,-2.13623,-0.483948,0.55957,0.421509,-0.524292,7516,4228,487,6698,-30549
966,69440,-1.70352,-9.72822,0.387598,-88.8904,10.2722,84.4189,4.63867,4.02832,-2.31934,-0.484467,0.559509,0.421204,-0.524139,7520,4235,487,6698,-30549
972,69446,-1.65088,-9.72344,0.435449,-88.8409,10.2502,84.375,5.43213,4.45557,-2.38037,-0.484741,0.559418,0.421051,-0.524078,7524,4250,487,6698,-30549
978,69452,-1.77529,-9.64688,0.44502,-88.808,10.2393,84.3475,5.92041,5.43213,-2.50244,-0.485046,0.559357,0.420868,-0.524048,7525,4256,488,6698,-30549
984,69458,-1.89014,-9.55117,0.435449,-88.7805,10.2228,84.3201,5.98145,5.12695,-3.23486,-0.485352,0.559296,0.420654,-0.523987,7526,4260,489,6698,-30549
990,69464,-1.78486,-9.62773,0.502441,-88.7531,10.2063,84.2981,5.92041,4.15039,-3.66211,-0.485687,0.559204,0.420471,-0.523895,7528,4262,492,6698,-30549
996,69470,-1.54561,-9.68994,0.583789,-88.7201,10.1843,84.2761,6.65283,5.12695,-3.54004,-0.486359,0.55896,0.420135,-0.523804,7531,4264,497,6698,-30549
1002,69476,-1.56475,-9.58467,0.607715,-88.6542,10.1514,84.2212,6.71387,5.67627,-3.17383,-0.486725,0.558868,0.419952,-0.523743,7536,4269,503,6698,-30549
1008,69482,-1.59824,-9.55596,0.62207,-88.6212,10.1404,84.1827,6.22559,6.46973,-2.50244,-0.487091,0.558777,0.419739,-0.523651,7539,4272,503,6698,-30549
1014,69488,-1.62217,-9.59424,0.531152,-88.5992,10.1294,84.1443,5.7373,7.32422,-2.56348,-0.487457,0.558716,0.419495,-0.52356,7540,4273,503,6698,-30549
1020,69494,-1.66523,-9.62773,0.507227,-88.5718,10.1184,84.1058,5.5542,7.62939,-2.56348,-0.487793,0.558716,0.41925,-0.523468,7542,4274,502,6698,-30549
1026,69500,-1.67002,-9.71387,0.46416,-88.5498,10.1074,84.0674,6.04248,7.08008,-2.19727,-0.488525,0.558685,0.418762,-0.523193,7544,4274,502,6698,-30549
1032,69506,-1.60303,-9.69473,0.44502,-88.4894,10.0854,83.996,6.71387,6.95801,-2.19727,-0.488861,0.558655,0.418488,-0.523102,7546,4275,507,6698,-30549
1038,69512,-1.62217,-9.6708,0.478516,-88.4564,10.0745,83.9575,7.32422,7.20215,-1.83105,-0.489227,0.558624,0.418243,-0.523041,7497,4275,509,6698,-30549
1044,69518,-1.72266,-9.64688,0.488086,-88.418,10.069,83.9191,7.93457,7.44629,-1.77002,-0.489594,0.558594,0.417938,-0.522949,7454,4272,512,6698,-30549
1050,69524,-1.804,-9.63731,0.449805,-88.3795,10.058,83.8806,8.30078,7.38525,-2.13623,-0.48999,0.558533,0.417633,-0.522888,7415,4270,514,6698,-30549
1056,69530,-1.78965,-9.77129,0.468945,-88.3411,10.047,83.8477,8.97217,5.67627,-3.05176,-0.490814,0.55838,0.417023,-0.522766,7380,4268,517,6698,-30549
1062,69536,-1.6748,-9.7043,0.559863,-88.2477,10.0195,83.7872,9.46045,5.12695,-2.99072,-0.491211,0.558258,0.416748,-0.522736,7319,4264,525,6698,-30549
1068,69542,-1.58867,-9.62295,0.598145,-88.2037,10.0031,83.7598,9.09424,5.06592,-2.74658,-0.491638,0.558105,0.416473,-0.522736,7294,4263,529,6698,-30549
1074,69548,-1.5791,-9.62295,0.660352,-88.1653,9.99207,83.7323,8.78906,5.49316,-2.74658,-0.492035,0.557953,0.416199,-0.522736,7273,4262,529,6698,-30549
1080,69554,-1.6748,-9.63731,0.636426,-88.1213,9.97559,83.6993,8.60596,6.16455,-2.86865,-0.492432,0.557831,0.415924,-0.522705,7255,4261,530,6698,-30549
1086,69560,-1.78486,-9.71865,0.507227,-88.0829,9.9646,83.6664,8.48389,6.34766,-3.23486,-0.493256,0.557617,0.415375,-0.522583,7241,4259,527,6698,-30549
1092,69566,-1.67002,-9.66602,0.636426,-88.0005,9.92615,83.6169,8.36182,4.63867,-3.60107,-0.493652,0.557495,0.415161,-0.522552,7215,4255,522,6698,-30549
1098,69572,-1.67002,-9.60859,0.708203,-87.962,9.90967,83.5895,8.42285,4.27246,-3.72314,-0.494019,0.557343,0.414948,-0.522522,7204,4254,519,6698,-30549
1104,69578,-1.67959,-9.51289,0.775195,-87.9236,9.89319,83.5675,7.99561,3.90625,-3.90625,-0.494415,0.55719,0.414734,-0.522491,7194,4252,516,6698,-30549
1110,69584,-1.6748,-9.53682,0.736914,-87.8851,9.87122,83.5455,7.38525,3.96729,-4.21143,-0.494781,0.557007,0.41452,-0.522461,7187,4250,516,6698,-30549
1116,69590,-1.60303,-9.60859,0.756055,-87.8522,9.84924,83.5236,6.34766,4.27246,-4.45557,-0.495514,0.556702,0.414215,-0.522369,7182,4248,515,6698,-30549
1122,69596,-1.65088,-9.58467,0.765625,-87.7863,9.81079,83.4796,6.34766,4.21143,-4.5166,-0.49585,0.55658,0.414063,-0.522278,7172,4245,512,6698,-30549
1128,69602,-1.74658,-9.63252,0.665137,-87.7588,9.78333,83.4521,6.34766,4.57764,-5.31006,-0.496216,0.556458,0.41391,-0.522217,7169,4244,509,6698,-30549
1134,69608,-1.83271,-9.71387,0.483301,-87.7258,9.75586,83.4302,6.28662,4.69971,-6.22559,-0.496582,0.556305,0.413757,-0.522095,7167,4243,507,6698,-30549
1140,69614,-1.95713,-9.79521,0.47373,-87.6929,9.71741,83.4082,6.71387,3.90625,-7.32422,-0.496979,0.556152,0.413666,-0.521973,7165,4241,507,6698,-30549
1146,69620,-1.91885,-9.8335,0.459375,-87.6599,9.67896,83.3862,6.89697,3.17383,-9.94873,-0.497833,0.555725,0.413544,-0.521729,7163,4237,512,6698,-30549
1152,69626,-2.0002,-9.90527,0.507227,-87.5885,9.57458,83.3533,6.89697,2.38037,-11.1694,-0.498291,0.555481,0.413513,-0.521576,7161,4232,519,6698,-30549
1158,69632,-1.8375,-9.76172,0.732129,-87.5555,9.51965,83.3423,6.83594,1.77002,-12.0239,-0.498749,0.555176,0.413574,-0.521423,7160,4228,522,6698,-30549
1164,69638,-1.87578,-9.8,0.631641,-87.5226,9.45923,83.3313,6.46973,1.0376,-12.9395,-0.499237,0.55484,0.413635,-0.52124,7160,4225,521,6698,-30549
1170,69644,-1.804,-9.83828,0.789551,-87.4896,9.39331,83.3258,5.92041,0.549316,-13.4888,-0.499725,0.554504,0.413757,-0.521088,7159,4222,522,6698,-30549
1176,69650,-1.81836,-9.73779,0.665137,-87.4622,9.3219,83.3203,3.90625,0.12207,-15.8691,-0.500671,0.553741,0.414093,-0.52066,7159,4217,519,6698,-30549
1182,69656,-1.804,-9.80957,0.703418,-87.4182,9.1626,83.3038,3.72314,1.09863,-17.395,-0.501129,0.553375,0.414337,-0.520416,7159,4207,516,6698,-30549
1188,69662,-1.73701,-9.80957,0.655566,-87.4017,9.07471,83.2983,3.05176,0.305176,-18.3105,-0.501648,0.553009,0.414642,-0.520081,7161,4201,513,6698,-30549
1194,69668,-1.64131,-9.71387,0.674707,-87.3907,8.98132,83.2874,2.44141,1.09863,-19.043,-0.502136,0.552643,0.414948,-0.519745,7164,4196,510,6698,-30549
1200,69674,-1.52646,-9.75215,0.736914,-87.3798,8.88794,83.2764,1.40381,0.610352,-19.3481,-0.502625,0.552277,0.415314,-0.519379,7167,4192,508,6698,-30549
1206,69680,-1.28721,-9.74736,0.775195,-87.3743,8.79456,83.2709,0.488281,0.549316,-18.8599,-0.503601,0.551544,0.416077,-0.518585,7170,4187,507,6698,-30549
1212,69686,-1.23936,-9.79043,0.952246,-87.3688,8.61877,83.2489,-0.244141,1.28174,-18.4937,-0.504059,0.551208,0.416473,-0.518188,7178,4176,501,6698,-30549
1218,69692,-1.37813,-9.71387,0.947461,-87.3743,8.53088,83.2324,-1.40381,2.80762,-18.4326,-0.504486,0.550903,0.41687,-0.517761,7182,4170,497,6698,-30549
1224,69698,-1.40684,-9.66123,0.645996,-87.3907,8.44299,83.2159,-2.99072,2.56348,-17.9443,-0.504944,0.550659,0.417236,-0.517303,7186,4164,490,6698,-30549
1230,69704,-1.33027,-9.97705,0.689063,-87.4017,8.3606,83.205,-2.68555,1.34277,-17.2119,-0.50531,0.550476,0.417633,-0.516815,7191,4200,483,6698,-30549
1236,69710,-1.45469,-9.99141,0.229688,-87.3962,8.28918,83.194,0.183105,1.64795,-16.0522,-0.506042,0.549988,0.418365,-0.516052,7196,4231,481,6698,-30549
1242,69716,-1.52168,-10.0823,-0.100488,-87.4017,8.13538,83.1665,-1.2207,2.01416,-16.1743,-0.506439,0.549713,0.418671,-0.515686,7207,4282,476,6698,-30549
1248,69722,-1.59824,-10.2546,-0.224902,-87.4072,8.05847,83.1555,-1.0376,1.83105,-16.3574,-0.506805,0.5495,0.419006,-0.515289,7213,4303,473,6698,-30549
1254,69728,-1.53604,-10.1445,-0.143555,-87.4182,7.97607,83.1445,-1.77002,1.89209,-17.7002,-0.507172,0.549255,0.419373,-0.514893,7219,4321,472,6698,-30549
1260,69734,-1.82314,-10.513,0.516797,-87.4457,7.88818,83.1281,-5.43213,2.74658,-18.4937,-0.507538,0.549011,0.419769,-0.514435,7224,4336,469,6698,-30549
1266,69740,-1.55039,-9.7043,0.354102,-87.4622,7.7948,83.1281,-5.79834,2.86865,-20.3857,-0.508179,0.548615,0.420776,-0.513428,7231,4349,468,6698,-30549
1272,69746,-1.5791,-9.31191,0.449805,-87.5391,7.60254,83.1061,-9.64355,0,-20.2026,-0.508514,0.548431,0.421326,-0.512848,7197,4369,467,6698,-30549
1278,69752,-2.17725,-9.66123,1.63652,-87.6105,7.49817,83.1061,-15.3198,-0.427246,-21.9727,-0.508728,0.548279,0.421997,-0.512268,7160,4376,468,6698,-30549
1284,69758,-4.27793,-13.5372,2.51221,-87.7643,7.35535,83.1116,-31.6162,-2.01416,-30.4565,-0.50882,0.548187,0.422821,-0.511536,7126,4383,467,6698,-30549
1290,69764,-12.2596,-39.1952,11.6327,-87.9181,7.10266,83.0017,-30.8228,18.4326,-53.5278,-0.508698,0.548309,0.424255,-0.510376,7098,4389,468,6698,-30549
1296,69770,-2.43564,-7.67539,-0.899609,-87.7863,6.79504,83.0402,27.3438,-47.1191,-67.688,-0.511292,0.546478,0.426788,-0.507629,7074,4393,469,6698,-30549
1302,69776,1.42119,-6.92891,-0.75127,-87.6599,6.13586,83.3533,-14.0991,-24.292,-69.3359,-0.512573,0.54364,0.42865,-0.507843,7041,4394,475,6698,-30549
1308,69782,0.100488,-10.3838,1.65566,-87.8192,5.80627,83.3093,-34.2407,5.06592,-70.0073,-0.513336,0.542145,0.430969,-0.506683,7031,4390,475,6698,-30549
1314,69788,-2.75625,-12.0299,1.64609,-87.9236,5.47119,83.2709,-22.2168,2.99072,-70.7397,-0.51416,0.541748,0.433075,-0.504425,7022,4386,477,6698,-30549
1320,69794,-3.34961,-11.4892,1.23936,-87.9785,5.12512,83.2928,-14.7095,-8.66699,-73.8525,-0.515259,0.541016,0.434967,-0.502441,7018,4421,479,6698,-30549
1326,69800,-2.19639,-10.8097,1.78008,-88.0499,4.75159,83.3313,-23.1934,-16.7847,-82.4585,-0.517456,0.538513,0.439362,-0.499084,7018,4449,482,6698,-30549
1332,69806,-1.27764,-11.0106,1.55518,-88.2587,3.96057,83.4686,-26.4282,-19.3481,-83.1909,-0.518402,0.53714,0.441956,-0.497284,6937,4487,481,6698,-30549
1338,69812,-0.512012,-10.8958,0.698633,-88.3685,3.56506,83.5181,-25.3906,-14.4653,-84.2285,-0.519226,0.535797,0.444672,-0.495453,6908,4499,479,6698,-30549
1344,69818,-0.540723,-11.3025,0.334961,-88.4839,3.16406,83.5345,-26.9165,-7.44629,-84.5337,-0.520172,0.534485,0.447296,-0.49353,6885,4507,475,6698,-30549
1350,69824,-1.48818,-12.7907,0.856543,-88.6267,2.74109,83.5071,-31.0059,0.793457,-89.6606,-0.52124,0.533325,0.449799,-0.491364,6868,4511,474,6698,-30549
1356,69830,-2.70361,-13.1879,-0.0813477,-88.7366,2.28516,83.4521,-15.7471,3.05176,-101.624,-0.524048,0.53125,0.454681,-0.486084,6857,4555,476,6698,-30549
1362,69836,-2.5457,-12.9008,-0.76084,-88.8629,1.29639,83.3972,-14.3433,0.976563,-107.117,-0.525879,0.529755,0.457062,-0.483521,6757,4620,488,6698,-30549
1368,69842,-2.43564,-12.4893,-0.459375,-88.9124,0.758057,83.3533,-11.7188,4.82178,-114.563,-0.527802,0.528046,0.459595,-0.480896,6721,4644,497,6698,-30549
1374,69848,-2.11982,-12.1926,-0.0430664,-88.9508,0.186768,83.3258,-9.58252,1.83105,-120.911,-0.529999,0.526215,0.462128,-0.478058,6693,4664,505,6698,-30549
1380,69854,-1.56475,-11.5849,-0.181836,-88.9618,-0.406494,83.3038,-4.57764,0.671387,-125.366,-0.532257,0.524139,0.464844,-0.475159,6674,4676,513,6698,-30549
1386,69860,-1.54561,-11.6901,-0.717773,-88.9838,-1.01624,83.2654,-7.14111,8.36182,-134.094,-0.537231,0.519531,0.470306,-0.469208,6613,4685,524,6698,-30549
1392,69866,-1.68438,-11.9677,-0.291895,-89.0277,-2.30713,83.139,-5.5542,9.52148,-138.672,-0.539886,0.517242,0.473053,-0.465912,6531,4768,543,6698,-30549
1398,69872,-1.81836,-12.6854,0.119629,-89.0387,-2.97729,83.0786,-4.63867,9.27734,-143.066,-0.542694,0.514832,0.47583,-0.462463,6457,4797,554,6698,-30549
1404,69878,-1.6126,-12.9391,0.181836,-89.0277,-3.6969,83.0017,0.12207,11.5967,-151.611,-0.545563,0.512299,0.478699,-0.458954,6395,4820,563,6698,-30549
1410,69884,-1.46426,-13.7238,-0.421094,-89.0332,-4.43848,82.9468,-3.17383,7.8125,-157.593,-0.548706,0.509521,0.481537,-0.455292,6349,4837,566,6698,-30549
1416,69890,-1.72744,-16.303,-0.090918,-89.0442,-5.24048,82.8809,1.95313,14.4653,-177.246,-0.555084,0.503479,0.488037,-0.447327,6316,4887,566,6698,-30549
1422,69896,-2.81846,-15.6044,-0.349316,-88.9014,-6.96533,82.6721,21.0571,19.9585,-187.256,-0.558746,0.500122,0.491272,-0.442963,6193,4960,565,6698,-30549
1428,69902,-3.11992,-15.011,-1.0958,-88.7421,-7.8717,82.6062,29.6631,8.60596,-191.589,-0.56308,0.496155,0.494232,-0.438629,6106,4984,566,6698,-30549
1434,69908,-1.73223,-14.6426,-1.17236,-88.6047,-8.81653,82.5568,25.9399,4.63867,-200.317,-0.567352,0.491669,0.497314,-0.434601,6035,5003,568,6698,-30549
1440,69914,-1.225,-14.8244,0.0143555,-88.4894,-9.78882,82.4799,20.9961,9.70459,-206.543,-0.571594,0.487,0.500763,-0.430359,5983,5058,570,6698,-30549
1446,69920,-2.99551,-15.2503,0.258398,-88.396,-10.827,82.348,13.3057,20.813,-219.543,-0.580475,0.477875,0.507813,-0.420319,5899,5102,573,6698,-30549
1452,69926,-2.8998,-14.3938,1.18672,-88.1982,-13.0573,82.0239,14.3433,20.6909,-241.089,-0.585419,0.473175,0.511444,-0.414398,5700,5160,577,6698,-30549
1458,69932,-2.10547,-13.9918,0.875684,-88.0994,-14.2493,81.8756,13.6108,19.5923,-252.686,-0.590271,0.468079,0.51532,-0.408447,5585,5217,575,6698,-30549
1464,69938,-2.39258,-14.1306,0.866113,-88.0554,-15.4688,81.7053,0.244141,23.9868,-259.399,-0.595215,0.462708,0.519409,-0.402161,5489,5266,575,6698,-30549
1470,69944,-3.34004,-17.0208,0.507227,-88.0884,-16.7267,81.5735,-14.9536,16.3574,-268.494,-0.600037,0.457581,0.523651,-0.395264,5367,5303,577,6698,-30549
1476,69950,-3.20605,-21.9543,-0.392383,-88.0719,-18.0286,81.4032,-5.5542,22.2778,-277.039,-0.609253,0.44696,0.533081,-0.380432,5276,5332,578,6698,-30549
1482,69956,-4.08174,-22.2031,2.54092,-87.8192,-20.7751,81.2219,33.6304,8.17871,-299.194,-0.613892,0.440613,0.538055,-0.373291,5028,5442,589,6698,-30549
1488,69962,-3.61758,-18.2362,0.856543,-87.55,-22.2034,81.2329,54.3213,-15.2588,-304.382,-0.619293,0.433258,0.542633,-0.366302,4879,5482,593,6698,-30549
1494,69968,-0.665137,-16.2791,-0.0669922,-87.4237,-23.6646,81.2714,29.2358,-22.4609,-311.401,-0.624512,0.424805,0.547485,-0.360077,4755,5516,598,6698,-30549
1500,69974,-1.27764,-16.4609,-0.507227,-87.3578,-25.1971,81.1395,3.11279,8.36182,-326.904,-0.62912,0.416687,0.552948,-0.353149,4615,5545,602,6698,-30549
1506,69980,-5.06748,-17.8104,-0.799121,-87.2644,-26.7792,80.9473,2.44141,17.4561,-339.539,-0.639313,0.401825,0.563232,-0.335419,4461,5611,606,6698,-30549
1512,69986,-3.12949,-16.4274,-0.0382813,-86.9019,-30.0037,80.6891,31.9824,-0.427246,-346.741,-0.644531,0.393494,0.568268,-0.32663,4114,5716,615,6698,-30549
1518,69992,-1.29199,-17.6668,-1.16758,-86.825,-31.6296,80.6287,11.4136,-10.9253,-349.182,-0.649658,0.384613,0.573273,-0.318237,3965,5759,617,6698,-30549
1524,69998,-1.16758,-20.6384,0.220117,-86.8085,-33.2886,80.5243,-6.65283,-3.35693,-356.934,-0.654053,0.376068,0.578766,-0.309357,3803,5795,619,6698,-30549
1530,70004,-3.12949,-21.0882,0.483301,-86.6492,-34.986,80.3705,16.9067,2.56348,-366.76,-0.658325,0.367889,0.584259,-0.299622,3632,5827,512,6698,-30549
1536,70010,-4.75166,-19.0306,-1.00488,-86.391,-36.6833,80.2386,38.6353,-3.41797,-366.516,-0.667908,0.348969,0.594086,-0.281128,3454,5857,610,6706,-30550
1542,70016,-4.57461,-12.2404,-3.53623,-85.589,-40.0232,79.6509,48.9502,30.2124,-363.098,-0.672913,0.339081,0.598328,-0.272156,3079,5909,590,6706,-30550
1548,70022,-7.19688,-8.57022,-5.42158,-84.8969,-41.5942,79.162,78.5522,44.9219,-350.22,-0.678375,0.329407,0.601654,-0.263031,2870,5933,581,6706,-30550
1554,70028,-13.7478,-2.05762,-4.08652,-83.8531,-43.0829,78.5687,133.789,55.2368,-337.769,-0.684296,0.319305,0.603943,-0.254791,2656,5956,573,6706,-30550
1560,70034,-14.9153,11.226,-0.320605,-82.8369,-44.2639,78.36,182.007,-8.23975,-272.644,-0.690948,0.308044,0.60495,-0.24823,2437,5979,562,6706,-30550
1566,70040,-1.17715,13.1305,-0.684277,-82.782,-44.989,78.8269,85.6934,-105.164,-169.312,-0.695892,0.296478,0.60614,-0.245636,2212,6002,548,6706,-30550
1572,70046,-1.65566,-15.0158,0.952246,-82.8534,-45.3241,78.2721,-40.2832,42.7856,-41.5039,-0.696136,0.289185,0.610962,-0.241577,1824,5968,507,6706,-30550
1578,70052,-8.9626,-17.1356,3.67021,-82.5787,-45.1154,77.9535,26.8555,-5.18799,16.8457,-0.69754,0.29126,0.609436,-0.238922,1645,5956,485,6706,-30550
1584,70058,-8.56543,-8.7999,0.507227,-82.3535,-44.7803,77.9865,66.1621,-57.8613,55.8472,-0.698608,0.292389,0.607361,-0.239655,1489,5947,463,6706,-30550
1590,70064,-5.46465,-2.08633,-3.09121,-82.2162,-44.3243,77.959,39.3066,-49.6826,83.9233,-0.698669,0.292694,0.605865,-0.24295,1350,5942,440,6706,-30550
1596,70070,-6.36426,-1.87578,-3.64629,-82.1558,-43.775,77.7832,2.62451,-27.0386,102.966,-0.698425,0.294525,0.603973,-0.246094,1223,5938,420,6706,-30550
1602,70076,-7.14424,-6.8332,-0.478516,-82.0953,-42.5336,77.6074,15.686,-44.1284,122.681,-0.697632,0.302063,0.59906,-0.251221,988,5935,382,6706,-30550
1608,70082,-5.56035,-6.60352,-1.07666,-82.002,-41.9073,77.5635,25.1465,-44.0063,121.948,-0.696899,0.30545,0.596649,-0.254761,881,5934,368,6706,-30550
1614,70088,-4.53633,-5.97188,-1.30635,-81.8921,-41.2976,77.4756,21.1792,-37.2925,118.042,-0.69632,0.308533,0.594147,-0.258545,827,5935,356,6706,-30550
1620,70094,-4.02432,-5.56035,-0.851758,-81.7877,-40.6989,77.3602,16.4795,-33.7524,115.051,-0.695892,0.311646,0.591492,-0.261993,773,5938,343,6706,-30550
1626,70100,-3.60801,-3.7085,-0.574219,-81.6724,-40.1001,77.2339,16.5405,-31.9214,115.295,-0.69519,0.318024,0.586029,-0.268372,716,5943,330,6706,-30550
1632,70106,-3.7707,-2.87109,-0.559863,-81.3977,-38.8422,76.8823,12.6953,-19.7144,122.375,-0.694946,0.32132,0.583038,-0.271545,693,5874,303,6706,-30550
1638,70112,-3.76592,-2.72754,-0.512012,-81.2549,-38.1665,76.6681,9.21631,-14.7705,128.418,-0.694794,0.32489,0.579773,-0.274689,676,5846,292,6706,-30550
1644,70118,-3.3209,-3.20127,-0.6125,-81.1066,-37.4469,76.4319,7.56836,-9.33838,136.292,-0.694611,0.328766,0.576294,-0.277863,652,5822,279,6706,-30550
1650,70124,-2.78975,-3.83291,-0.459375,-80.9418,-36.6888,76.1627,7.14111,-2.44141,143.372,-0.694427,0.332886,0.57254,-0.281158,674,5802,268,6706,-30550
1656,70130,-2.34951,-4.52676,-0.291895,-80.7605,-35.8813,75.8661,8.17871,3.78418,151.55,-0.694244,0.341827,0.563965,-0.288116,685,5785,260,6723,-30552
1662,70136,-2.11982,-4.47891,-0.258398,-80.354,-34.1071,75.2344,9.39941,14.3433,172.18,-0.694153,0.346649,0.559143,-0.291901,729,5761,251,6723,-30552
1668,70142,-2.02891,-4.46455,-0.287109,-80.1453,-33.1293,74.8883,8.05664,21.1182,184.387,-0.694031,0.351746,0.553955,-0.295929,760,5753,250,6723,-30552
1674,70148,-2.17246,-4.75166,-0.330176,-79.942,-32.0746,74.5313,6.28662,26.9775,196.96,-0.693848,0.357239,0.54837,-0.300201,783,5747,251,6723,-30552
1680,70154,-2.18682,-5.29238,-0.191406,-79.7443,-30.9595,74.1687,5.37109,31.3721,209.717,-0.693573,0.363098,0.542358,-0.304688,796,5743,253,6723,-30552
1686,70160,-1.97148,-6.01494,-0.229688,-79.552,-29.7784,73.8062,5.7373,35.7666,222.168,-0.692596,0.375824,0.529175,-0.314514,851,5742,255,6723,-30552
1692,70166,-1.89014,-6.26855,-0.368457,-79.173,-27.2241,73.0646,4.76074,44.7388,244.751,-0.691925,0.382599,0.521973,-0.319824,962,5743,259,6723,-30552
1698,70172,-1.73701,-6.52217,-0.387598,-78.9862,-25.8783,72.6855,5.37109,48.4009,253.54,-0.691101,0.389648,0.514404,-0.325317,1023,5747,259,6723,-30552
1704,70178,-1.66523,-6.704,-0.397168,-78.7994,-24.4885,72.3065,5.92041,52.124,260.437,-0.690155,0.39682,0.5065,-0.330994,1064,5710,259,6723,-30552
1710,70184,-1.59824,-6.84756,-0.349316,-78.6237,-23.0768,71.9275,5.79834,55.0537,264.16,-0.689087,0.404144,0.49826,-0.336792,1140,5679,259,6723,-30552
1716,70190,-1.34463,-7.17773,-0.368457,-78.4479,-21.6595,71.5375,5.5542,58.2275,266.235,-0.686768,0.418823,0.48114,-0.348328,1196,5654,258,6723,-30552
1722,70196,-1.1915,-7.33564,-0.29668,-78.1403,-18.8196,70.7355,1.52588,63.9648,263.916,-0.685486,0.426208,0.472321,-0.353912,1351,5619,259,6723,-30552
1728,70202,-1.3542,-6.97197,-0.363672,-78.0304,-17.4188,70.3235,-4.3335,65.8569,259.949,-0.684174,0.433533,0.463409,-0.359283,1456,5607,260,6723,-30552
1734,70208,-0.947461,-7.82373,0.282324,-77.959,-16.0291,69.9005,-11.3525,68.6646,257.874,-0.682739,0.440918,0.454559,-0.364319,1536,5599,261,6723,-30552
1740,70214,-0.995313,-8.36924,0.177051,-77.8986,-14.6503,69.4666,-13.0615,70.8618,255.066,-0.681152,0.448425,0.445679,-0.36908,1648,5595,259,6723,-30552
1746,70220,-0.497656,-8.86689,0.205762,-77.8711,-13.2825,69.0326,-16.9678,71.8384,253.052,-0.677765,0.463318,0.427856,-0.377899,1735,5553,262,6723,-30552
1752,70226,-0.521582,-9.48897,0.186621,-78.0853,-10.5029,68.5602,-30.0293,74.8291,252.258,-0.675507,0.471039,0.419067,-0.382233,1947,5490,278,6723,-30552
1758,70232,-0.46416,-10.2833,0.277539,-78.2886,-9.11316,68.4943,-34.6069,73.9746,252.808,-0.671478,0.478241,0.412048,-0.38797,2026,5467,291,6723,-30552
1764,70238,-0.354102,-10.8862,0.497656,-78.5138,-7.72888,68.4174,-38.9404,73.9746,254.333,-0.667236,0.485474,0.40509,-0.393555,2136,5450,309,6723,-30552
1770,70244,-0.468945,-11.5179,0.334961,-78.761,-6.3446,68.335,-43.5791,74.4019,254.761,-0.662811,0.492767,0.398132,-0.399048,2224,5439,330,6748,-30555
1776,70250,-0.579004,-12.9678,0.143555,-79.0192,-4.97681,68.2635,-45.3491,71.8994,254.456,-0.653473,0.507294,0.384369,-0.409576,2342,5391,354,6748,-30555
1782,70256,-0.459375,-13.4224,0.229688,-79.53,-2.30164,68.1317,-44.2505,65.6738,248.535,-0.648651,0.514313,0.377625,-0.414764,2562,5322,408,6748,-30555
1788,70262,-0.172266,-13.7238,0.368457,-79.7827,-1.01074,68.0768,-44.1284,61.8286,243.896,-0.643799,0.521088,0.371002,-0.4198,2670,5295,434,6748,-30555
1794,70268,0.100488,-13.853,0.425879,-80.0409,0.236206,68.0219,-44.5557,59.5703,238.77,-0.638885,0.527618,0.364594,-0.424713,2755,5274,465,6748,-30555
1800,70274,0.244043,-13.6855,0.732129,-80.3046,1.45569,67.9614,-45.8984,58.2886,232.91,-0.634003,0.533936,0.358368,-0.429474,2870,5258,496,6748,-30555
1806,70280,0.875684,-13.3458,1.33984,-80.5847,2.63672,67.8955,-49.3774,57.1289,225.769,-0.624207,0.546082,0.346466,-0.438171,2962,5247,528,6748,-30555
1812,70286,1.15801,-13.6808,1.73223,-81.2494,4.85596,67.7197,-64.9414,56.8848,210.693,-0.619293,0.552063,0.340942,-0.441986,3185,5162,603,6748,-30555
1818,70292,1.01445,-14.2502,2.14375,-81.6449,5.91064,67.6099,-72.5098,56.6406,204.651,-0.614258,0.558105,0.335724,-0.445374,3269,5131,641,6748,-30555
1824,70298,0.952246,-14.8627,2.39258,-82.0734,6.93787,67.5,-79.1626,54.5044,200.928,-0.609131,0.564178,0.33078,-0.448456,3386,5107,682,6748,-30555
1830,70304,1.01445,-15.523,2.59834,-82.5293,7.95959,67.3792,-84.1675,53.894,200.256,-0.603882,0.570251,0.326111,-0.451294,3480,5049,728,6748,-30555
1836,70310,0.44502,-17.0256,2.40215,-82.9962,8.97583,67.2583,-87.0361,53.1006,200.928,-0.592957,0.582428,0.317017,-0.456665,3604,5003,777,6748,-30555
1842,70316,0.406738,-17.8726,2.24902,-83.8861,10.9918,67.0441,-81.1157,44.0674,201.965,-0.587372,0.588379,0.3125,-0.459381,3788,4944,886,6748,-30555
1848,70322,0.598145,-18.3654,2.11504,-84.2761,11.9751,66.9562,-73.0591,39.6118,199.463,-0.581818,0.593994,0.308014,-0.462219,3907,4885,940,6748,-30555
1854,70328,0.808691,-18.2649,2.0959,-84.6222,12.9364,66.8793,-64.6362,36.0107,195.007,-0.576447,0.599213,0.303528,-0.465179,4003,4838,992,6748,-30555
1860,70334,1.10537,-17.8678,2.07676,-84.9298,13.8538,66.8188,-57.9224,31.7993,188.965,-0.57132,0.604034,0.299072,-0.468201,4081,4806,1045,6748,-30555
1866,70340,1.66045,-16.8438,2.11504,-85.2155,14.7382,66.7584,-53.833,29.2358,182.495,-0.561676,0.612549,0.290527,-0.474091,4193,4743,1095,6748,-30555
1872,70346,2.11025,-16.3365,2.40693,-85.7703,16.4136,66.6431,-52.7954,25.9399,173.462,-0.557098,0.616455,0.286499,-0.476868,4356,4617,1196,6748,-30555
1878,70352,2.58398,-15.8628,2.53135,-86.0669,17.2375,66.5826,-56.2134,26.4282,174.072,-0.552551,0.62027,0.282623,-0.479553,4468,4551,1243,6740,-30554
1884,70358,2.56006,-15.5853,2.1916,-86.3965,18.078,66.5002,-61.5845,29.2969,177.612,-0.547882,0.624115,0.278778,-0.482147,4560,4501,1291,6740,-30554
1890,70364,2.22031,-15.7814,2.01934,-86.7535,18.9404,66.4069,-66.04,30.8228,182.19,-0.54303,0.628143,0.274872,-0.48468,4635,4424,1336,6732,-30553
1896,70370,1.22021,-16.638,2.00977,-87.1161,19.8193,66.319,-67.627,28.9917,186.951,-0.532715,0.636444,0.266876,-0.489716,4745,4366,1385,6732,-30553
1902,70376,1.44512,-17.0687,2.40215,-87.8137,21.6431,66.2146,-67.4438,18.0054,198.12,-0.527252,0.640503,0.262817,-0.492523,4917,4220,1479,6732,-30553
1908,70382,1.4499,-17.2457,2.26338,-88.1543,22.5989,66.1871,-68.5425,14.4653,205.139,-0.521606,0.644409,0.258728,-0.495575,4985,4127,1521,6732,-30553
1914,70388,1.19629,-17.2696,1.89014,-88.4894,23.5822,66.1816,-69.1528,8.97217,212.036,-0.515717,0.648315,0.254517,-0.49881,5042,4053,1561,6732,-30553
1920,70394,0.980957,-17.3462,1.82793,-88.8025,24.5984,66.2146,-67.688,1.40381,218.567,-0.509583,0.65213,0.250244,-0.502319,5140,3956,1599,6732,-30553
1926,70400,2.00977,-17.2313,2.88066,-89.0717,25.6311,66.297,-62.7441,-7.62939,223.938,-0.496826,0.659027,0.241547,-0.510315,5227,3880,1636,6732,-30553
1932,70406,3.4501,-15.5374,4.61768,-89.4342,27.724,66.5332,-46.6309,-16.3574,226.746,-0.490479,0.661896,0.23703,-0.514801,5366,3704,1700,6732,-30553
1938,70412,4.31621,-13.9057,5.32588,-89.6155,28.7402,66.6431,-50.4761,-15.625,223.267,-0.484314,0.664551,0.232361,-0.519348,5422,3597,1727,6732,-30553
1944,70418,5.21104,-14.2837,4.97656,-89.8462,29.7235,66.7859,-63.9648,-20.874,215.942,-0.478119,0.667145,0.227875,-0.523682,5470,3512,1751,6732,-30553
1950,70424,6.57002,-16.3365,4.14873,-90.0824,30.6519,66.9507,-68.6646,-26.4893,206.97,-0.471649,0.6698,0.223999,-0.527863,5513,3445,1771,6732,-30553
1956,70430,8.87646,-18.5521,2.10068,-90.2527,31.5253,67.1375,-57.5562,-29.2358,197.083,-0.45929,0.674225,0.217377,-0.535828,5549,3352,1791,6732,-30553
1962,70436,9.98662,-18.2602,1.54561,-90.2802,33.0798,67.5385,-18.9209,-33.0811,173.462,-0.454163,0.675629,0.214081,-0.539734,5607,3210,1825,6732,-30553
1968,70442,11.2882,-17.1165,1.34941,-90.1373,33.75,67.7582,-1.2207,-35.1563,159.607,-0.44989,0.676453,0.210724,-0.543579,5629,3116,1843,6732,-30553
1974,70448,12.8769,-15.5183,1.4499,-89.9231,34.3433,67.9944,12.9395,-35.7666,145.447,-0.446442,0.676697,0.207458,-0.547363,5646,3035,1857,6732,-30553
1980,70454,14.7622,-13.5468,1.59824,-89.6649,34.8486,68.2196,22.3389,-33.6914,129.822,-0.443756,0.676514,0.204315,-0.550934,5660,2966,1869,6732,-30553
1986,70460,18.7195,-9.71865,2.27295,-89.4067,35.2606,68.4229,18.9819,-23.3154,97.4121,-0.440308,0.675415,0.198883,-0.557007,5721,2908,1879,6732,-30553
1992,70466,20.3082,-8.39316,2.71797,-89.0771,35.8264,68.703,7.20215,-14.4043,81.0547,-0.439148,0.674896,0.196899,-0.559265,5823,2810,1888,6715,-30551
1998,70472,21.3274,-7.65146,3.34961,-89.0552,35.9747,68.7634,-7.01904,-5.43213,65.1855,-0.438141,0.674652,0.195587,-0.560791,5866,2770,1892,6715,-30551
2004,70478,21.471,-7.4792,3.90947,-89.1376,36.0406,68.7744,-21.1182,2.92969,48.9502,-0.437225,0.674744,0.194946,-0.561615,5904,2693,1894,6715,-30551
2010,70484,20.5618,-8.10127,4.01953,-89.2969,36.0077,68.7415,-34.0576,8.60596,31.6772,-0.436432,0.67514,0.195007,-0.561737,5937,2625,1897,6715,-30551
2016,70490,17.595,-11.1303,5.01006,-89.5276,35.8813,68.692,-48.3398,11.4136,-4.82178,-0.435272,0.676483,0.197418,-0.560181,5967,2564,1902,6715,-30551
2022,70496,14.3985,-13.14,5.47422,-89.978,35.3485,68.6316,-45.5322,7.20215,-22.583,-0.43515,0.677094,0.199615,-0.558777,6019,2464,1913,6715,-30551
2028,70502,23.5621,-38.6976,3.43574,-91.8292,34.2059,67.7637,-277.954,149.841,-187.256,-0.435486,0.677399,0.202362,-0.557159,6044,2423,1918,6715,-30551
2034,70508,8.58936,-42.2099,12.8242,-92.038,33.1018,68.2086,-96.9238,-62.439,-187.134,-0.434174,0.68399,0.21286,-0.546082,6020,2385,1926,6715,-30551
2040,70514,4.01475,-24.7584,-1.04795,-90.2966,31.9647,69.2468,230.591,-167.664,-195.435,-0.436188,0.682007,0.222931,-0.542938,6004,2350,1935,6715,-30551
2046,70520,-0.832617,9.82871,-5.98623,-88.3905,30.9485,69.6204,338.074,-62.7441,-166.687,-0.46109,0.660797,0.22644,-0.54715,5994,2353,1943,6715,-30551
2052,70526,-7.35479,-1.50732,-6.21113,-87.9675,28.7457,68.725,-25.2686,69.9463,-196.472,-0.472565,0.656372,0.226501,-0.542603,5992,2335,1952,6715,-30551
2058,70532,-11.8002,-14.9105,-0.77998,-88.2642,27.6855,68.6206,-50.9033,15.2588,-181.213,-0.477997,0.656128,0.232269,-0.535706,5946,2357,1955,6715,-30551
2064,70538,-15.3508,-13.5659,7.23037,-87.8961,26.7847,68.5986,71.8994,1.0376,-151.184,-0.481689,0.655212,0.239227,-0.530396,5912,2368,1954,6715,-30551
2070,70544,-12.1112,-4.71338,5.21104,-87.1051,25.8673,68.9722,122.498,-72.4487,-153.87,-0.487946,0.651703,0.242676,-0.527435,5887,2413,1954,6715,-30551
2076,70550,-9.39326,3.72285,-4.77559,-86.5173,24.906,69.6533,-50.5371,-161.438,-176.758,-0.499298,0.638977,0.253204,-0.527405,5871,2447,1951,6715,-30551
2082,70556,-5.24932,-9.53203,-4.79473,-86.9128,22.5604,71.4551,-177.917,-192.749,-226.257,-0.500732,0.634003,0.263458,-0.527039,5759,2489,1938,6715,-30551
2088,70562,0.0382813,-23.7822,-2.12939,-87.3248,21.2421,72.6691,-175.171,-237.732,-231.079,-0.499298,0.630463,0.278595,-0.524902,5718,2542,1929,6715,-30551
2094,70568,7.76631,-26.7107,7.67539,-87.1326,20.0116,73.8281,-44.5557,-229.37,-215.149,-0.497314,0.625641,0.294647,-0.523773,5683,2586,1918,6715,-30551
2100,70574,16.571,-21.9926,13.4511,-86.3965,18.902,74.4434,102.783,-129.089,-194.397,-0.498535,0.618225,0.306976,-0.524323,5654,2621,1903,6715,-30551
2106,70580,6.5126,-0.488086,6.1585,-85.7648,17.9077,74.2731,31.9214,123.535,-174.194,-0.513031,0.604706,0.31488,-0.521393,5630,2646,1886,6715,-30551
2112,70586,-2.04805,-8.33096,1.3207,-86.2537,16.051,72.735,-47.9126,144.287,-174.377,-0.520081,0.604004,0.316467,-0.514221,5597,2756,1848,6698,-30549
2118,70592,-5.55078,-18.6382,-2.02891,-86.6492,15.1282,72.1417,-51.0864,102.722,-173.157,-0.525269,0.605499,0.319305,-0.505371,5542,2794,1830,6698,-30549
2124,70598,-4.64639,-17.4036,-2.15332,-86.7261,14.2548,71.8341,-3.41797,49.8657,-160.706,-0.529663,0.60614,0.323059,-0.497589,5501,2822,1816,6698,-30549
2130,70604,-8.04385,-17.6668,-13.5994,-87.0557,13.5077,71.9,-70.2515,-20.3857,-133.606,-0.53418,0.604675,0.326599,-0.492157,5475,2885,1809,6698,-30549
2136,70610,6.56045,-17.418,6.18721,-87.2699,12.9749,72.5537,-84.8999,-163.757,-43.0298,-0.533539,0.601074,0.339752,-0.488342,5410,2937,1805,6698,-30549
2142,70616,8.0582,-18.4946,2.92373,-87.3523,12.3047,73.7402,12.9395,-74.7681,-51.0254,-0.530151,0.598694,0.346802,-0.490021,5311,3023,1808,6698,-30549
2148,70622,4.10088,-7.13945,1.32549,-87.226,11.9257,73.6688,26.123,8.36182,-61.4624,-0.530823,0.595764,0.349915,-0.490631,5273,3061,1813,6698,-30549
2154,70628,-1.55996,-8.06777,-2.52656,-87.3468,11.64,73.4711,-16.9067,35.5835,-45.2271,-0.533295,0.594177,0.351105,-0.489044,5239,3092,1815,6698,-30549
2160,70634,-3.82813,-10.9149,0.890039,-87.4786,11.4038,73.3942,-24.353,11.4746,-34.3018,-0.534729,0.594391,0.352112,-0.486481,5209,3120,1819,6698,-30549
2166,70640,-1.21064,-7.82373,2.07676,-87.4896,11.1676,73.4875,-8.30078,-22.0947,-33.6914,-0.535828,0.593475,0.355377,-0.484039,5185,3144,1821,6698,-30549
2172,70646,0.0191406,-8.1874,-0.0669922,-87.6434,10.6952,73.6414,-28.1372,-10.1318,-35.0342,-0.536133,0.592438,0.357361,-0.48349,5147,3183,1825,6698,-30549
2178,70652,0.607715,-10.8671,0.535937,-87.8137,10.5194,73.6084,-34.4849,3.2959,-24.6582,-0.536285,0.592163,0.359314,-0.482178,5132,3198,1827,6698,-30549
2184,70658,-0.387598,-11.7571,0.459375,-87.9236,10.3711,73.537,-21.2402,11.2305,-19.2261,-0.536285,0.592468,0.360809,-0.480682,5069,3211,1830,6698,-30549
2190,70664,-1.59824,-10.6183,-0.823047,-87.984,10.2557,73.4821,-11.5967,8.05664,-12.6953,-0.536621,0.592712,0.361694,-0.47934,5013,3220,1831,6698,-30549
2196,70670,-2.03369,-10.4508,-1.00967,-88.0334,10.1569,73.4546,-10.7422,1.46484,-10.0098,-0.537262,0.592773,0.362915,-0.477631,4965,3228,1832,6698,-30549
2202,70676,-1.41641,-10.2259,-0.354102,-88.0664,9.9646,73.4656,-1.40381,-5.06592,-8.54492,-0.537506,0.59259,0.363556,-0.477081,4881,3242,1834,6698,-30549
2208,70682,-0.957031,-9.97705,-0.344531,-88.0554,9.8877,73.4546,2.19727,-1.40381,-6.71387,-0.537842,0.592285,0.364075,-0.476715,4845,3249,1837,6698,-30549
2214,70688,-1.26807,-10.001,-0.497656,-88.0389,9.81628,73.4161,3.72314,4.3335,-5.7373,-0.538269,0.59198,0.36438,-0.476379,4813,3256,1838,6698,-30549
2220,70694,-1.94277,-10.0728,-0.641211,-88.0115,9.75037,73.3777,5.61523,4.45557,-5.43213,-0.538788,0.591797,0.364502,-0.475922,4785,3262,1839,6698,-30549
2226,70700,-1.54561,-9.97705,-0.397168,-87.9785,9.68445,73.3557,7.14111,1.34277,-5.37109,-0.539856,0.591309,0.364624,-0.47522,4760,3267,1839,6698,-30549
2232,70706,-1.71309,-9.8335,-0.430664,-87.9016,9.55811,73.2733,9.33838,6.5918,-6.53076,-0.540466,0.591003,0.364655,-0.474915,4720,3274,1839,6698,-30549
2238,70712,-2.04805,-9.86699,-0.60293,-87.8632,9.48669,73.2184,10.0098,6.89697,-7.75146,-0.541138,0.590759,0.364594,-0.474487,4705,3276,1839,6698,-30549
2244,70718,-2.00498,-10.001,-0.540723,-87.8137,9.41528,73.1799,11.3525,4.76074,-8.54492,-0.54184,0.590485,0.364502,-0.47406,4690,3278,1842,6698,-30549
2250,70724,-1.71787,-9.94834,-0.459375,-87.7533,9.34387,73.1415,12.9395,3.60107,-9.09424,-0.542542,0.590149,0.364471,-0.473694,4676,3279,1845,6698,-30549
2256,70730,-1.53125,-10.1062,-0.301465,-87.6929,9.27246,73.103,14.1602,4.27246,-8.72803,-0.544067,0.589355,0.364349,-0.473053,4663,3280,1845,6698,-30549
2262,70736,-1.65566,-10.0153,-0.378027,-87.5446,9.14063,73.0151,17.395,5.00488,-7.93457,-0.544861,0.588959,0.364197,-0.472778,4637,3320,1836,6698,-30549
2268,70742,-1.55996,-9.89092,-0.124414,-87.4677,9.08569,72.9712,18.3716,4.57764,-7.20215,-0.545685,0.588501,0.363983,-0.472504,4628,3355,1830,6698,-30549
2274,70748,-1.39248,-9.76172,0.133984,-87.3853,9.03076,72.9272,18.2495,5.67627,-6.83594,-0.546509,0.588074,0.363739,-0.472321,4620,3387,1823,6698,-30549
2280,70754,-1.30156,-9.75215,0.267969,-87.3029,8.98132,72.8723,18.4326,7.26318,-5.67627,-0.547333,0.587646,0.363464,-0.472107,4615,3414,1819,6698,-30549
2286,70760,-1.55996,-9.63252,-0.0239258,-87.226,8.93738,72.8064,18.2495,9.27734,-5.12695,-0.548981,0.586975,0.362701,-0.471619,4612,3438,1815,6698,-30549
2292,70766,-1.69873,-9.75215,-0.210547,-87.0886,8.86047,72.6636,17.0288,10.437,-4.88281,-0.549805,0.586731,0.362244,-0.471313,4608,3475,1808,6698,-30549
2298,70772,-1.62217,-9.8335,-0.062207,-87.0117,8.82202,72.5977,17.7612,9.52148,-4.57764,-0.550598,0.586487,0.361816,-0.471008,4605,3490,1804,6698,-30549
2304,70778,-1.56953,-9.89092,-0.0334961,-86.9348,8.78357,72.5317,19.043,9.27734,-4.57764,-0.551392,0.586212,0.361359,-0.470764,4604,3504,1800,6698,-30549
2310,70784,-1.59346,-9.90527,-0.143555,-86.8469,8.75061,72.4658,20.3857,10.1318,-4.5166,-0.552216,0.585907,0.360901,-0.47052,4603,3517,1800,6698,-30549
2316,70790,-1.50254,-9.95791,-0.14834,-86.7535,8.71765,72.3944,22.0947,10.6201,-4.45557,-0.553955,0.585266,0.359833,-0.470123,4603,3527,1798,6698,-30549
2322,70796,-1.36855,-9.97227,0.062207,-86.5338,8.66272,72.2571,26.9775,10.3149,-3.11279,-0.554871,0.584869,0.359192,-0.469971,4604,3543,1797,6698,-30549
2328,70802,-1.34941,-9.8957,0,-86.4075,8.64624,72.1802,29.9683,11.3525,-2.01416,-0.555847,0.584442,0.358521,-0.469879,4606,3549,1791,6698,-30549
2334,70808,-1.53604,-9.72822,-0.210547,-86.2701,8.62976,72.1033,31.311,11.9629,-1.40381,-0.556885,0.583984,0.357697,-0.469849,4606,3554,1787,6698,-30549
2340,70814,-1.61738,-9.74258,-0.191406,-86.1273,8.61877,72.0374,32.1655,10.9253,-0.976563,-0.557953,0.583496,0.356842,-0.469849,4607,3559,1783,6698,-30549
2346,70820,-1.72266,-9.62295,0.0813477,-85.979,8.61328,71.9714,33.4473,9.39941,-0.549316,-0.560059,0.582428,0.355072,-0.470001,4608,3563,1778,6698,-30549
2352,70826,-1.77051,-9.50811,-0.0239258,-85.6714,8.59131,71.8726,34.1797,5.79834,-0.915527,-0.561096,0.581818,0.354218,-0.470184,4608,3566,1766,6706,-30550
2358,70832,-2.19639,-9.35498,0.703418,-85.5176,8.5968,71.8726,32.6538,-1.95313,2.38037,-0.562103,0.581146,0.353424,-0.470398,4609,3565,1761,6706,-30550
2364,70838,-1.35898,-9.49375,0.449805,-85.3693,8.58582,71.8726,32.4707,-3.479,0.183105,-0.562866,0.580444,0.352753,-0.470856,4609,3563,1753,6706,-30550
