TimeSinceCollection,Timestamp,AccX,AccY,AccZ,AngleRoll,AnglePitch,AngleYaw,AngularVelX,AngularVelY,             AngularVelZ,Q1,Q2,Q3,Q4,MagX,MagY,MagZ,Height,Airpressure
0,440598,-0.0143555,0.717773,10.0871,4.05945,0.10437,-26.9879,0,0,0,-0.971741,-0.0346375,0.00735474,0.233215,49779,43037,43151,6112,-30479
6,440604,0,0.717773,10.0536,4.05945,0.10437,-26.9879,0,0,0,-0.971741,-0.034668,0.00735474,0.233215,49780,43039,43148,6112,-30479
12,440610,-0.00478516,0.732129,10.1062,4.05945,0.10437,-26.9879,0,0,0,-0.971741,-0.034668,0.00735474,0.233215,49780,43041,43147,6112,-30479
18,440616,-0.00957031,0.712988,10.068,4.05945,0.10437,-26.9879,0,0,0,-0.971741,-0.034668,0.00735474,0.233215,49781,43043,43147,6112,-30479
24,440622,-0.0143555,0.708203,10.0919,4.05945,0.10437,-26.9879,0,0,0,-0.971741,-0.034668,0.00735474,0.233215,49780,43045,43147,6112,-30479
30,440628,-0.00957031,0.708203,10.0536,4.05945,0.10437,-26.9879,0,0,0,-0.971741,-0.034668,0.00735474,0.233215,49776,43046,43147,6112,-30479
36,440634,-0.0287109,0.712988,10.0584,4.05945,0.10437,-26.9879,0,0,0,-0.971741,-0.034668,0.00735474,0.233215,49773,43047,43147,6112,-30479
42,440640,-0.0191406,0.717773,10.0584,4.05945,0.10437,-26.9879,0,0,0,-0.971741,-0.034668,0.00735474,0.233215,49771,43047,43146,6112,-30479
48,440646,-0.0334961,0.703418,10.0728,4.05945,0.10437,-26.9879,0,0,0,-0.971741,-0.034668,0.00735474,0.233215,49769,43047,43149,6112,-30479
54,440652,-0.0191406,0.698633,10.068,4.05945,0.10437,-26.9879,0,0,0,-0.971741,-0.034668,0.00735474,0.233215,49768,43048,43150,6112,-30479
60,440658,-0.0143555,0.732129,10.0345,4.05945,0.10437,-26.9879,0,0,0,-0.971741,-0.034668,0.00735474,0.233215,49762,43048,43152,6112,-30479
66,440664,-0.0143555,0.722559,10.0823,4.05945,0.10437,-26.9879,0,0,0,-0.971741,-0.034668,0.00735474,0.233215,49760,43048,43151,6112,-30479
72,440670,-0.0191406,0.708203,10.0775,4.05945,0.10437,-26.9879,0,0,0,-0.971741,-0.034668,0.00735474,0.233215,49759,43048,43150,6112,-30479
78,440676,-0.0143555,0.717773,10.0632,4.05945,0.10437,-26.9879,0,0,0,-0.971741,-0.034668,0.00735474,0.233215,49759,43048,43151,6112,-30479
84,440682,0,0.722559,10.0823,4.05945,0.10437,-26.9879,0,0,0,-0.971741,-0.034668,0.00735474,0.233215,49761,43049,43154,6112,-30479
90,440688,-0.0382813,0.727344,10.068,4.05945,0.10437,-26.9879,0,0,0,-0.971741,-0.034668,0.00735474,0.233215,49761,43051,43160,6112,-30479
96,440694,-0.0287109,0.689063,10.0919,4.05945,0.10437,-26.9879,0,0,0,-0.971741,-0.034668,0.00735474,0.233215,49761,43052,43164,6112,-30479
102,440700,-0.00478516,0.717773,10.0919,4.05945,0.10437,-26.9879,0,0,0,-0.971741,-0.034668,0.00735474,0.233215,49761,43054,43164,6112,-30479
108,440706,-0.00957031,0.708203,10.0967,4.05945,0.10437,-26.9879,0,0,0,-0.971741,-0.034668,0.00735474,0.233215,49762,43055,43163,6112,-30479
114,440712,-0.0239258,0.722559,10.0632,4.05945,0.10437,-26.9879,0,0,0,-0.971741,-0.034668,0.00735474,0.233215,49764,43057,43158,6112,-30479
120,440718,-0.0334961,0.741699,10.0632,4.05945,0.10437,-26.9879,0,0,0,-0.971741,-0.034668,0.00735474,0.233215,49766,43059,43148,6112,-30479
126,440724,-0.0287109,0.717773,10.0536,4.05945,0.10437,-26.9879,0,0,0,-0.971741,-0.034668,0.00735474,0.233215,49767,43061,43147,6112,-30479
132,440730,-0.0287109,0.717773,10.0584,4.05945,0.10437,-26.9879,0,0,0,-0.971741,-0.034668,0.00735474,0.233215,49766,43062,43144,6112,-30479
138,440736,-0.0287109,0.708203,10.0536,4.05945,0.10437,-26.9879,0,0,0,-0.971741,-0.034668,0.00735474,0.233215,49765,43063,43144,6112,-30479
144,440742,-0.0287109,0.717773,10.0632,4.05945,0.10437,-26.9879,0,0,0,-0.971741,-0.034668,0.00735474,0.233215,49764,43063,43145,6112,-30479
150,440748,-0.0191406,0.708203,10.0871,4.05945,0.10437,-26.9879,0,0,0,-0.971741,-0.034668,0.00735474,0.233215,49763,43061,43150,6112,-30479
156,440754,-0.0239258,0.712988,10.0871,4.05945,0.10437,-26.9879,0,0,0,-0.971741,-0.034668,0.00735474,0.233215,49763,43060,43153,6112,-30479
162,440760,-0.00957031,0.674707,10.0584,4.05945,0.10437,-26.9879,0,0,0,-0.971741,-0.034668,0.00735474,0.233215,49763,43060,43153,6112,-30479
168,440766,-0.0143555,0.708203,10.068,4.05945,0.10437,-26.9879,0,0,0,-0.971741,-0.034668,0.00735474,0.233215,49764,43063,43158,6112,-30479
174,440772,-0.0143555,0.689063,10.0775,4.05945,0.10437,-26.9879,0,0,0,-0.971741,-0.034668,0.00735474,0.233215,49765,43065,43161,6112,-30479
180,440778,-0.0239258,0.722559,10.0632,4.05945,0.10437,-26.9879,0,0,0,-0.971741,-0.034668,0.00735474,0.233215,49767,43065,43165,6112,-30479
186,440784,-0.0430664,0.717773,10.0775,4.05945,0.10437,-26.9879,0,0,0,-0.971741,-0.034668,0.00735474,0.233215,49768,43063,43165,6112,-30479
192,440790,-0.00957031,0.712988,10.0823,4.05945,0.10437,-26.9879,0,0,0,-0.971741,-0.034668,0.00735474,0.233215,49770,43061,43165,6112,-30479
198,440796,-0.0334961,0.708203,10.068,4.05945,0.10437,-26.9879,0,0,0,-0.971741,-0.034668,0.00735474,0.233215,49772,43058,43164,6112,-30479
204,440802,-0.0239258,0.708203,10.0536,4.05945,0.10437,-26.9879,0,0,0,-0.971741,-0.034668,0.00735474,0.233215,49773,43057,43161,6112,-30479
210,440808,-0.00957031,0.708203,10.0728,4.05945,0.10437,-26.9879,0,0,0,-0.971741,-0.034668,0.00735474,0.233215,49771,43059,43158,6112,-30479
216,440814,-0.0191406,0.708203,10.068,4.05945,0.10437,-26.9879,0,0,0,-0.971741,-0.034668,0.00735474,0.233215,49771,43060,43157,6112,-30479
222,440820,-0.0287109,0.712988,10.0871,4.05945,0.10437,-26.9879,0,0,0,-0.971741,-0.034668,0.00735474,0.233215,49770,43060,43158,6112,-30479
228,440826,-0.0287109,0.722559,10.068,4.05945,0.10437,-26.9879,0,0,0,-0.971741,-0.034668,0.00735474,0.233215,49769,43058,43158,6112,-30479
234,440832,-0.0334961,0.717773,10.0823,4.05945,0.10437,-26.9879,0,0,0,-0.971741,-0.034668,0.00732422,0.233215,49768,43058,43157,6112,-30479
240,440838,-0.00957031,0.708203,10.1015,4.05945,0.10437,-26.9879,0,0,0,-0.971741,-0.034668,0.00732422,0.233215,49770,43058,43151,6112,-30479
246,440844,-0.0287109,0.684277,10.0871,4.05945,0.10437,-26.9879,0,0,0,-0.971741,-0.034668,0.00732422,0.233215,49772,43058,43147,6112,-30479
252,440850,-0.0239258,0.698633,10.0775,4.05945,0.10437,-26.9879,0,0,0,-0.971741,-0.034668,0.00732422,0.233215,49776,43057,43144,6112,-30479
258,440856,0.00478516,0.698633,10.1015,4.05945,0.10437,-26.9879,0,0,0,-0.971741,-0.034668,0.00732422,0.233215,49777,43056,43136,6112,-30479
264,440862,-0.0191406,0.727344,10.068,4.05945,0.10437,-26.9879,0,0,0,-0.971741,-0.034668,0.00732422,0.233215,49777,43055,43132,6112,-30479
270,440868,-0.00478516,0.712988,10.068,4.05945,0.10437,-26.9879,0,0,0,-0.971741,-0.034668,0.00732422,0.233215,49773,43053,43132,6112,-30479
276,440874,0,0.703418,10.0728,4.05945,0.10437,-26.9879,0,0,0,-0.971741,-0.034668,0.00732422,0.233215,49771,43052,43136,6112,-30479
282,440880,-0.0287109,0.708203,10.0728,4.05945,0.10437,-26.9879,0,0,0,-0.971741,-0.034668,0.00732422,0.233215,49769,43051,43141,6112,-30479
288,440886,-0.00957031,0.732129,10.0919,4.05945,0.10437,-26.9879,0,0,0,-0.971741,-0.034668,0.00732422,0.233215,49766,43049,43146,6112,-30479
294,440892,0.00478516,0.712988,10.0728,4.05945,0.10437,-26.9879,0,0,0,-0.971741,-0.034668,0.00732422,0.233215,49764,43049,43149,6112,-30479
300,440898,-0.0191406,0.732129,10.0632,4.05945,0.10437,-26.9879,0,0,0,-0.971741,-0.034668,0.00732422,0.233215,49762,43047,43151,6112,-30479
306,440904,-0.0334961,0.712988,10.068,4.05945,0.10437,-26.9879,0,0,0,-0.971741,-0.034668,0.00732422,0.233215,49762,43046,43153,6112,-30479
312,440910,0,0.712988,10.0584,4.05945,0.10437,-26.9879,0,0,0,-0.971741,-0.034668,0.00732422,0.233215,49764,43046,43157,6112,-30479
318,440916,-0.0191406,0.722559,10.0871,4.05945,0.10437,-26.9879,0,0,0,-0.971741,-0.034668,0.00732422,0.233215,49765,43047,43162,6112,-30479
324,440922,-0.00957031,0.727344,10.0967,4.05945,0.10437,-26.9879,0,0,0,-0.971741,-0.034668,0.00732422,0.233215,49767,43046,43165,6112,-30479
330,440928,-0.0334961,0.717773,10.0728,4.05945,0.10437,-26.9879,0,0,0,-0.971741,-0.034668,0.00732422,0.233215,49772,43045,43166,6112,-30479
336,440934,0.00478516,0.712988,10.0871,4.05945,0.10437,-26.9879,0,0,0,-0.971741,-0.034668,0.00732422,0.233215,49773,43044,43164,6112,-30479
342,440940,-0.0287109,0.708203,10.0919,4.05945,0.10437,-26.9879,0,0,0,-0.971741,-0.034668,0.00732422,0.233215,49773,43044,43164,6112,-30479
348,440946,-0.0191406,0.722559,10.0871,4.05945,0.10437,-26.9879,0,0,0,-0.971741,-0.034668,0.00732422,0.233215,49772,43045,43166,6112,-30479
354,440952,-0.0191406,0.717773,10.111,4.05945,0.10437,-26.9879,0,0,0,-0.971741,-0.034668,0.00732422,0.233215,49769,43045,43169,6112,-30479
360,440958,-0.0287109,0.703418,10.0584,4.05945,0.10437,-26.9879,0,0,0,-0.971741,-0.034668,0.00732422,0.233215,49763,43044,43170,6112,-30479
366,440964,-0.00957031,0.712988,10.0632,4.05945,0.10437,-26.9879,0,0,0,-0.971741,-0.034668,0.00732422,0.233215,49761,43043,43169,6112,-30479
372,440970,-0.0143555,0.717773,10.0775,4.05945,0.10437,-26.9879,0,0,0,-0.971741,-0.034668,0.00732422,0.233215,49759,43041,43164,6112,-30479
378,440976,-0.0239258,0.712988,10.0536,4.05945,0.10437,-26.9879,0,0,0,-0.971741,-0.034668,0.00732422,0.233215,49759,43039,43159,6112,-30479
384,440982,-0.0143555,0.689063,10.0775,4.05945,0.10437,-26.9879,0,0,0,-0.971741,-0.034668,0.00732422,0.233215,49757,43038,43156,6112,-30479
390,440988,-0.0143555,0.727344,10.068,4.05945,0.10437,-26.9879,0,0,0,-0.971741,-0.034668,0.00732422,0.233215,49756,43038,43152,6112,-30479
396,440994,-0.0191406,0.717773,10.0584,4.05945,0.10437,-26.9879,0,0,0,-0.971741,-0.034668,0.00732422,0.233215,49757,43038,43153,6112,-30479
402,441000,-0.0287109,0.712988,10.0536,4.05945,0.10437,-26.9879,0,0,0,-0.971741,-0.034668,0.00732422,0.233215,49759,43039,43155,6112,-30479
408,441006,-0.0191406,0.722559,10.0775,4.05945,0.10437,-26.9879,0,0,0,-0.971741,-0.034668,0.00732422,0.233215,49762,43040,43157,6112,-30479
414,441012,-0.0287109,0.712988,10.0823,4.05945,0.10437,-26.9879,0,0,0,-0.971741,-0.034668,0.00732422,0.233215,49764,43040,43160,6112,-30479
420,441018,-0.0239258,0.712988,10.0775,4.05945,0.10437,-26.9879,0,0,0,-0.971741,-0.034668,0.00732422,0.233215,49767,43042,43164,6112,-30479
426,441024,-0.00478516,0.717773,10.0871,4.05945,0.10437,-26.9879,0,0,0,-0.971741,-0.034668,0.00732422,0.233215,49769,43043,43166,6112,-30479
432,441030,-0.0478516,0.712988,10.0488,4.05945,0.10437,-26.9879,0,0,0,-0.971741,-0.034668,0.00732422,0.233215,49770,43044,43165,6112,-30479
438,441036,0,0.703418,10.0823,4.05945,0.10437,-26.9879,0,0,0,-0.971741,-0.034668,0.00732422,0.233215,49768,43044,43164,6112,-30479
444,441042,-0.0334961,0.732129,10.0871,4.05945,0.10437,-26.9879,0,0,0,-0.971741,-0.034668,0.00732422,0.233215,49766,43043,43166,6112,-30479
450,441048,-0.0191406,0.717773,10.0919,4.05945,0.10437,-26.9879,0,0,0,-0.971741,-0.034668,0.00732422,0.233215,49765,43041,43165,6112,-30479
456,441054,-0.0239258,0.703418,10.068,4.05945,0.10437,-26.9879,0,0,0,-0.971741,-0.034668,0.00732422,0.233215,49765,43041,43164,6112,-30479
462,441060,-0.0191406,0.708203,10.0584,4.05945,0.10437,-26.9879,0,0,0,-0.971741,-0.034668,0.00732422,0.233215,49764,43040,43161,6112,-30479
468,441066,0.00957031,0.717773,10.068,4.05945,0.10437,-26.9879,0,0,0,-0.971741,-0.034668,0.00732422,0.233215,49765,43039,43159,6112,-30479
474,441072,-0.0239258,0.698633,10.0536,4.05945,0.10437,-26.9879,0,0,0,-0.971741,-0.034668,0.00732422,0.233215,49764,43037,43158,6112,-30479
480,441078,0.00478516,0.732129,10.0584,4.05945,0.10437,-26.9879,0,0,0,-0.971741,-0.034668,0.00732422,0.233215,49765,43036,43155,6112,-30479
486,441084,-0.0143555,0.703418,10.068,4.05945,0.10437,-26.9879,0,0,0,-0.971741,-0.034668,0.00732422,0.233215,49765,43037,43158,6112,-30479
492,441090,0,0.712988,10.0728,4.05945,0.10437,-26.9879,0,0,0,-0.971741,-0.034668,0.00732422,0.233215,49764,43039,43161,6112,-30479
498,441096,-0.0287109,0.722559,10.0775,4.05945,0.10437,-26.9879,0,0,0,-0.971741,-0.034668,0.00732422,0.233215,49763,43039,43160,6112,-30479
504,441102,-0.0430664,0.717773,10.0871,4.05945,0.10437,-26.9879,0,0,0,-0.971741,-0.034668,0.00732422,0.233215,49763,43040,43160,6112,-30479
510,441108,-0.0143555,0.708203,10.068,4.05945,0.10437,-26.9879,0,0,0,-0.971741,-0.034668,0.00732422,0.233215,49764,43043,43157,6112,-30479
516,441114,-0.0191406,0.717773,10.0823,4.05945,0.10437,-26.9879,0,0,0,-0.971741,-0.034668,0.00732422,0.233215,49766,43043,43158,6112,-30479
522,441120,-0.0239258,0.708203,10.0871,4.05945,0.10437,-26.9879,0,0,0,-0.971741,-0.034668,0.00732422,0.233215,49769,43044,43160,6112,-30479
528,441126,-0.0239258,0.712988,10.0728,4.05945,0.10437,-26.9879,0,0,0,-0.971741,-0.034668,0.00732422,0.233215,49770,43045,43162,6112,-30479
534,441132,-0.00957031,0.722559,10.0871,4.05945,0.10437,-26.9879,0,0,0,-0.971741,-0.034668,0.00732422,0.233215,49770,43045,43165,6112,-30479
540,441138,-0.0334961,0.708203,10.0919,4.05945,0.10437,-26.9879,0,0,0,-0.971741,-0.034668,0.00732422,0.233215,49770,43048,43174,6112,-30479
546,441144,-0.0239258,0.712988,10.0871,4.05945,0.10437,-26.9879,0,0,0,-0.971741,-0.034668,0.00732422,0.233215,49771,43048,43177,6112,-30479
552,441150,0.00478516,0.708203,10.0919,4.05945,0.10437,-26.9879,0,0,0,-0.971741,-0.034668,0.00732422,0.233215,49770,43048,43179,6112,-30479
558,441156,-0.0334961,0.708203,10.0488,4.05945,0.10437,-26.9879,0,0,0,-0.971741,-0.034668,0.00732422,0.233215,49770,43048,43179,6112,-30479
564,441162,-0.0287109,0.708203,10.0488,4.05945,0.10437,-26.9879,0,0,0,-0.971741,-0.034668,0.00732422,0.233215,49770,43049,43179,6112,-30479
570,441168,-0.00478516,0.703418,10.0728,4.05945,0.10437,-26.9879,0,0,0,-0.971741,-0.034668,0.00732422,0.233215,49773,43049,43173,6112,-30479
576,441174,-0.0239258,0.703418,10.0871,4.05945,0.10437,-26.9879,0,0,0,-0.971741,-0.034668,0.00732422,0.233215,49775,43048,43170,6112,-30479
582,441180,0,0.708203,10.0775,4.05945,0.10437,-26.9879,0,0,0,-0.971741,-0.034668,0.00732422,0.233215,49774,43047,43169,6112,-30479
588,441186,-0.0143555,0.712988,10.0632,4.05945,0.10437,-26.9879,0,0,0,-0.971741,-0.034668,0.00732422,0.233215,49773,43046,43166,6112,-30479
594,441192,-0.00957031,0.708203,10.0728,4.05945,0.10437,-26.9879,0,0,0,-0.971741,-0.034668,0.00732422,0.233215,49770,43046,43161,6112,-30479
600,441198,-0.0239258,0.722559,10.0728,4.05945,0.10437,-26.9879,0,0,0,-0.971741,-0.034668,0.00732422,0.233215,49769,43046,43152,6112,-30479
606,441204,-0.0143555,0.746484,10.1015,4.05945,0.10437,-26.9879,0,0,0,-0.971741,-0.034668,0.00732422,0.233215,49769,43047,43152,6112,-30479
612,441210,-0.00957031,0.722559,10.0871,4.05945,0.10437,-26.9879,0,0,0,-0.971741,-0.034668,0.00732422,0.233215,49768,43048,43154,6112,-30479
618,441216,0,0.698633,10.0919,4.05945,0.10437,-26.9879,0,0,0,-0.971741,-0.034668,0.00732422,0.233215,49767,43048,43154,6112,-30479
624,441222,-0.0287109,0.722559,10.0775,4.05945,0.10437,-26.9879,0,0,0,-0.971741,-0.034668,0.00732422,0.233215,49766,43049,43155,6112,-30479
630,441228,-0.0430664,0.703418,10.0823,4.05945,0.10437,-26.9879,0,0,0,-0.971741,-0.034668,0.00732422,0.233215,49766,43050,43152,6112,-30479
636,441234,-0.0334961,0.703418,10.0871,4.05945,0.10437,-26.9879,0,0,0,-0.971741,-0.034668,0.00732422,0.233215,49766,43051,43149,6112,-30479
642,441240,-0.0287109,0.717773,10.0728,4.05945,0.10437,-26.9879,0,0,0,-0.971741,-0.034668,0.00732422,0.233215,49766,43050,43145,6112,-30479
648,441246,0.00478516,0.717773,10.0632,4.05945,0.10437,-26.9879,0,0,0,-0.971741,-0.034668,0.00732422,0.233215,49766,43049,43145,6112,-30479
654,441252,-0.0191406,0.717773,10.0728,4.05945,0.10437,-26.9879,0,0,0,-0.971741,-0.034668,0.00732422,0.233215,49766,43047,43148,6112,-30479
660,441258,-0.00957031,0.732129,10.0823,4.05945,0.10437,-26.9879,0,0,0,-0.971741,-0.034668,0.00732422,0.233215,49767,43043,43156,6112,-30479
666,441264,-0.0143555,0.717773,10.0823,4.05945,0.10437,-26.9879,0,0,0,-0.971741,-0.034668,0.00732422,0.233215,49769,43042,43163,6112,-30479
672,441270,-0.00957031,0.698633,10.068,4.05945,0.10437,-26.9879,0,0,0,-0.971741,-0.034668,0.00732422,0.233215,49770,43041,43167,6112,-30479
678,441276,-0.0382813,0.693848,10.0775,4.05945,0.10437,-26.9879,0,0,0,-0.971741,-0.034668,0.00732422,0.233215,49770,43040,43171,6112,-30479
684,441282,-0.0334961,0.708203,10.0919,4.05945,0.10437,-26.9879,0,0,0,-0.971741,-0.034668,0.00732422,0.233215,49771,43039,43173,6112,-30479
690,441288,-0.00957031,0.693848,10.0632,4.05945,0.10437,-26.9879,0,0,0,-0.971741,-0.034668,0.00732422,0.233215,49769,43038,43172,6112,-30479
696,441294,-0.0239258,0.712988,10.068,4.05945,0.10437,-26.9879,0,0,0,-0.971741,-0.034668,0.00732422,0.233215,49767,43037,43170,6112,-30479
702,441300,-0.0239258,0.698633,10.068,4.05945,0.10437,-26.9879,0,0,0,-0.971741,-0.034668,0.00732422,0.233215,49768,43036,43171,6112,-30479
708,441306,-0.0287109,0.732129,10.0823,4.05945,0.109863,-26.9879,0,0,0,-0.971741,-0.034668,0.00732422,0.233215,49768,43035,43170,6112,-30479
714,441312,0,0.698633,10.0584,4.05945,0.109863,-26.9879,0,0,0,-0.971741,-0.034668,0.00732422,0.233215,49768,43035,43171,6120,-30480
720,441318,-0.0191406,0.689063,10.0632,4.05945,0.109863,-26.9879,0,0,0,-0.971741,-0.034668,0.00732422,0.233215,49769,43035,43173,6120,-30480
726,441324,-0.0287109,0.703418,10.068,4.05945,0.109863,-26.9879,0,0,0,-0.971741,-0.034668,0.00732422,0.233215,49770,43034,43173,6120,-30480
732,441330,-0.0287109,0.727344,10.068,4.05945,0.109863,-26.9879,0,0,0,-0.971741,-0.034668,0.00732422,0.233215,49770,43033,43176,6120,-30480
738,441336,-0.00957031,0.727344,10.0728,4.05945,0.109863,-26.9879,0,0,0,-0.971741,-0.034668,0.00732422,0.233215,49771,43033,43176,6120,-30480
744,441342,0,0.717773,10.0823,4.05945,0.109863,-26.9879,0,0,0,-0.971741,-0.034668,0.00732422,0.233215,49770,43034,43176,6120,-30480
750,441348,-0.0239258,0.703418,10.0823,4.05945,0.109863,-26.9879,0,0,0,-0.971741,-0.034668,0.00732422,0.233215,49765,43037,43174,6120,-30480
756,441354,-0.00957031,0.727344,10.0393,4.05945,0.109863,-26.9879,0,0,0,-0.971741,-0.034668,0.00732422,0.233215,49764,43041,43176,6120,-30480
762,441360,-0.0191406,0.693848,10.0871,4.05945,0.109863,-26.9879,0,0,0,-0.971741,-0.034668,0.00732422,0.233215,49763,43042,43178,6120,-30480
768,441366,0.00478516,0.712988,10.0967,4.05945,0.109863,-26.9879,0,0,0,-0.971741,-0.034668,0.00732422,0.233215,49764,43043,43180,6120,-30480
774,441372,-0.0191406,0.708203,10.0728,4.05945,0.109863,-26.9879,0,0,0,-0.971741,-0.034668,0.00732422,0.233215,49765,43044,43184,6120,-30480
780,441378,0,0.708203,10.0728,4.05945,0.109863,-26.9879,0,0,0,-0.971741,-0.034668,0.00732422,0.233215,49765,43044,43187,6120,-30480
786,441384,-0.0239258,0.712988,10.0584,4.05945,0.109863,-26.9879,0,0,0,-0.971741,-0.034668,0.00732422,0.233215,49765,43043,43184,6120,-30480
792,441390,-0.0143555,0.703418,10.0775,4.05945,0.109863,-26.9879,0,0,0,-0.971741,-0.034668,0.00732422,0.233215,49766,43043,43183,6120,-30480
798,441396,-0.0143555,0.698633,10.0536,4.05945,0.109863,-26.9879,0,0,0,-0.971741,-0.034668,0.00732422,0.233215,49767,43044,43179,6120,-30480
804,441402,-0.0143555,0.708203,10.1015,4.05945,0.109863,-26.9879,0,0,0,-0.971741,-0.034668,0.00732422,0.233215,49768,43042,43178,6120,-30480
810,441408,-0.0239258,0.732129,10.0775,4.05945,0.109863,-26.9879,0,0,0,-0.971741,-0.034668,0.00732422,0.233215,49766,43040,43177,6120,-30480
816,441414,-0.0143555,0.717773,10.0728,4.05945,0.109863,-26.9879,0,0,0,-0.971741,-0.034668,0.00732422,0.233215,49765,43040,43179,6120,-30480
822,441420,-0.00957031,0.717773,10.0775,4.05945,0.109863,-26.9879,0,0,0,-0.971741,-0.034668,0.00732422,0.233215,49764,43042,43178,6120,-30480
828,441426,-0.00957031,0.708203,10.0823,4.05945,0.109863,-26.9879,0,0,0,-0.971741,-0.034668,0.00732422,0.233215,49764,43043,43177,6120,-30480
834,441432,0.00478516,0.717773,10.111,4.05945,0.109863,-26.9879,0,0,0,-0.971741,-0.034668,0.00732422,0.233215,49764,43044,43177,6112,-30479
840,441438,-0.0334961,0.708203,10.0584,4.05945,0.109863,-26.9879,0,0,0,-0.971741,-0.034668,0.00732422,0.233215,49765,43046,43175,6112,-30479
846,441444,-0.00478516,0.732129,10.111,4.05945,0.10437,-26.9879,0,0,0,-0.971741,-0.034668,0.00732422,0.233215,49766,43047,43174,6112,-30479
852,441450,-0.0191406,0.712988,10.068,4.05945,0.10437,-26.9879,0,0,0,-0.971741,-0.034668,0.00732422,0.233215,49768,43048,43172,6112,-30479
858,441456,-0.0334961,0.708203,10.044,4.05945,0.10437,-26.9879,0,0,0,-0.971741,-0.034668,0.00732422,0.233215,49770,43050,43169,6112,-30479
864,441462,-0.0287109,0.712988,10.0775,4.05945,0.10437,-26.9879,0,0,0,-0.971741,-0.034668,0.00732422,0.233215,49771,43051,43169,6112,-30479
870,441468,-0.0191406,0.722559,10.0632,4.05945,0.10437,-26.9879,0,0,0,-0.971741,-0.034668,0.00732422,0.233215,49770,43052,43165,6112,-30479
876,441474,0,0.736914,10.0584,4.05945,0.10437,-26.9879,0,0,0,-0.971741,-0.034668,0.00732422,0.233215,49768,43052,43161,6112,-30479
882,441480,-0.00478516,0.741699,10.0728,4.05945,0.10437,-26.9879,0,0,0,-0.971741,-0.034668,0.00732422,0.233215,49764,43050,43158,6112,-30479
888,441486,-0.0143555,0.727344,10.068,4.05945,0.10437,-26.9879,0,0,0,-0.971741,-0.034668,0.00732422,0.233215,49763,43048,43157,6112,-30479
894,441492,-0.00957031,0.717773,10.0728,4.05945,0.10437,-26.9879,0,0,0,-0.971741,-0.034668,0.00732422,0.233215,49761,43046,43157,6112,-30479
900,441498,0.00957031,0.703418,10.0728,4.05945,0.10437,-26.9879,0,0,0,-0.971741,-0.034668,0.00732422,0.233215,49762,43043,43156,6112,-30479
906,441504,-0.0191406,0.698633,10.1062,4.05945,0.10437,-26.9879,0,0,0,-0.971741,-0.034668,0.00732422,0.233215,49764,43043,43154,6112,-30479
912,441510,-0.0287109,0.727344,10.0823,4.05945,0.10437,-26.9879,0,0,0,-0.971741,-0.034668,0.00732422,0.233215,49764,43041,43150,6112,-30479
918,441516,0.00478516,0.703418,10.0728,4.05945,0.10437,-26.9879,0,0,0,-0.971741,-0.034668,0.00732422,0.233215,49765,43040,43145,6112,-30479
924,441522,0,0.703418,10.0632,4.05945,0.10437,-26.9879,0,0,0,-0.971741,-0.034668,0.00732422,0.233215,49766,43038,43140,6112,-30479
930,441528,0.00478516,0.717773,10.0488,4.05945,0.10437,-26.9879,0,0,0,-0.971741,-0.034668,0.00732422,0.233215,49767,43037,43136,6112,-30479
936,441534,-0.0143555,0.703418,10.0632,4.05945,0.10437,-26.9879,0,0,0,-0.971741,-0.034668,0.00732422,0.233215,49768,43036,43136,6112,-30479
942,441540,-0.00478516,0.717773,10.0536,4.05945,0.10437,-26.9879,0,0,0,-0.971741,-0.034668,0.00732422,0.233215,49770,43037,43137,6112,-30479
948,441546,-0.0191406,0.722559,10.0488,4.05945,0.10437,-26.9879,0,0,0,-0.971741,-0.034668,0.00732422,0.233215,49773,43039,43138,6112,-30479
954,441552,0.00478516,0.708203,10.0488,4.05945,0.10437,-26.9879,0,0,0,-0.971741,-0.034668,0.00732422,0.233215,49774,43041,43138,6112,-30479
960,441558,-0.00957031,0.698633,10.0728,4.05945,0.10437,-26.9879,0,0,0,-0.971741,-0.034668,0.00732422,0.233215,49775,43044,43141,6112,-30479
966,441564,-0.0143555,0.712988,10.0871,4.05945,0.10437,-26.9879,0,0,0,-0.971741,-0.034668,0.00732422,0.233215,49774,43045,43141,6120,-30480
972,441570,-0.0334961,0.717773,10.0919,4.05945,0.10437,-26.9879,0,0,0,-0.971741,-0.034668,0.00732422,0.233215,49773,43045,43142,6120,-30480
978,441576,-0.0143555,0.708203,10.0728,4.05945,0.10437,-26.9879,0,0,0,-0.971741,-0.034668,0.00732422,0.233215,49773,43044,43143,6120,-30480
984,441582,-0.0239258,0.708203,10.0871,4.05945,0.10437,-26.9879,0,0,0,-0.971741,-0.034668,0.00732422,0.233215,49771,43044,43142,6120,-30480
990,441588,-0.0287109,0.722559,10.068,4.05945,0.10437,-26.9879,0,0,0,-0.971741,-0.034668,0.00732422,0.233215,49770,43044,43140,6120,-30480
996,441594,-0.0287109,0.712988,10.0919,4.05945,0.10437,-26.9879,0,0,0,-0.971741,-0.034668,0.00732422,0.233215,49771,43045,43140,6120,-30480
1002,441600,-0.00957031,0.708203,10.0488,4.05945,0.10437,-26.9879,0,0,0,-0.971741,-0.034668,0.00732422,0.233215,49771,43045,43142,6120,-30480
1008,441606,-0.0191406,0.703418,10.0584,4.05945,0.10437,-26.9879,0,0,0,-0.971741,-0.034668,0.00732422,0.233215,49770,43046,43145,6120,-30480
1014,441612,-0.0382813,0.708203,10.0584,4.05945,0.10437,-26.9879,0,0,0,-0.971741,-0.034668,0.00732422,0.233215,49770,43048,43148,6120,-30480
1020,441618,-0.0191406,0.712988,10.0488,4.05945,0.10437,-26.9879,0,0,0,-0.971741,-0.034668,0.00732422,0.233215,49770,43048,43153,6120,-30480
1026,441624,-0.0239258,0.708203,10.0584,4.05945,0.10437,-26.9879,0,0,0,-0.971741,-0.034668,0.00732422,0.233215,49773,43049,43154,6120,-30480
1032,441630,-0.00478516,0.717773,10.0823,4.05945,0.10437,-26.9879,0,0,0,-0.971741,-0.034668,0.00732422,0.233215,49775,43050,43157,6120,-30480
1038,441636,-0.0143555,0.712988,10.0823,4.05945,0.10437,-26.9879,0,0,0,-0.971741,-0.034668,0.00732422,0.233215,49775,43052,43156,6120,-30480
1044,441642,-0.00957031,0.708203,10.068,4.05945,0.10437,-26.9879,0,0,0,-0.971741,-0.034668,0.00732422,0.233215,49776,43053,43159,6120,-30480
1050,441648,-0.00957031,0.732129,10.0871,4.05945,0.10437,-26.9879,0,0,0,-0.971741,-0.034668,0.00732422,0.233215,49775,43056,43162,6120,-30480
1056,441654,-0.0239258,0.703418,10.068,4.05945,0.10437,-26.9879,0,0,0,-0.971741,-0.034668,0.00732422,0.233215,49773,43056,43161,6120,-30480
1062,441660,-0.0143555,0.684277,10.0775,4.05945,0.10437,-26.9879,0,0,0,-0.971741,-0.034668,0.00732422,0.233215,49773,43053,43159,6120,-30480
1068,441666,-0.00478516,0.727344,10.068,4.05945,0.10437,-26.9879,0,0,0,-0.971741,-0.034668,0.00732422,0.233215,49773,43051,43158,6120,-30480
1074,441672,-0.0382813,0.741699,10.0584,4.05945,0.10437,-26.9879,0,0,0,-0.971741,-0.034668,0.00732422,0.233215,49772,43049,43155,6112,-30479
1080,441678,0.00478516,0.712988,10.0967,4.05945,0.10437,-26.9879,0,0,0,-0.971741,-0.034668,0.00732422,0.233215,49769,43050,43153,6112,-30479
1086,441684,-0.0478516,0.703418,10.068,4.05945,0.10437,-26.9879,0,0,0,-0.971741,-0.0346375,0.00732422,0.233215,49768,43052,43154,6112,-30479
1092,441690,-0.0191406,0.717773,10.0584,4.05945,0.10437,-26.9879,0,0,0,-0.971741,-0.0346375,0.00732422,0.233215,49768,43052,43153,6112,-30479
1098,441696,0.00478516,0.736914,10.0632,4.05945,0.10437,-26.9879,0,0,0,-0.971741,-0.0346375,0.00732422,0.233215,49768,43051,43151,6112,-30479
1104,441702,-0.0382813,0.712988,10.1158,4.05945,0.10437,-26.9879,0,0,0,-0.971741,-0.0346375,0.00732422,0.233215,49769,43049,43149,6112,-30479
1110,441708,0.0574219,0.689063,10.0584,4.05945,0.10437,-26.9879,0,0,0,-0.971741,-0.0346375,0.00732422,0.233215,49768,43046,43147,6112,-30479
1116,441714,-0.0382813,0.708203,10.0728,4.05945,0.10437,-26.9879,0,0,0,-0.971741,-0.0346375,0.00732422,0.233215,49769,43045,43151,6112,-30479
1122,441720,0.0239258,0.732129,10.0967,4.05945,0.10437,-26.9879,0,0,0,-0.971741,-0.0346375,0.00732422,0.233215,49770,43044,43157,6112,-30479
1128,441726,-0.0191406,0.693848,10.0728,4.05945,0.10437,-26.9879,0,0,0,-0.971741,-0.0346375,0.00732422,0.233215,49772,43044,43160,6112,-30479
1134,441732,-0.0191406,0.674707,10.0823,4.05945,0.10437,-26.9879,0,0,0,-0.971741,-0.0346375,0.00735474,0.233215,49774,43044,43162,6112,-30479
1140,441738,-0.0430664,0.717773,10.0919,4.05945,0.10437,-26.9879,0,0,0,-0.971741,-0.0346375,0.00735474,0.233215,49775,43044,43158,6112,-30479
1146,441744,0.0143555,0.679492,10.0632,4.05945,0.10437,-26.9879,0,0,0,-0.971741,-0.0346375,0.00735474,0.233215,49773,43044,43156,6112,-30479
1152,441750,-0.0478516,0.717773,10.0728,4.05945,0.10437,-26.9879,0,0,0,-0.971741,-0.0346375,0.00735474,0.233215,49771,43044,43153,6112,-30479
1158,441756,-0.0143555,0.732129,10.0393,4.05945,0.10437,-26.9879,0,0,0,-0.971741,-0.0346375,0.00735474,0.233215,49771,43044,43152,6112,-30479
1164,441762,-0.0478516,0.77041,10.0632,4.05945,0.10437,-26.9879,0.366211,-0.12207,0,-0.971741,-0.034668,0.00735474,0.233215,49771,43045,43152,6112,-30479
1170,441768,0,0.679492,10.0249,4.06494,0.10437,-26.9879,0.244141,0,0,-0.971741,-0.0346985,0.00735474,0.233215,49772,43042,43148,6112,-30479
1176,441774,-0.0526367,0.756055,10.0584,4.06494,0.10437,-26.9879,0,0.12207,0,-0.971741,-0.0346985,0.00735474,0.233215,49771,43040,43144,6112,-30479
1182,441780,0,0.717773,10.0871,4.05945,0.10437,-26.9879,-0.427246,-0.0610352,0,-0.971741,-0.0346985,0.00735474,0.233215,49770,43039,43142,6112,-30479
1188,441786,-0.0191406,0.698633,10.0584,4.05945,0.10437,-26.9879,-0.549316,0.12207,0,-0.971741,-0.034668,0.00735474,0.233215,49767,43039,43140,6112,-30479
1194,441792,-0.0191406,0.679492,10.0823,4.05396,0.10437,-26.9879,-0.549316,0,0,-0.971741,-0.0346375,0.00732422,0.233215,49767,43041,43141,6112,-30479
1200,441798,-0.0191406,0.703418,10.0871,4.04846,0.10437,-26.9879,-0.488281,0,0,-0.971741,-0.0346069,0.00732422,0.233215,49769,43045,43145,6112,-30479
1206,441804,-0.0191406,0.708203,10.0871,4.04846,0.10437,-26.9879,-0.366211,-0.12207,0,-0.971741,-0.0345764,0.00732422,0.233215,49772,43046,43145,6112,-30479
1212,441810,-0.00478516,0.703418,10.1062,4.04846,0.10437,-26.9879,-0.0610352,0,0,-0.971741,-0.0345764,0.00732422,0.233215,49773,43046,43145,6112,-30479
1218,441816,-0.0334961,0.708203,10.0919,4.04846,0.10437,-26.9879,0.183105,0,0,-0.971741,-0.0345764,0.00732422,0.233215,49773,43046,43144,6112,-30479
1224,441822,0.00478516,0.712988,10.0967,4.04846,0.10437,-26.9879,0.732422,0,0,-0.971741,-0.0346069,0.00732422,0.233215,49774,43047,43143,6112,-30479
1230,441828,-0.0287109,0.693848,10.0584,4.05945,0.10437,-26.9879,0.549316,0.0610352,0,-0.971741,-0.0346375,0.00732422,0.233215,49774,43048,43147,6112,-30479
1236,441834,0.00957031,0.736914,10.0823,4.05945,0.10437,-26.9879,0.427246,0.0610352,0,-0.971741,-0.0346375,0.00732422,0.233215,49775,43048,43151,6112,-30479
1242,441840,-0.0143555,0.708203,10.0201,4.05945,0.10437,-26.9879,0.366211,0,0,-0.971741,-0.034668,0.00732422,0.233215,49776,43047,43155,6112,-30479
1248,441846,-0.0191406,0.727344,10.068,4.05945,0.10437,-26.9879,0.0610352,-0.0610352,0,-0.971741,-0.034668,0.00735474,0.233215,49777,43044,43157,6112,-30479
1254,441852,-0.0239258,0.684277,10.0393,4.05945,0.10437,-26.9879,-0.12207,0,0,-0.971741,-0.034668,0.00735474,0.233215,49779,43043,43160,6112,-30479
1260,441858,-0.00957031,0.712988,10.0345,4.05945,0.10437,-26.9879,-0.244141,0,0,-0.971741,-0.034668,0.00735474,0.233215,49781,43042,43167,6112,-30479
1266,441864,-0.00478516,0.712988,10.111,4.05396,0.10437,-26.9879,-0.732422,0,0,-0.971741,-0.034668,0.00735474,0.233215,49784,43043,43171,6112,-30479
1272,441870,-0.00957031,0.722559,10.0728,4.05396,0.10437,-26.9879,-0.610352,0.244141,0,-0.971741,-0.0346375,0.00732422,0.233215,49735,43044,43174,6112,-30479
1278,441876,-0.0382813,0.679492,10.0393,4.04846,0.10437,-26.9879,-0.244141,0.12207,0,-0.971741,-0.0346069,0.00732422,0.233215,49742,43044,43174,6112,-30479
1284,441882,0,0.689063,10.0967,4.04846,0.10437,-26.9879,0,0.0610352,0,-0.971741,-0.0345764,0.00732422,0.233215,49747,43045,43175,6112,-30479
1290,441888,-0.0813477,0.708203,10.0967,4.04846,0.10437,-26.9879,0.305176,0,0,-0.971741,-0.0345764,0.00732422,0.233215,49751,43048,43173,6112,-30479
1296,441894,0.00478516,0.708203,10.1015,4.05396,0.10437,-26.9879,0.366211,-0.0610352,0,-0.971741,-0.0346069,0.00732422,0.233215,49751,43051,43173,6112,-30479
1302,441900,-0.00957031,0.689063,10.0919,4.05396,0.10437,-26.9879,0.488281,0,0,-0.971741,-0.0346069,0.00732422,0.233215,49751,43052,43175,6112,-30479
1308,441906,-0.0191406,0.717773,10.0871,4.05396,0.10437,-26.9879,0.183105,0,0,-0.971741,-0.0346375,0.00732422,0.233215,49752,43052,43177,6112,-30479
1314,441912,-0.0239258,0.732129,10.0536,4.05945,0.10437,-26.9879,0.244141,0,0,-0.971741,-0.034668,0.00732422,0.233215,49753,43052,43178,6112,-30479
1320,441918,-0.0239258,0.708203,10.0871,4.05945,0.10437,-26.9879,-0.0610352,-0.0610352,0,-0.971741,-0.034668,0.00735474,0.233215,49753,43049,43174,6112,-30479
1326,441924,0,0.703418,10.0632,4.05945,0.10437,-26.9879,-0.0610352,0,0,-0.971741,-0.034668,0.00735474,0.233215,49754,43050,43170,6112,-30479
1332,441930,-0.0287109,0.712988,10.044,4.05945,0.10437,-26.9879,-0.12207,0.0610352,0,-0.971741,-0.034668,0.00735474,0.233215,49755,43050,43166,6112,-30479
1338,441936,-0.0382813,0.708203,10.068,4.05396,0.10437,-26.9879,-0.427246,0,0,-0.971741,-0.034668,0.00732422,0.233215,49757,43051,43163,6112,-30479
1344,441942,-0.00957031,0.708203,10.0536,4.05396,0.10437,-26.9879,-0.12207,0,0,-0.971741,-0.0346375,0.00732422,0.233215,49759,43052,43160,6112,-30479
1350,441948,-0.0478516,0.717773,10.068,4.05396,0.10437,-26.9879,-0.0610352,0,0,-0.971741,-0.0346069,0.00732422,0.233215,49761,43053,43155,6112,-30479
1356,441954,-0.00478516,0.708203,10.111,4.05396,0.10437,-26.9879,-0.305176,0,0,-0.971741,-0.0346069,0.00732422,0.233215,49762,43053,43152,6112,-30479
1362,441960,-0.0191406,0.727344,10.1254,4.04846,0.10437,-26.9879,-0.183105,0,0,-0.971741,-0.0346069,0.00732422,0.233215,49764,43054,43147,6112,-30479
1368,441966,0,0.712988,10.1015,4.04846,0.10437,-26.9879,0,-0.12207,0,-0.971741,-0.0346069,0.00732422,0.233215,49766,43054,43141,6112,-30479
1374,441972,-0.00478516,0.708203,10.1015,4.04846,0.10437,-26.9879,0,0,0,-0.971741,-0.0346069,0.00732422,0.233215,49767,43054,43134,6112,-30479
1380,441978,-0.0191406,0.727344,10.0775,4.05396,0.10437,-26.9879,0.305176,0,0,-0.971741,-0.0346069,0.00732422,0.233215,49769,43053,43124,6112,-30479
1386,441984,0.00957031,0.712988,10.0488,4.05396,0.10437,-26.9879,0.244141,0,0,-0.971741,-0.0346069,0.00732422,0.233215,49769,43053,43122,6112,-30479
1392,441990,-0.0191406,0.703418,10.0345,4.05396,0.10437,-26.9879,0.183105,-0.0610352,0,-0.971741,-0.0346069,0.00732422,0.233215,49770,43051,43121,6112,-30479
1398,441996,-0.00478516,0.712988,10.0919,4.05396,0.10437,-26.9879,0.305176,0.12207,0,-0.971741,-0.0346375,0.00735474,0.233215,49769,43051,43120,6112,-30479
1404,442002,-0.0191406,0.693848,10.044,4.05945,0.10437,-26.9879,0.183105,0,0,-0.971741,-0.0346375,0.00732422,0.233215,49770,43051,43121,6112,-30479
1410,442008,-0.0430664,0.717773,10.0728,4.05945,0.10437,-26.9879,0,0.0610352,0,-0.971741,-0.0346375,0.00732422,0.233215,49770,43053,43130,6112,-30479
1416,442014,-0.0287109,0.712988,10.0775,4.05396,0.10437,-26.9879,-0.244141,0,0,-0.971741,-0.0346375,0.00732422,0.233215,49768,43055,43136,6112,-30479
1422,442020,-0.0430664,0.732129,10.0823,4.05396,0.10437,-26.9879,-0.305176,0.0610352,0,-0.971741,-0.0346375,0.00732422,0.233215,49767,43057,43140,6112,-30479
1428,442026,-0.0239258,0.703418,10.0488,4.05396,0.10437,-26.9879,-0.244141,-0.0610352,0,-0.971741,-0.0346375,0.00732422,0.233215,49766,43058,43143,6112,-30479
1434,442032,-0.00478516,0.727344,10.0967,4.05396,0.10437,-26.9879,-0.183105,0,0,-0.971741,-0.0346069,0.00732422,0.233215,49767,43059,43145,6112,-30479
1440,442038,-0.0239258,0.703418,10.0823,4.05396,0.10437,-26.9879,-0.0610352,0.12207,0,-0.971741,-0.0346069,0.00732422,0.233215,49768,43061,43149,6112,-30479
1446,442044,-0.0382813,0.722559,10.0823,4.05396,0.10437,-26.9879,0,0,0,-0.971741,-0.0346069,0.00732422,0.233215,49769,43059,43149,6112,-30479
1452,442050,-0.0287109,0.703418,10.068,4.05396,0.10437,-26.9879,0.0610352,0,0,-0.971741,-0.0346069,0.00732422,0.233215,49769,43058,43147,6112,-30479
1458,442056,-0.0191406,0.708203,10.0871,4.05396,0.10437,-26.9879,0.183105,0.0610352,0,-0.971741,-0.0346069,0.00732422,0.233215,49771,43057,43148,6112,-30479
1464,442062,-0.0239258,0.717773,10.0632,4.05396,0.10437,-26.9879,0.183105,0,0,-0.971741,-0.0346069,0.00732422,0.233215,49771,43056,43153,6112,-30479
1470,442068,-0.0191406,0.708203,10.044,4.05396,0.10437,-26.9879,0.0610352,0,0,-0.971741,-0.0346375,0.00732422,0.233215,49769,43059,43166,6112,-30479
1476,442074,-0.0191406,0.717773,10.068,4.05396,0.10437,-26.9879,0.183105,0,0,-0.971741,-0.0346375,0.00732422,0.233215,49768,43059,43170,6112,-30479
1482,442080,-0.0239258,0.732129,10.0728,4.05396,0.10437,-26.9879,0,0,0,-0.971741,-0.0346375,0.00732422,0.233215,49768,43060,43173,6112,-30479
1488,442086,-0.0191406,0.703418,10.0632,4.05396,0.109863,-26.9879,0,0,0,-0.971741,-0.0346375,0.00732422,0.233215,49769,43060,43173,6112,-30479
1494,442092,-0.00478516,0.722559,10.0632,4.05396,0.10437,-26.9879,-0.0610352,0,0,-0.971741,-0.0346375,0.00732422,0.233215,49770,43059,43172,6112,-30479
1500,442098,-0.0143555,0.717773,10.0967,4.05396,0.10437,-26.9879,-0.0610352,0,0,-0.971741,-0.0346375,0.00732422,0.233215,49776,43058,43167,6112,-30479
1506,442104,-0.0191406,0.712988,10.068,4.05396,0.109863,-26.9879,-0.0610352,0.0610352,0,-0.971741,-0.0346375,0.00732422,0.233215,49777,43058,43164,6112,-30479
1512,442110,-0.00957031,0.717773,10.0536,4.05396,0.109863,-26.9879,-0.12207,0,0,-0.971741,-0.0346375,0.00732422,0.233215,49779,43057,43164,6112,-30479
1518,442116,-0.00478516,0.703418,10.0919,4.05396,0.109863,-26.9879,-0.0610352,0,0,-0.971741,-0.0346375,0.00732422,0.233215,49779,43059,43161,6112,-30479
1524,442122,-0.0143555,0.717773,10.0823,4.05396,0.10437,-26.9879,-0.12207,-0.12207,0,-0.971741,-0.0346069,0.00732422,0.233215,49779,43060,43160,6112,-30479
1530,442128,-0.00478516,0.736914,10.0967,4.05396,0.10437,-26.9879,-0.0610352,0,0,-0.971741,-0.0346069,0.00732422,0.233215,49779,43060,43153,6112,-30479
1536,442134,0.00478516,0.722559,10.0871,4.05396,0.10437,-26.9879,0,0,0,-0.971741,-0.0346069,0.00732422,0.233215,49779,43059,43148,6112,-30479
1542,442140,0,0.717773,10.068,4.05396,0.10437,-26.9879,0.244141,0.0610352,0,-0.971741,-0.0346069,0.00732422,0.233215,49779,43058,43141,6112,-30479
1548,442146,-0.0191406,0.712988,10.0775,4.05396,0.10437,-26.9879,0.183105,-0.12207,0,-0.971741,-0.0346375,0.00732422,0.233215,49780,43058,43135,6112,-30479
1554,442152,-0.0191406,0.703418,10.0871,4.05945,0.10437,-26.9879,0.244141,0,0,-0.971741,-0.0346375,0.00732422,0.233215,49779,43057,43132,6112,-30479
1560,442158,-0.0239258,0.736914,10.0728,4.05945,0.10437,-26.9879,0.0610352,0.0610352,0,-0.971741,-0.0346375,0.00732422,0.233215,49781,43056,43134,6120,-30480
1566,442164,-0.0191406,0.717773,10.0919,4.05945,0.10437,-26.9879,0,0.12207,0,-0.971741,-0.034668,0.00732422,0.233215,49781,43055,43138,6120,-30480
1572,442170,-0.0191406,0.727344,10.0584,4.05945,0.10437,-26.9879,-0.0610352,0,0,-0.971741,-0.034668,0.00732422,0.233215,49783,43055,43140,6120,-30480
1578,442176,-0.0382813,0.717773,10.0775,4.05945,0.10437,-26.9879,-0.12207,0,0,-0.971741,-0.034668,0.00732422,0.233215,49785,43055,43140,6120,-30480
1584,442182,-0.0191406,0.703418,10.0871,4.05396,0.10437,-26.9879,-0.244141,0,0,-0.971741,-0.0346375,0.00732422,0.233215,49786,43055,43138,6120,-30480
1590,442188,-0.0287109,0.703418,10.0967,4.05396,0.109863,-26.9879,-0.183105,0.0610352,0,-0.971741,-0.0346375,0.00732422,0.233215,49784,43054,43133,6120,-30480
1596,442194,-0.0143555,0.708203,10.0632,4.05396,0.109863,-26.9879,-0.0610352,0.0610352,0,-0.971741,-0.0346375,0.00732422,0.233215,49783,43055,43132,6120,-30480
1602,442200,0.00478516,0.698633,10.0871,4.05396,0.109863,-26.9879,0.12207,0,0,-0.971741,-0.0346375,0.0072937,0.233215,49781,43056,43130,6120,-30480
1608,442206,-0.0334961,0.717773,10.0871,4.05396,0.109863,-26.9879,0,0,0,-0.971741,-0.0346375,0.00732422,0.233215,49780,43058,43129,6120,-30480
1614,442212,-0.0287109,0.722559,10.0823,4.05396,0.109863,-26.9879,0,0,0,-0.971741,-0.0346375,0.00732422,0.233215,49779,43060,43124,6120,-30480
1620,442218,0,0.712988,10.0919,4.05945,0.109863,-26.9879,0.244141,0,0,-0.971741,-0.0346375,0.00732422,0.233215,49779,43061,43123,6120,-30480
1626,442224,-0.0382813,0.712988,10.0823,4.05945,0.109863,-26.9879,0.183105,0.12207,0,-0.971741,-0.0346375,0.00732422,0.233215,49778,43063,43124,6120,-30480
1632,442230,-0.00478516,0.732129,10.0728,4.05945,0.109863,-26.9879,0.0610352,-0.0610352,0,-0.971741,-0.034668,0.00732422,0.233215,49777,43063,43125,6120,-30480
1638,442236,-0.0191406,0.722559,10.0536,4.05945,0.109863,-26.9879,0.12207,0,0,-0.971741,-0.034668,0.00732422,0.233215,49777,43063,43128,6120,-30480
1644,442242,-0.00478516,0.712988,10.0871,4.05945,0.109863,-26.9879,0.12207,-0.12207,0,-0.971741,-0.034668,0.00732422,0.233215,49778,43061,43130,6120,-30480
1650,442248,-0.0287109,0.717773,10.0823,4.05945,0.109863,-26.9879,0.0610352,0.0610352,0,-0.971741,-0.034668,0.00732422,0.233215,49781,43058,43136,6120,-30480
1656,442254,-0.00957031,0.703418,10.0728,4.05945,0.109863,-26.9879,0,0,0,-0.971741,-0.034668,0.00732422,0.233215,49781,43057,43140,6120,-30480
1662,442260,-0.0334961,0.717773,10.0775,4.05945,0.109863,-26.9879,-0.0610352,0.12207,0,-0.971741,-0.034668,0.00732422,0.233215,49782,43057,43144,6120,-30480
1668,442266,-0.0143555,0.722559,10.0536,4.05945,0.109863,-26.9879,-0.0610352,0,0,-0.971741,-0.034668,0.00732422,0.233215,49782,43057,43146,6120,-30480
1674,442272,-0.0143555,0.736914,10.0871,4.05945,0.109863,-26.9879,-0.0610352,-0.0610352,0,-0.971741,-0.034668,0.0072937,0.233215,49782,43057,43146,6112,-30479
1680,442278,-0.00478516,0.717773,10.068,4.05945,0.109863,-26.9879,-0.244141,0.0610352,0,-0.971741,-0.034668,0.0072937,0.233215,49783,43058,43145,6112,-30479
1686,442284,0.00478516,0.689063,10.0728,4.05945,0.109863,-26.9879,-0.0610352,-0.0610352,0,-0.971741,-0.034668,0.0072937,0.233215,49784,43058,43145,6112,-30479
1692,442290,-0.00957031,0.708203,10.0823,4.05945,0.109863,-26.9879,0,0,0,-0.971741,-0.034668,0.0072937,0.233215,49785,43059,43146,6112,-30479
1698,442296,-0.0334961,0.712988,10.0967,4.05945,0.109863,-26.9879,0,0,0,-0.971741,-0.034668,0.0072937,0.233215,49786,43060,43146,6112,-30479
1704,442302,-0.0239258,0.732129,10.0775,4.05945,0.109863,-26.9879,0,0.183105,0,-0.971741,-0.034668,0.0072937,0.233215,49787,43060,43145,6112,-30479
1710,442308,-0.0239258,0.689063,10.0728,4.05945,0.109863,-26.9879,0.244141,0,0,-0.971741,-0.034668,0.0072937,0.233215,49787,43060,43141,6112,-30479
1716,442314,-0.00957031,0.717773,10.0823,4.05945,0.109863,-26.9879,0,0,0,-0.971741,-0.034668,0.0072937,0.233215,49786,43061,43139,6112,-30479
1722,442320,-0.0287109,0.732129,10.068,4.05945,0.109863,-26.9879,0.244141,0,0,-0.971741,-0.034668,0.0072937,0.233215,49786,43062,43135,6112,-30479
1728,442326,-0.0191406,0.717773,10.0728,4.05945,0.109863,-26.9879,0.183105,0,0,-0.971741,-0.034668,0.0072937,0.233215,49787,43062,43132,6112,-30479
1734,442332,-0.0334961,0.722559,10.068,4.05945,0.109863,-26.9879,0,0.0610352,0,-0.971741,-0.0346985,0.0072937,0.233215,49788,43062,43130,6112,-30479
1740,442338,-0.0191406,0.708203,10.0823,4.05945,0.109863,-26.9879,0,0,0,-0.971741,-0.0346985,0.0072937,0.233215,49744,43060,43131,6112,-30479
1746,442344,-0.00478516,0.712988,10.0728,4.05945,0.109863,-26.9879,-0.12207,0,0,-0.971741,-0.0346985,0.0072937,0.233215,49747,43060,43133,6112,-30479
1752,442350,-0.0382813,0.712988,10.068,4.05945,0.109863,-26.9879,-0.0610352,0.0610352,0,-0.971741,-0.034668,0.0072937,0.233215,49750,43061,43136,6112,-30479
1758,442356,0,0.708203,10.0632,4.05945,0.109863,-26.9879,-0.0610352,0,0,-0.971741,-0.034668,0.0072937,0.233215,49753,43062,43135,6112,-30479
1764,442362,-0.0191406,0.717773,10.0632,4.05945,0.109863,-26.9879,0,0,0,-0.971741,-0.034668,0.0072937,0.233215,49756,43063,43137,6112,-30479
1770,442368,-0.0239258,0.712988,10.0823,4.05945,0.109863,-26.9879,0.0610352,0.0610352,0,-0.971741,-0.034668,0.0072937,0.233215,49762,43064,43134,6112,-30479
1776,442374,-0.0334961,0.708203,10.0967,4.05945,0.109863,-26.9879,0,0.0610352,0,-0.971741,-0.034668,0.0072937,0.233215,49765,43064,43133,6112,-30479
1782,442380,0,0.722559,10.0632,4.05945,0.109863,-26.9879,0,0,0,-0.971741,-0.034668,0.0072937,0.233215,49766,43063,43131,6112,-30479
1788,442386,-0.00957031,0.722559,10.0871,4.05945,0.109863,-26.9879,0,0,0,-0.971741,-0.034668,0.0072937,0.233215,49766,43063,43134,6112,-30479
1794,442392,-0.0143555,0.698633,10.0967,4.05945,0.109863,-26.9879,-0.0610352,0.0610352,0,-0.971741,-0.034668,0.0072937,0.233215,49766,43062,43134,6112,-30479
1800,442398,0,0.727344,10.068,4.05945,0.109863,-26.9879,0.0610352,0,0,-0.971741,-0.034668,0.0072937,0.233215,49770,43060,43137,6112,-30479
1806,442404,-0.0143555,0.698633,10.0919,4.05945,0.109863,-26.9879,-0.0610352,0,0,-0.971741,-0.034668,0.0072937,0.233215,49772,43059,43136,6112,-30479
1812,442410,-0.0143555,0.727344,10.0728,4.05945,0.109863,-26.9879,0,0,0,-0.971741,-0.034668,0.0072937,0.233215,49774,43058,43135,6112,-30479
1818,442416,-0.00957031,0.698633,10.0823,4.05945,0.109863,-26.9879,-0.0610352,0,0,-0.971741,-0.034668,0.0072937,0.233215,49776,43059,43134,6112,-30479
1824,442422,-0.0334961,0.708203,10.0823,4.05945,0.109863,-26.9879,0,0.12207,0,-0.971741,-0.034668,0.0072937,0.233215,49778,43059,43132,6112,-30479
1830,442428,-0.0191406,0.703418,10.0632,4.05945,0.109863,-26.9879,-0.0610352,0,0,-0.971741,-0.034668,0.0072937,0.233215,49775,43057,43128,6112,-30479
1836,442434,-0.0143555,0.741699,10.0823,4.05945,0.109863,-26.9879,0,0,0,-0.971741,-0.034668,0.00726318,0.233215,49774,43055,43128,6112,-30479
1842,442440,0.00957031,0.693848,10.0584,4.05945,0.109863,-26.9879,-0.0610352,-0.0610352,0,-0.971741,-0.034668,0.00726318,0.233215,49773,43054,43126,6112,-30479
1848,442446,-0.0143555,0.708203,10.068,4.05945,0.109863,-26.9879,0,0.0610352,0,-0.971741,-0.034668,0.0072937,0.233215,49774,43054,43129,6112,-30479
1854,442452,-0.00478516,0.708203,10.0728,4.05945,0.109863,-26.9879,0,0,0,-0.971741,-0.034668,0.0072937,0.233215,49774,43054,43133,6112,-30479
1860,442458,-0.0239258,0.703418,10.0919,4.05945,0.109863,-26.9879,0,0.12207,0,-0.971741,-0.034668,0.0072937,0.233215,49775,43054,43141,6112,-30479
1866,442464,-0.00478516,0.727344,10.0871,4.05945,0.109863,-26.9879,0,0,0,-0.971741,-0.034668,0.00726318,0.233215,49775,43053,43144,6112,-30479
1872,442470,-0.0191406,0.717773,10.0536,4.05945,0.109863,-26.9879,0,-0.0610352,0,-0.971741,-0.034668,0.00726318,0.233215,49775,43051,43145,6112,-30479
1878,442476,-0.0239258,0.717773,10.0584,4.05945,0.109863,-26.9879,0.0610352,0.0610352,0,-0.971741,-0.034668,0.0072937,0.233215,49773,43050,43144,6112,-30479
1884,442482,-0.0334961,0.712988,10.0775,4.05945,0.109863,-26.9879,0,0.0610352,0,-0.971741,-0.034668,0.0072937,0.233215,49771,43051,43140,6112,-30479
1890,442488,0.00478516,0.689063,10.0823,4.05945,0.109863,-26.9879,0,0.0610352,0,-0.971741,-0.034668,0.0072937,0.233215,49772,43053,43131,6112,-30479
1896,442494,-0.0191406,0.717773,10.0584,4.05945,0.109863,-26.9879,-0.0610352,-0.12207,0,-0.971741,-0.034668,0.0072937,0.233215,49772,43055,43128,6112,-30479
1902,442500,-0.00478516,0.693848,10.068,4.05945,0.109863,-26.9879,-0.0610352,0.0610352,0,-0.971741,-0.034668,0.0072937,0.233215,49774,43057,43129,6120,-30480
1908,442506,-0.00957031,0.722559,10.0967,4.05945,0.109863,-26.9879,0,-0.0610352,0,-0.971741,-0.034668,0.0072937,0.233215,49777,43057,43129,6120,-30480
1914,442512,-0.00957031,0.712988,10.0775,4.05945,0.109863,-26.9879,-0.0610352,0.0610352,0,-0.971741,-0.034668,0.0072937,0.233215,49779,43058,43129,6120,-30480
1920,442518,-0.0191406,0.727344,10.068,4.05945,0.109863,-26.9879,-0.0610352,0,0,-0.971741,-0.034668,0.0072937,0.233215,49781,43059,43130,6120,-30480
1926,442524,-0.00957031,0.708203,10.0871,4.05945,0.109863,-26.9879,0,0.0610352,0,-0.971741,-0.034668,0.0072937,0.233215,49781,43060,43130,6120,-30480
1932,442530,-0.0191406,0.722559,10.111,4.05945,0.109863,-26.9879,-0.0610352,0,0,-0.971741,-0.034668,0.0072937,0.233215,49782,43062,43133,6120,-30480
1938,442536,-0.0287109,0.708203,10.0823,4.05945,0.109863,-26.9879,0,0.0610352,0,-0.971741,-0.034668,0.0072937,0.233215,49783,43063,43139,6120,-30480
1944,442542,-0.0191406,0.732129,10.0775,4.05945,0.109863,-26.9879,0,-0.0610352,0,-0.971741,-0.034668,0.00726318,0.233215,49786,43064,43141,6120,-30480
1950,442548,-0.0287109,0.693848,10.0728,4.05396,0.109863,-26.9879,-0.0610352,0,0,-0.971741,-0.034668,0.0072937,0.233215,49787,43064,43146,6120,-30480
1956,442554,-0.0143555,0.717773,10.0919,4.05945,0.109863,-26.9879,0.0610352,0.12207,0,-0.971741,-0.034668,0.0072937,0.233215,49787,43064,43145,6120,-30480
1962,442560,-0.0191406,0.712988,10.068,4.05945,0.109863,-26.9879,0.12207,0,0,-0.971741,-0.034668,0.00726318,0.233215,49786,43062,43143,6120,-30480
1968,442566,-0.00478516,0.712988,10.0728,4.05945,0.109863,-26.9879,0.0610352,0,0,-0.971741,-0.034668,0.00726318,0.233215,49785,43062,43139,6120,-30480
1974,442572,-0.0287109,0.693848,10.068,4.05945,0.109863,-26.9879,0,0,0,-0.971741,-0.034668,0.00726318,0.233215,49784,43060,43136,6120,-30480
1980,442578,0.0239258,0.703418,10.0775,4.05945,0.109863,-26.9879,0.0610352,0,0,-0.971741,-0.034668,0.00726318,0.233215,49783,43059,43134,6120,-30480
1986,442584,-0.00957031,0.727344,10.0871,4.05945,0.109863,-26.9879,0,0,0,-0.971741,-0.034668,0.00726318,0.233215,49783,43058,43132,6120,-30480
1992,442590,-0.00957031,0.722559,10.0967,4.05945,0.109863,-26.9879,0,0,0,-0.971741,-0.034668,0.00726318,0.233215,49782,43056,43132,6120,-30480
1998,442596,-0.0191406,0.717773,10.068,4.05945,0.109863,-26.9879,-0.0610352,0,0,-0.971741,-0.034668,0.0072937,0.233215,49782,43053,43130,6120,-30480
2004,442602,-0.0191406,0.732129,10.0823,4.05945,0.109863,-26.9879,-0.0610352,-0.183105,0,-0.971741,-0.034668,0.0072937,0.233215,49782,43051,43129,6120,-30480
2010,442608,-0.0191406,0.717773,10.0967,4.05396,0.109863,-26.9879,-0.12207,0,0,-0.971741,-0.034668,0.0072937,0.233215,49780,43050,43133,6120,-30480
2016,442614,-0.0382813,0.717773,10.068,4.05396,0.109863,-26.9879,-0.0610352,0.0610352,0,-0.971741,-0.034668,0.0072937,0.233215,49778,43050,43135,6112,-30479
2022,442620,0,0.708203,10.0536,4.05396,0.109863,-26.9879,-0.0610352,0,0,-0.971741,-0.0346375,0.0072937,0.233215,49777,43049,43135,6112,-30479
2028,442626,-0.0143555,0.727344,10.0632,4.05396,0.109863,-26.9879,-0.0610352,0,0,-0.971741,-0.0346375,0.0072937,0.233215,49775,43049,43133,6112,-30479
2034,442632,-0.0287109,0.708203,10.1015,4.05396,0.109863,-26.9879,0.0610352,0.0610352,0,-0.971741,-0.0346375,0.0072937,0.233215,49773,43049,43129,6112,-30479
2040,442638,-0.0239258,0.708203,10.0584,4.05945,0.109863,-26.9879,0.183105,0,0,-0.971741,-0.0346375,0.0072937,0.233215,49772,43052,43120,6112,-30479
2046,442644,-0.00957031,0.717773,10.0584,4.05945,0.109863,-26.9879,0,0.12207,0,-0.971741,-0.034668,0.0072937,0.233215,49771,43055,43118,6112,-30479
2052,442650,-0.0334961,0.708203,10.0823,4.05945,0.109863,-26.9879,0,0,0,-0.971741,-0.034668,0.0072937,0.233215,49770,43057,43118,6112,-30479
2058,442656,-0.0191406,0.722559,10.0871,4.05945,0.109863,-26.9879,0,0,0,-0.971741,-0.034668,0.0072937,0.233215,49770,43059,43118,6112,-30479
2064,442662,-0.00478516,0.703418,10.0919,4.05945,0.109863,-26.9879,0,0,0,-0.971741,-0.034668,0.0072937,0.233215,49770,43061,43120,6112,-30479
2070,442668,-0.0191406,0.722559,10.0632,4.05945,0.109863,-26.9824,0.0610352,0,0,-0.971741,-0.034668,0.0072937,0.233215,49770,43059,43126,6112,-30479
2076,442674,-0.0382813,0.717773,10.0632,4.05945,0.109863,-26.9824,0,0,0,-0.971741,-0.034668,0.0072937,0.233215,49768,43058,43128,6112,-30479
2082,442680,-0.0478516,0.732129,10.0584,4.05945,0.109863,-26.9824,0.0610352,0,0,-0.971741,-0.034668,0.0072937,0.233215,49766,43056,43127,6112,-30479
2088,442686,0,0.708203,10.0728,4.05945,0.109863,-26.9879,0,-0.12207,0,-0.971741,-0.034668,0.0072937,0.233215,49765,43054,43126,6112,-30479
2094,442692,0,0.717773,10.0728,4.05945,0.109863,-26.9879,-0.0610352,0,0,-0.971741,-0.034668,0.0072937,0.233215,49764,43054,43124,6112,-30479
2100,442698,-0.0143555,0.712988,10.0871,4.05396,0.109863,-26.9879,-0.244141,-0.0610352,0,-0.971741,-0.034668,0.0072937,0.233215,49765,43054,43126,6112,-30479
2106,442704,-0.0382813,0.717773,10.0823,4.05396,0.109863,-26.9879,-0.0610352,0.12207,0,-0.971741,-0.0346375,0.0072937,0.233215,49765,43055,43129,6112,-30479
2112,442710,0,0.708203,10.0823,4.05396,0.109863,-26.9879,-0.183105,0,0,-0.971741,-0.0346375,0.0072937,0.233215,49763,43057,43131,6112,-30479
2118,442716,-0.0334961,0.722559,10.0728,4.05396,0.109863,-26.9879,-0.244141,-0.0610352,0,-0.971741,-0.0346375,0.0072937,0.233215,49762,43058,43134,6112,-30479
2124,442722,-0.0239258,0.708203,10.0823,4.05396,0.109863,-26.9879,0,0,0,-0.971741,-0.0346375,0.0072937,0.233215,49761,43059,43133,6112,-30479
2130,442728,-0.0239258,0.708203,10.0728,4.05396,0.109863,-26.9879,0,0,0,-0.971741,-0.0346375,0.0072937,0.233215,49761,43062,43132,6112,-30479
2136,442734,-0.0143555,0.703418,10.0632,4.05396,0.109863,-26.9879,-0.0610352,0,0,-0.971741,-0.0346375,0.0072937,0.233215,49765,43063,43132,6112,-30479
2142,442740,0,0.703418,10.068,4.05396,0.109863,-26.9879,0.12207,0.0610352,0,-0.971741,-0.0346375,0.0072937,0.233215,49767,43063,43134,6112,-30479
2148,442746,-0.00957031,0.712988,10.0632,4.05396,0.109863,-26.9879,0,0,0,-0.971741,-0.0346375,0.0072937,0.233215,49769,43063,43135,6112,-30479
2154,442752,-0.0191406,0.703418,10.0823,4.05396,0.109863,-26.9824,-0.0610352,0.12207,0,-0.971741,-0.0346375,0.0072937,0.233215,49771,43063,43132,6112,-30479
2160,442758,0,0.708203,10.0775,4.05396,0.109863,-26.9824,-0.0610352,0,0,-0.971741,-0.0346375,0.00726318,0.233215,49772,43064,43133,6112,-30479
2166,442764,-0.00478516,0.708203,10.0967,4.05396,0.109863,-26.9824,0,0,0,-0.971741,-0.0346375,0.00726318,0.233215,49773,43065,43134,6112,-30479
2172,442770,-0.00957031,0.717773,10.0919,4.05396,0.109863,-26.9824,-0.183105,0,0,-0.971741,-0.0346375,0.00726318,0.233215,49774,43065,43136,6112,-30479
2178,442776,-0.0287109,0.708203,10.0775,4.05396,0.109863,-26.9824,0.12207,0,0,-0.971741,-0.0346375,0.00726318,0.233215,49775,43065,43135,6112,-30479
2184,442782,-0.0239258,0.727344,10.0967,4.05396,0.109863,-26.9824,0.0610352,0.12207,0,-0.971741,-0.0346375,0.00726318,0.233215,49775,43066,43133,6112,-30479
2190,442788,-0.0143555,0.722559,10.0871,4.05396,0.109863,-26.9824,0.0610352,0,0,-0.971741,-0.0346375,0.00726318,0.233215,49772,43067,43124,6112,-30479
2196,442794,-0.0239258,0.708203,10.0728,4.05396,0.109863,-26.9824,-0.0610352,-0.0610352,0,-0.971741,-0.0346375,0.00726318,0.233215,49771,43067,43121,6112,-30479
2202,442800,-0.0334961,0.736914,10.0919,4.05396,0.109863,-26.9824,0,0.0610352,0,-0.971741,-0.0346375,0.00726318,0.233215,49769,43068,43118,6112,-30479
2208,442806,-0.0334961,0.722559,10.0871,4.05396,0.109863,-26.9824,-0.0610352,0,0,-0.971741,-0.0346375,0.00726318,0.233215,49767,43069,43117,6112,-30479
2214,442812,-0.00478516,0.708203,10.0728,4.05396,0.109863,-26.9824,-0.0610352,0,0,-0.971741,-0.0346375,0.00726318,0.233215,49766,43070,43118,6112,-30479
2220,442818,0,0.693848,10.0536,4.05396,0.109863,-26.9824,0,0,0,-0.971741,-0.0346375,0.00726318,0.233215,49767,43071,43124,6112,-30479
2226,442824,-0.00957031,0.712988,10.0919,4.05396,0.109863,-26.9824,0,0.12207,0,-0.971741,-0.0346375,0.00726318,0.233215,49768,43071,43130,6112,-30479
2232,442830,-0.00957031,0.698633,10.0967,4.05396,0.109863,-26.9824,-0.0610352,0.0610352,0,-0.971741,-0.0346375,0.00726318,0.233215,49770,43071,43138,6112,-30479
2238,442836,-0.0334961,0.727344,10.068,4.05396,0.109863,-26.9824,0,0,0,-0.971741,-0.0346375,0.00726318,0.233215,49770,43071,43146,6112,-30479
2244,442842,-0.0191406,0.703418,10.0536,4.05396,0.115356,-26.9824,0,0,0,-0.971741,-0.0346375,0.00726318,0.233215,49770,43072,43151,6112,-30479
2250,442848,0.00478516,0.712988,10.0728,4.05396,0.115356,-26.9824,0,0.0610352,0,-0.971741,-0.0346375,0.00726318,0.233215,49767,43072,43159,6112,-30479
2256,442854,-0.00957031,0.717773,10.0728,4.05396,0.115356,-26.9824,0,0,0,-0.971741,-0.0346375,0.00726318,0.233215,49765,43072,43160,6112,-30479
2262,442860,-0.00478516,0.717773,10.0536,4.05396,0.115356,-26.9824,-0.0610352,0,0,-0.971741,-0.0346375,0.00726318,0.233215,49765,43072,43161,6112,-30479
2268,442866,-0.0239258,0.712988,10.068,4.05396,0.115356,-26.9824,0,0,0,-0.971741,-0.0346375,0.00726318,0.233215,49764,43072,43158,6112,-30479
2274,442872,-0.0191406,0.722559,10.068,4.05396,0.115356,-26.9824,0,0,0,-0.971741,-0.0346375,0.00726318,0.233215,49763,43072,43155,6112,-30479
2280,442878,-0.0287109,0.722559,10.0728,4.05396,0.115356,-26.9824,0,0,0,-0.971741,-0.0346375,0.00726318,0.233215,49766,43074,43155,6112,-30479
2286,442884,-0.0143555,0.727344,10.0488,4.05396,0.115356,-26.9824,0,0,0,-0.971741,-0.0346375,0.00726318,0.233215,49766,43074,43157,6112,-30479
2292,442890,-0.0239258,0.708203,10.0775,4.05396,0.115356,-26.9824,0,0,0,-0.971741,-0.0346375,0.00726318,0.233215,49766,43076,43159,6112,-30479
2298,442896,-0.0287109,0.717773,10.044,4.05396,0.109863,-26.9824,0,0,0,-0.971741,-0.0346375,0.00726318,0.233215,49767,43077,43158,6112,-30479
2304,442902,-0.0334961,0.717773,10.068,4.05396,0.109863,-26.9824,0,0,0,-0.971741,-0.0346375,0.00726318,0.233215,49767,43077,43154,6112,-30479
2310,442908,-0.00478516,0.712988,10.0871,4.05396,0.109863,-26.9824,0,0,0,-0.971741,-0.0346375,0.00726318,0.233215,49765,43079,43146,6112,-30479
2316,442914,-0.0143555,0.708203,10.0823,4.05396,0.109863,-26.9824,0,0,0,-0.971741,-0.0346375,0.00726318,0.233215,49763,43081,43146,6112,-30479
2322,442920,-0.0143555,0.727344,10.0488,4.05396,0.109863,-26.9824,0,0,0,-0.971741,-0.0346375,0.00726318,0.233215,49762,43081,43147,6112,-30479
2328,442926,0,0.708203,10.0728,4.05396,0.109863,-26.9824,0,0,0,-0.971741,-0.0346375,0.00726318,0.233215,49761,43080,43147,6112,-30479
2334,442932,-0.0382813,0.732129,10.0488,4.05396,0.109863,-26.9824,0,0,0,-0.971741,-0.0346375,0.00726318,0.233215,49760,43079,43149,6112,-30479
2340,442938,-0.0334961,0.712988,10.0823,4.05396,0.109863,-26.9824,0,0,0,-0.971741,-0.0346375,0.00726318,0.233215,49761,43074,43154,6112,-30479
2346,442944,-0.00957031,0.703418,10.0967,4.05396,0.109863,-26.9824,0,0,0,-0.971741,-0.0346375,0.00726318,0.233215,49762,43073,43157,6112,-30479
2352,442950,-0.00478516,0.732129,10.0536,4.05396,0.109863,-26.9824,0,0,0,-0.971741,-0.0346375,0.00726318,0.233215,49763,43071,43159,6112,-30479
2358,442956,-0.0430664,0.693848,10.0823,4.05396,0.109863,-26.9824,0,0,0,-0.971741,-0.0346375,0.00726318,0.233215,49765,43070,43161,6112,-30479
2364,442962,-0.0334961,0.703418,10.0536,4.05396,0.109863,-26.9824,0,0,0,-0.971741,-0.0346375,0.00726318,0.233215,49765,43069,43159,6112,-30479
2370,442968,-0.0239258,0.717773,10.0919,4.05396,0.109863,-26.9824,0,0,0,-0.971741,-0.0346375,0.00726318,0.233215,49764,43066,43155,6112,-30479
2376,442974,-0.0239258,0.712988,10.1015,4.05396,0.109863,-26.9824,0,0,0,-0.971741,-0.0346375,0.00726318,0.233215,49764,43064,43153,6112,-30479
2382,442980,-0.0191406,0.703418,10.0728,4.05396,0.109863,-26.9824,0,0,0,-0.971741,-0.0346375,0.00726318,0.233215,49764,43064,43150,6112,-30479
2388,442986,-0.0143555,0.727344,10.0488,4.05396,0.109863,-26.9824,0,0,0,-0.971741,-0.0346375,0.00726318,0.233215,49765,43064,43150,6112,-30479
2394,442992,-0.0287109,0.712988,10.0871,4.05396,0.109863,-26.9824,0,0,0,-0.971741,-0.0346375,0.00726318,0.233215,49767,43065,43151,6112,-30479
2400,442998,0,0.703418,10.0632,4.05396,0.109863,-26.9824,0,0,0,-0.971741,-0.0346375,0.00726318,0.233215,49770,43065,43157,6112,-30479
2406,443004,-0.0382813,0.703418,10.068,4.05396,0.109863,-26.9824,0,0,0,-0.971741,-0.0346375,0.00726318,0.233215,49770,43067,43157,6112,-30479
2412,443010,-0.0143555,0.708203,10.0536,4.05396,0.109863,-26.9824,0,0,0,-0.971741,-0.0346375,0.00726318,0.233215,49768,43067,43155,6112,-30479
2418,443016,-0.00478516,0.722559,10.0584,4.05396,0.109863,-26.9824,0,0,0,-0.971741,-0.0346375,0.00726318,0.233215,49766,43067,43154,6112,-30479
2424,443022,-0.0334961,0.712988,10.0871,4.05396,0.109863,-26.9824,0,0,0,-0.971741,-0.0346375,0.00726318,0.233215,49764,43066,43155,6112,-30479
2430,443028,-0.00957031,0.732129,10.068,4.05396,0.109863,-26.9824,0,0,0,-0.971741,-0.0346375,0.00726318,0.233215,49761,43065,43159,6112,-30479
2436,443034,0,0.717773,10.0584,4.05396,0.109863,-26.9824,0,0,0,-0.971741,-0.0346375,0.00726318,0.233215,49761,43065,43161,6112,-30479
2442,443040,-0.0143555,0.712988,10.0728,4.05396,0.109863,-26.9824,0,0,0,-0.971741,-0.0346375,0.00726318,0.233215,49761,43065,43159,6112,-30479
2448,443046,-0.0191406,0.689063,10.068,4.05396,0.109863,-26.9824,0,0,0,-0.971741,-0.0346375,0.00726318,0.233215,49761,43065,43154,6112,-30479
2454,443052,-0.00957031,0.693848,10.0728,4.05396,0.109863,-26.9824,0,0,0,-0.971741,-0.0346375,0.00726318,0.233215,49760,43066,43151,6112,-30479
2460,443058,-0.0191406,0.698633,10.068,4.05396,0.109863,-26.9824,0,0,0,-0.971741,-0.0346375,0.00726318,0.233215,49758,43068,43145,6112,-30479
2466,443064,-0.00478516,0.717773,10.0871,4.05396,0.109863,-26.9824,0,0,0,-0.971741,-0.0346375,0.00726318,0.233215,49758,43069,43142,6112,-30479
2472,443070,-0.0239258,0.717773,10.0584,4.05396,0.109863,-26.9824,0,0,0,-0.971741,-0.0346375,0.00726318,0.233215,49757,43068,43138,6112,-30479
2478,443076,-0.00957031,0.712988,10.0584,4.05396,0.109863,-26.9824,0,0,0,-0.971741,-0.0346375,0.00726318,0.233215,49758,43068,43132,6112,-30479
