TimeSinceCollection,Timestamp,AccX,AccY,AccZ,AngleRoll,AnglePitch,AngleYaw,AngularVelX,AngularVelY,             AngularVelZ,Q1,Q2,Q3,Q4,MagX,MagY,MagZ,Height,Airpressure
0,4112876,-0.105273,-0.45459,10.0775,-2.55981,0.65918,127.348,0.976563,0.183105,0.366211,-0.443207,0.0151062,0.0175171,-0.896057,3839,63092,59179,5877,-30451
6,4112882,-0.129199,-0.46416,10.1062,-2.55432,0.65918,127.343,1.0376,0.0610352,0.610352,-0.443207,0.0150757,0.0174255,-0.896057,3837,63093,59183,5877,-30451
12,4112888,-0.153125,-0.492871,10.0775,-2.54333,0.65918,127.343,1.34277,-0.183105,1.0376,-0.443237,0.0150757,0.017395,-0.896057,3831,63095,59182,5877,-30451
18,4112894,-0.133984,-0.459375,10.1302,-2.54333,0.65918,127.348,1.0376,0,0.915527,-0.443207,0.0150452,0.017334,-0.896057,3831,63095,59185,5877,-30451
24,4112900,-0.119629,-0.435449,10.0775,-2.53784,0.65918,127.348,1.0376,0,1.0376,-0.443207,0.0150146,0.0173035,-0.896057,3830,63094,59188,5877,-30451
30,4112906,-0.105273,-0.45459,10.0775,-2.53235,0.664673,127.348,0.976563,0.183105,0.671387,-0.443207,0.0150146,0.0172729,-0.896057,3830,63094,59192,5877,-30451
36,4112912,-0.133984,-0.440234,10.0871,-2.52686,0.664673,127.343,0.549316,0,0.305176,-0.443237,0.0149841,0.0172119,-0.896057,3829,63095,59196,5877,-30451
72,4112948,0,0,0,0,0,0,0,0,0,-0.443451,0.0150452,0.0173035,-0.895966,0,0,0,0,0
78,4112954,-0.105273,-0.459375,10.0871,-2.55432,0.664673,127.304,-1.0376,0.12207,-0.12207,-0.443481,0.0150757,0.017334,-0.895935,3835,63100,59185,5877,-30451
84,4112960,-0.129199,-0.46416,10.0871,-2.55981,0.664673,127.299,-1.0376,0.12207,-0.244141,-0.443512,0.0150757,0.017395,-0.895905,3836,63101,59186,5877,-30451
90,4112966,-0.090918,-0.468945,10.0775,-2.56531,0.664673,127.299,-1.09863,0,-0.12207,-0.443573,0.0151062,0.0174255,-0.895905,3838,63099,59184,5877,-30451
96,4112972,-0.13877,-0.478516,10.0728,-2.5708,0.664673,127.293,-1.0376,0.0610352,-0.305176,-0.443634,0.0151672,0.0175171,-0.895844,3838,63097,59182,5877,-30451
102,4112978,-0.114844,-0.478516,10.0728,-2.57629,0.664673,127.282,-0.793457,0.0610352,-0.183105,-0.443665,0.0151978,0.0175476,-0.895844,3838,63094,59177,5877,-30451
108,4112984,-0.124414,-0.46416,10.0728,-2.58179,0.664673,127.277,-0.976563,-0.183105,-0.183105,-0.443726,0.0151978,0.0175781,-0.895813,3837,63093,59174,5877,-30451
114,4112990,-0.105273,-0.47373,10.0967,-2.58728,0.664673,127.271,-0.793457,-0.305176,0.183105,-0.443756,0.0152283,0.0176086,-0.895782,3836,63091,59173,5877,-30451
120,4112996,-0.114844,-0.502441,10.1158,-2.59277,0.664673,127.271,-0.976563,-0.0610352,0,-0.443756,0.0152283,0.0176697,-0.895782,3834,63088,59170,5877,-30451
126,4113002,-0.110059,-0.47373,10.0775,-2.59827,0.65918,127.266,-0.610352,-0.12207,0,-0.443817,0.0152588,0.0177307,-0.895752,3830,63086,59170,5877,-30451
132,4113008,-0.133984,-0.488086,10.0775,-2.60376,0.65918,127.26,-0.488281,-0.12207,0.12207,-0.443848,0.0152588,0.0177612,-0.895752,3825,63081,59176,5877,-30451
138,4113014,-0.129199,-0.492871,10.0919,-2.60376,0.65918,127.26,-0.0610352,-0.12207,0,-0.443878,0.0152588,0.0177917,-0.895721,3824,63080,59181,5877,-30451
144,4113020,-0.105273,-0.478516,10.0871,0,0,0,4.6853,1.02214,1.02214,0,0,0,0,0,0,0,0,0
162,4113038,-0.133984,-0.483301,10.0919,-2.59827,0.65918,127.249,0.549316,0.0610352,0.183105,-0.44397,0.0152283,0.0177612,-0.895691,3823,63080,59183,5877,-30451
168,4113044,-0.0957031,-0.47373,10.0823,-2.59277,0.65918,127.244,0.671387,-0.244141,0.305176,-0.44397,0.0152283,0.0177307,-0.895691,3826,63080,59186,5877,-30451
174,4113050,-0.129199,-0.468945,10.0823,-2.59277,0.653687,127.244,0.488281,-0.244141,0.305176,-0.444,0.0151978,0.0177307,-0.89566,3827,63081,59191,5877,-30451
180,4113056,-0.114844,-0.468945,10.0823,-2.58728,0.653687,127.244,0.671387,-0.12207,0.366211,-0.444,0.0151978,0.0177002,-0.89566,3829,63081,59193,5877,-30451
186,4113062,-0.114844,-0.46416,10.0967,-2.58728,0.653687,127.244,0.732422,-0.0610352,0.366211,-0.444031,0.0151672,0.0176697,-0.89566,3831,63081,59193,5877,-30451
192,4113068,-0.124414,-0.45459,10.0728,-2.57629,0.653687,127.238,0.793457,-0.12207,0.488281,-0.444031,0.0151367,0.0176392,-0.89566,3833,63079,59193,5877,-30451
198,4113074,-0.105273,-0.47373,10.0871,-2.57629,0.653687,127.238,0.732422,-0.305176,0.854492,-0.444031,0.0151367,0.0176086,-0.89566,3835,63077,59197,5877,-30451
204,4113080,-0.105273,-0.483301,10.1062,-2.5708,0.653687,127.238,0.610352,0,0.610352,-0.444031,0.0151062,0.0175781,-0.89566,3835,63076,59202,5877,-30451
210,4113086,-0.105273,-0.468945,10.1062,-2.5708,0.653687,127.238,0.671387,-0.12207,0.305176,-0.444031,0.0151062,0.0175476,-0.89566,3834,63075,59204,5877,-30451
216,4113092,-0.14834,-0.478516,10.1062,-2.56531,0.653687,127.238,0.732422,-0.0610352,0.732422,-0.444031,0.0150757,0.0175171,-0.89566,3834,63075,59206,5877,-30451
222,4113098,-0.0957031,-0.459375,10.0871,-2.55981,0.653687,127.244,0.671387,-0.12207,0.854492,-0.444031,0.0150452,0.0174866,-0.89566,3832,63077,59202,5877,-30451
228,4113104,-0.124414,-0.449805,10.0775,-2.55432,0.653687,127.244,0.488281,-0.12207,0.488281,-0.444,0.0150146,0.0174561,-0.89566,3833,63078,59198,5877,-30451
234,4113110,-0.13877,-0.468945,10.1015,-2.55432,0.653687,127.244,0.488281,0,0.793457,-0.444031,0.0150146,0.0174561,-0.89566,3834,63079,59197,5877,-30451
240,4113116,-0.100488,-0.449805,10.1015,-2.55432,0.653687,127.244,0.366211,-0.0610352,0.915527,-0.444,0.0150146,0.0174255,-0.89566,3834,63079,59194,5877,-30451
246,4113122,-0.16748,-0.459375,10.0728,-2.54883,0.653687,127.249,0.488281,0,1.0376,-0.444,0.0149841,0.017395,-0.895691,3833,63080,59193,5877,-30451
252,4113128,-0.090918,-0.459375,10.1206,-2.54883,0.648193,127.255,0.183105,-0.183105,1.64795,-0.443939,0.0149841,0.017395,-0.895691,3832,63082,59194,5877,-30451
258,4113134,-0.124414,-0.45459,10.0871,-2.54883,0.648193,127.26,0.183105,-0.12207,1.52588,-0.443909,0.0149841,0.017395,-0.895721,3831,63083,59193,5877,-30451
264,4113140,-0.14834,-0.468945,10.0728,-2.54883,0.648193,127.271,0,-0.12207,2.19727,-0.443878,0.0149841,0.0173645,-0.895721,3830,63083,59191,5877,-30451
270,4113146,-0.119629,-0.44502,10.0871,-2.54883,0.648193,127.277,0,-0.12207,1.70898,-0.443817,0.0149841,0.017395,-0.895752,3830,63083,59190,5877,-30451
276,4113152,-0.119629,-0.430664,10.1015,-2.54333,0.648193,127.282,0.183105,-0.183105,2.2583,-0.443726,0.0149536,0.017395,-0.895813,3831,63083,59187,5877,-30451
294,4113170,0,0,0,0,0,0,0,0,0,-0.443451,0.0149536,0.017334,-0.895935,0,0,0,5877,-30451
300,4113176,-0.133984,-0.521582,10.0728,-2.53235,0.648193,127.337,1.0376,-0.244141,3.41797,-0.44339,0.0149231,0.0173035,-0.895966,3834,63091,59188,5877,-30451
306,4113182,-0.46416,-0.363672,10.0775,-2.52686,0.648193,127.354,1.46484,-0.305176,3.54004,-0.443176,0.0148621,0.0172119,-0.896088,3836,63094,59191,5877,-30451
312,4113188,0.124414,-0.617285,10.1397,-2.4939,0.65918,127.425,4.3335,0.549316,9.82666,-0.442963,0.0148315,0.0171509,-0.89621,3839,63096,59200,5877,-30451
318,4113194,-0.0143555,-0.502441,10.1541,-2.4939,0.664673,127.458,-0.549316,0.671387,7.87354,-0.442596,0.014801,0.0169678,-0.896362,3840,63093,59203,5877,-30451
324,4113200,-0.14834,-0.354102,10.0058,-2.4884,0.664673,127.496,0.976563,-0.183105,8.72803,-0.442322,0.0148315,0.0169678,-0.896515,3841,63092,59207,5877,-30451
330,4113206,-0.129199,-0.435449,10.1062,-2.48291,0.664673,127.54,1.64795,0.183105,9.70459,-0.442017,0.0148315,0.0169373,-0.896667,3840,63092,59208,5877,-30451
336,4113212,-0.129199,-0.459375,10.1828,-2.47192,0.664673,127.584,1.64795,-0.610352,9.52148,-0.441345,0.0147705,0.0168152,-0.897003,3839,63094,59207,5877,-30451
342,4113218,-0.177051,-0.397168,10.0919,-2.47742,0.664673,127.667,-0.12207,-0.305176,10.1318,-0.441071,0.01474,0.0168152,-0.897156,3837,63098,59201,5877,-30451
348,4113224,-0.090918,-0.449805,10.044,-2.47192,0.664673,127.722,0.0610352,-0.732422,11.5967,-0.440704,0.01474,0.0168152,-0.897308,3838,63099,59200,5877,-30451
354,4113230,-0.181836,-0.392383,10.0871,-2.47742,0.664673,127.76,-0.610352,-0.854492,9.33838,-0.440277,0.01474,0.0168152,-0.897522,3839,63100,59199,5877,-30451
360,4113236,-0.0861328,-0.483301,10.0393,-2.47742,0.65918,127.798,-0.0610352,-0.915527,8.11768,-0.439972,0.01474,0.0168457,-0.897675,3839,63102,59195,5877,-30451
366,4113242,-0.13877,-0.435449,10.111,-2.47742,0.65918,127.826,-0.12207,-1.09863,6.65283,-0.439484,0.014679,0.0169067,-0.897919,3841,63104,59194,5877,-30451
372,4113248,-0.114844,-0.373242,10.135,-2.4884,0.653687,127.875,-0.793457,-0.732422,6.5918,-0.439301,0.014679,0.0169373,-0.89801,3845,63107,59189,5877,-30451
378,4113254,-0.129199,-0.411523,10.0728,-2.4884,0.648193,127.903,-0.793457,-0.732422,6.71387,-0.439087,0.0146484,0.0169983,-0.898102,3848,63068,59184,5877,-30451
384,4113260,-0.114844,-0.411523,10.1062,-2.49939,0.648193,127.93,-1.40381,-0.549316,6.34766,-0.438873,0.0146484,0.0170288,-0.898224,3851,63033,59180,5877,-30451
390,4113266,-0.143555,-0.387598,10.0967,-2.50488,0.648193,127.958,-1.64795,-0.549316,6.10352,-0.43866,0.014679,0.0170898,-0.898315,3854,63001,59178,5877,-30451
396,4113272,-0.133984,-0.277539,10.0871,-2.51038,0.648193,127.991,-0.854492,-0.427246,7.44629,-0.438171,0.014679,0.0171814,-0.89856,3856,62974,59178,5877,-30451
402,4113278,-0.15791,-0.397168,10.1493,-2.51587,0.648193,128.079,-1.52588,-0.671387,8.54492,-0.437805,0.014679,0.0171814,-0.898743,3857,62925,59180,5877,-30451
408,4113284,-0.129199,-0.430664,10.178,-2.52136,0.6427,128.123,-1.15967,-0.915527,9.46045,-0.4375,0.014679,0.0172424,-0.898895,3857,62906,59182,5877,-30451
414,4113290,-0.0717773,-0.607715,10.0393,-2.52136,0.6427,128.172,-0.305176,-0.854492,9.46045,-0.437134,0.014679,0.0173035,-0.899048,3857,62889,59182,5877,-30451
420,4113296,-0.0526367,-0.569434,9.96748,-2.51587,0.6427,128.21,0.488281,-0.12207,8.30078,-0.436768,0.0146484,0.017334,-0.899231,3856,62873,59183,5877,-30451
426,4113302,-0.105273,-0.397168,10.1062,-2.52136,0.6427,128.243,-0.976563,-0.12207,6.34766,-0.436218,0.014679,0.017334,-0.899506,3857,62860,59182,5877,-30451
432,4113308,-0.224902,-0.397168,10.135,-2.52686,0.6427,128.315,-0.732422,-0.305176,7.69043,-0.435944,0.014679,0.0173645,-0.899628,3858,62834,59177,5877,-30451
438,4113314,-0.0478516,-0.507227,10.0728,-2.53235,0.648193,128.353,-0.305176,-0.244141,8.36182,-0.435638,0.0147095,0.017395,-0.89978,3859,62822,59174,5877,-30451
444,4113320,-0.14834,-0.435449,10.1062,-2.53235,0.648193,128.392,-0.671387,-0.244141,6.95801,-0.435303,0.0147095,0.0174255,-0.899933,3862,62811,59171,5877,-30451
450,4113326,-0.244043,-0.325391,10.1015,-2.53235,0.648193,128.43,0.366211,-0.488281,7.87354,-0.435028,0.0147095,0.0174255,-0.900085,3864,62801,59170,5877,-30451
456,4113332,-0.090918,-0.507227,10.0967,-2.53235,0.648193,128.469,0.0610352,0,7.26318,-0.434418,0.0147095,0.0174255,-0.90036,3866,62793,59169,5877,-30451
558,4113434,-0.105273,-0.430664,10.0919,-2.46094,0.675659,128.908,0.793457,0,0.732422,-0.431,0.0145874,0.0168457,-0.902008,3853,62781,59167,5877,-30451
564,4113440,-0.114844,-0.46416,10.1062,-2.45544,0.675659,128.908,0.671387,0.183105,0.732422,-0.430969,0.0145569,0.0168457,-0.902039,3854,62781,59169,5877,-30451
570,4113446,-0.100488,-0.46416,10.1062,-2.45544,0.675659,128.908,0.671387,0.305176,0.305176,-0.430969,0.0145569,0.0168152,-0.902039,3856,62781,59172,5877,-30451
576,4113452,-0.124414,-0.435449,10.0919,-2.44995,0.675659,128.914,0.183105,0.183105,0.305176,-0.430939,0.0145569,0.0167542,-0.902039,3858,62782,59176,5877,-30451
648,4113524,0,0,0,0,0,0,0,0,0,-0.430298,0.0144348,0.0164795,-0.902374,0,0,0,0,0
654,4113530,-0.0957031,-0.449805,10.0919,-2.40601,0.681152,129.001,1.52588,0.305176,0.854492,-0.430267,0.0144043,0.016449,-0.902374,3868,62792,59190,5877,-30451
660,4113536,-0.110059,-0.435449,10.0823,-2.39502,0.681152,129.001,1.83105,0.488281,0.671387,-0.430237,0.0144043,0.0163879,-0.902405,3868,62793,59184,5877,-30451
666,4113542,-0.119629,-0.435449,10.0632,-2.38403,0.686646,129.001,1.89209,0.732422,0.488281,-0.430206,0.0143738,0.0162048,-0.902405,3867,62794,59179,5877,-30451
672,4113548,-0.119629,-0.401953,10.111,-2.36755,0.692139,129.007,1.70898,0.976563,0.305176,-0.430206,0.0143738,0.0161438,-0.902405,3864,62793,59174,5877,-30451
678,4113554,-0.114844,-0.435449,10.1158,-2.36206,0.697632,129.007,1.52588,0.732422,0.244141,-0.430206,0.0143738,0.0160522,-0.902405,3861,62792,59173,5877,-30451
684,4113560,-0.119629,-0.406738,10.1158,-2.35657,0.703125,129.007,1.40381,0.671387,0.305176,-0.430206,0.0143738,0.0159912,-0.902405,3860,62792,59173,5877,-30451
690,4113566,-0.124414,-0.416309,10.111,-2.35107,0.703125,129.007,0.976563,0.488281,0.305176,-0.430206,0.0143738,0.0159302,-0.902405,3859,62792,59171,5877,-30451
696,4113572,-0.129199,-0.416309,10.0919,-2.34558,0.703125,129.001,0.427246,0.183105,0.0610352,-0.430206,0.0143738,0.0158386,-0.902405,3860,62793,59171,5877,-30451
750,4113626,0,0,0,-2.37305,0.692139,128.985,0,0,0,-0.430359,0.0143738,0.0160522,-0.902344,3854,62810,59167,5877,-30451
756,4113632,-0.0957031,-0.421094,10.1015,-2.37305,0.692139,128.985,-0.549316,0.183105,-0.0610352,-0.430389,0.0144043,0.0160828,-0.902344,3855,62809,59164,5877,-30451
762,4113638,-0.110059,-0.416309,10.0775,-2.37854,0.697632,128.979,-0.305176,0.183105,-0.488281,-0.430389,0.0144043,0.0161133,-0.902313,3857,62807,59157,5877,-30451
768,4113644,-0.133984,-0.435449,10.0871,-2.38403,0.697632,128.974,-0.488281,0.183105,-0.305176,-0.43042,0.0144348,0.0161133,-0.902313,3857,62809,59155,5877,-30451
774,4113650,-0.114844,-0.425879,10.0584,-2.38403,0.697632,128.969,-0.549316,0.366211,-0.183105,-0.43045,0.0144348,0.0161438,-0.902283,3856,62811,59150,5877,-30451
780,4113656,-0.124414,-0.411523,10.1062,-2.38953,0.697632,128.969,-0.793457,0.244141,-0.244141,-0.430481,0.0144653,0.0161438,-0.902283,3855,62812,59146,5877,-30451
786,4113662,-0.133984,-0.440234,10.1062,-2.39502,0.697632,128.963,-0.976563,0.427246,-0.0610352,-0.430511,0.0145264,0.0162048,-0.902252,3854,62814,59143,5877,-30451
792,4113668,-0.105273,-0.435449,10.1062,-2.40601,0.703125,128.963,-0.915527,0.183105,-0.12207,-0.430542,0.0145569,0.0162354,-0.902252,3855,62812,59137,5877,-30451
798,4113674,-0.129199,-0.430664,10.1062,-2.40601,0.703125,128.958,-0.732422,0.12207,-0.244141,-0.430542,0.0145874,0.0162964,-0.902252,3855,62814,59138,5877,-30451
804,4113680,-0.110059,-0.435449,10.0919,-2.4115,0.703125,128.958,-0.549316,0.12207,-0.244141,-0.430573,0.0145874,0.0162964,-0.902222,3855,62815,59136,5877,-30451
810,4113686,-0.114844,-0.46416,10.068,-2.4115,0.703125,128.952,-0.610352,0,-0.12207,-0.430603,0.0146179,0.0163269,-0.902222,3854,62817,59138,5877,-30451
816,4113692,-0.129199,-0.459375,10.0775,-2.41699,0.703125,128.952,-0.0610352,0,0.12207,0,0,0,0,3852,62819,59142,0,-30451
942,4113818,-0.114844,-0.45459,10.0823,-2.37854,0.714111,128.908,0.610352,0,-0.12207,-0.430939,0.0145874,0.0160522,-0.902069,3848,62803,59171,5877,-30451
948,4113824,-0.13877,-0.44502,10.0919,-2.37305,0.714111,128.908,0.488281,0.0610352,0.0610352,-0.430939,0.0145874,0.0160217,-0.902069,3847,62805,59169,5877,-30451
954,4113830,-0.100488,-0.440234,10.1062,-2.37305,0.714111,128.908,0.488281,0,0,-0.430939,0.0145874,0.0159912,-0.902069,3847,62807,59165,5877,-30451
960,4113836,-0.14834,-0.459375,10.0728,-2.37305,0.714111,128.908,0.366211,0.0610352,-0.0610352,-0.430969,0.0145874,0.0159912,-0.902069,3848,62810,59164,5877,-30451
966,4113842,-0.119629,-0.430664,10.1158,-2.36755,0.714111,128.908,0.488281,0,0.244141,0,0,0,0,3850,62812,59161,5877,-30451
1062,4113938,-0.124414,-0.425879,10.1015,0,0,0,-0.610352,8.88758e-08,5.9814e-39,0,0,0,0,0,0,0,0,0
1152,4114028,0,0,0,-2.40051,0.725098,128.842,-0.183105,0,-0.12207,-0.431488,0.0147705,0.0161743,-0.901794,3854,62803,59184,5877,-30451
1158,4114034,-0.129199,-0.440234,10.0775,-2.40051,0.725098,128.837,-0.0610352,0.0610352,-0.0610352,-0.431488,0.0147705,0.0161743,-0.901794,3855,62806,59185,5877,-30451
1164,4114040,-0.114844,-0.45459,10.1062,-2.40051,0.725098,128.837,0.0610352,0.0610352,0,-0.431519,0.0147705,0.0161743,-0.901794,3856,62808,59185,5877,-30451
1170,4114046,-0.129199,-0.46416,10.0919,-2.40051,0.725098,128.837,0.305176,0.183105,0,-0.431519,0.0147705,0.0161743,-0.901794,3856,62810,59185,5886,-30452
1176,4114052,-0.143555,-0.435449,10.0728,-2.40051,0.725098,128.831,0.488281,0.12207,-0.0610352,-0.431549,0.0147705,0.0161438,-0.901764,3857,62810,59185,5886,-30452
1242,4114118,-0.133984,-0.425879,10.0775,-2.36206,0.736084,128.82,0.427246,0.183105,-0.0610352,-7.25049,-2.58351e-11,-7.25775,-7.25775,3857,62818,59169,5886,-30452
1362,4114238,-0.143555,-0.406738,10.135,-2.31262,0.736084,128.798,0.305176,0.12207,0,-0.431824,0.0145264,0.0154419,-0.901642,3868,62811,59159,5877,-30451
1368,4114244,-0.105273,-0.416309,10.0967,-2.31262,0.736084,128.798,0.12207,0,-0.0610352,-0.431824,0.0145569,0.0154114,-0.901642,3869,62811,59165,5877,-30451
1374,4114250,-0.133984,-0.392383,10.1206,-2.31262,0.736084,128.798,0,0,0,-0.431854,0.0145264,0.0154114,-0.901642,3870,62812,59171,5877,-30451
1380,4114256,-0.13877,-0.421094,10.1015,0,0,0,-0.183105,-0.183105,-0.0610352,0,0,0,0,0,0,0,0,0
1476,4114352,0,0,0,0,0,0,0,0,0,-0.43219,0.0147095,0.0157471,-0.901459,3856,62816,59164,5886,-30452
1572,4114448,0,0,0,-2.34009,0.741577,128.721,0.488281,0.183105,-0.0610352,-0.432434,0.014679,0.015625,-0.901367,3852,62834,59158,5877,-30451
1578,4114454,-0.143555,-0.440234,10.1158,-2.33459,0.741577,128.721,0.610352,0.305176,0,-0.432434,0.014679,0.0155945,-0.901337,3855,62834,59161,5877,-30451
1584,4114460,-0.133984,-0.425879,10.1062,-2.33459,0.74707,128.716,0.366211,0.244141,0,-0.432465,0.014679,0.015564,-0.901337,3859,62835,59163,5877,-30451
1590,4114466,-0.129199,-0.44502,10.0728,-2.33459,0.74707,128.716,0.305176,0.244141,0,-0.432465,0.0147095,0.0155334,-0.901337,3863,62835,59167,5877,-30451
1596,4114472,-0.124414,-0.406738,10.0823,-2.33459,0.74707,128.71,0.183105,0.0610352,-0.0610352,-0.432495,0.0147095,0.0155334,-0.901337,3865,62838,59170,5877,-30451
1668,4114544,-0.129199,-0.425879,10.111,-2.32361,0.74707,128.688,-0.244141,-0.0610352,0.12207,-0.432678,0.014679,0.0154114,-0.901245,3858,62822,59170,5877,-30451
1674,4114550,-0.129199,-0.425879,10.0775,-2.32361,0.74707,128.688,-0.366211,-0.183105,-0.0610352,-0.432678,0.014679,0.0154419,-0.901245,3855,62821,59167,5877,-30451
1680,4114556,-0.129199,-0.421094,10.0967,-2.3291,0.74707,128.688,-0.427246,0,0,-0.432709,0.014679,0.0154724,-0.901215,3852,62819,59164,5877,-30451
1686,4114562,-0.114844,-0.425879,10.1015,-2.33459,0.74707,128.683,-0.549316,-0.244141,-0.0610352,-0.432709,0.0147095,0.0155029,-0.901215,3848,62819,59157,5877,-30451
1692,4114568,-0.129199,-0.416309,10.1062,-2.33459,0.74707,128.683,-0.671387,-0.244141,-0.12207,-0.432739,0.0147095,0.0155334,-0.901215,3846,62817,59154,5877,-30451
1698,4114574,-0.143555,-0.421094,10.1158,-2.34009,0.741577,128.683,-0.793457,-0.366211,0,-0.432739,0.0147095,0.015564,-0.901215,3846,62815,59153,5877,-30451
1704,4114580,-0.133984,-0.416309,10.111,-2.34558,0.741577,128.683,-0.793457,-0.183105,-0.0610352,-0.432739,0.0147095,0.0155945,-0.901215,3848,62816,59150,5877,-30451
1710,4114586,-0.119629,-0.435449,10.0967,-2.35107,0.741577,128.677,-0.793457,-0.12207,0,-0.43277,0.0147095,0.015686,-0.901184,3848,62815,59150,5877,-30451
1716,4114592,-0.124414,-0.440234,10.1062,-2.35657,0.741577,128.677,-0.976563,0,-0.12207,-0.43277,0.01474,0.0157166,-0.901184,3851,62815,59155,5877,-30451
1806,4114682,0,0,0,0,0,0,0,0,0,-0.432953,0.0150146,0.0162659,-0.901093,0,0,0,0,0
1812,4114688,-0.133984,-0.46416,10.0632,-2.43347,0.741577,128.65,-0.793457,0.12207,0,-0.432953,0.0150146,0.0162964,-0.901093,3863,62820,59176,5877,-30451
1818,4114694,-0.14834,-0.45459,10.1158,-2.43347,0.741577,128.65,-0.305176,0.12207,0.305176,-0.432983,0.0150452,0.0163269,-0.901093,3866,62819,59176,5877,-30451
1824,4114700,-0.133984,-0.46416,10.1158,-2.43896,0.741577,128.655,-0.12207,0.0610352,0.305176,-0.432953,0.0150452,0.0163574,-0.901093,3867,62819,59174,5877,-30451
1830,4114706,-0.13877,-0.440234,10.0871,-2.43896,0.741577,128.655,0,0.12207,0.244141,-0.432953,0.0150452,0.0163574,-0.901093,3867,62818,59173,5877,-30451
1836,4114712,-0.13877,-0.47373,10.0967,-2.43347,0.741577,128.655,0.366211,-0.12207,0.488281,-0.432953,0.0150757,0.0163574,-0.901093,3860,62818,59168,5877,-30451
1902,4114778,0,0,0,-2.40051,0.741577,128.655,0.12207,0,0,-0.432953,0.0149536,0.0160522,-0.901093,3858,62812,59167,5886,-30452
1908,4114784,-0.14834,-0.440234,10.0919,-2.40051,0.741577,128.655,-0.12207,-0.0610352,0.0610352,-0.432953,0.0149231,0.0160522,-0.901093,3858,62813,59165,5886,-30452
1914,4114790,-0.124414,-0.416309,10.1015,-2.40051,0.741577,128.655,-0.0610352,0,-0.12207,-0.432953,0.0149536,0.0160522,-0.901093,3859,62814,59163,5886,-30452
1920,4114796,-0.153125,-0.425879,10.1062,-2.40051,0.741577,128.65,-0.183105,0,-0.183105,-0.432953,0.0149536,0.0160522,-0.901093,3862,62815,59163,5886,-30452
1926,4114802,-0.133984,-0.430664,10.1158,-2.4115,0.74707,128.65,-0.671387,0.0610352,-0.183105,-0.432983,0.0149536,0.0161133,-0.901062,3864,62815,59162,5886,-30452
1932,4114808,-0.114844,-0.435449,10.1015,-2.4115,0.74707,128.644,-0.427246,0.0610352,-0.244141,-0.433014,0.0149841,0.0161133,-0.901062,3863,62816,59162,5886,-30452
1938,4114814,-0.129199,-0.430664,10.1062,-2.4115,0.74707,128.644,-0.427246,0.0610352,-0.183105,-0.433014,0.0149841,0.0161438,-0.901062,3861,62817,59160,5886,-30452
1944,4114820,-0.133984,-0.449805,10.0775,-2.41699,0.74707,128.644,-0.366211,0,-0.183105,-0.433044,0.0150146,0.0161743,-0.901062,3860,62818,59158,5886,-30452
1950,4114826,-0.129199,-0.44502,10.111,-2.41699,0.74707,128.639,-0.244141,0.183105,-0.12207,-0.433044,0.0150146,0.0161743,-0.901031,3859,62819,59156,5886,-30452
1956,4114832,-0.133984,-0.46416,10.1015,-2.42249,0.74707,128.639,-0.427246,0.183105,-0.366211,-0.433075,0.0150452,0.0162048,-0.901031,3861,62821,59151,5886,-30452
1962,4114838,-0.133984,-0.44502,10.0871,-2.42249,0.74707,128.633,-0.366211,0.0610352,-0.427246,-0.433105,0.0150452,0.0162354,-0.901031,3862,62822,59145,5886,-30452
1968,4114844,-0.129199,-0.430664,10.1062,-2.42798,0.74707,128.633,-0.366211,0,-0.305176,-0.433105,0.0150757,0.0162354,-0.901001,3862,62824,59141,5886,-30452
1974,4114850,-0.133984,-0.435449,10.1015,-2.42798,0.74707,128.628,-0.366211,0,-0.549316,-0.433136,0.0150757,0.0162659,-0.901001,3861,62825,59140,5886,-30452
1980,4114856,-0.114844,-0.435449,10.0919,-2.43347,0.74707,128.622,-0.305176,0.305176,-0.549316,-0.433167,0.0150757,0.0162659,-0.901001,3859,62827,59141,5886,-30452
1986,4114862,-0.110059,-0.468945,10.0823,-2.43347,0.752563,128.617,-0.366211,0.183105,-0.610352,-0.433228,0.0151062,0.0162964,-0.90097,3856,62828,59145,5886,-30452
1992,4114868,-0.143555,-0.45459,10.1158,-2.43347,0.752563,128.611,-0.183105,0.244141,-0.427246,-0.433258,0.0151367,0.0162964,-0.90094,3856,62829,59146,5886,-30452
1998,4114874,-0.14834,-0.46416,10.1254,-2.43896,0.752563,128.611,-0.183105,0.366211,-0.366211,-0.433289,0.0151367,0.0162964,-0.90094,3857,62829,59145,5886,-30452
2004,4114880,-0.133984,-0.47373,10.0823,-2.43896,0.752563,128.606,0.0610352,0.244141,-0.366211,-0.433289,0.0151672,0.0162964,-0.900909,3858,62828,59147,5886,-30452
2010,4114886,-0.15791,-0.440234,10.0871,-2.43896,0.752563,128.606,0,0,-0.488281,-0.433319,0.0151672,0.0162964,-0.900909,3859,62825,59148,5886,-30452
2016,4114892,-0.124414,-0.46416,10.0967,-2.43896,0.752563,128.6,-0.183105,0.0610352,-0.366211,-0.43335,0.0151672,0.0163269,-0.900879,3860,62820,59150,5886,-30452
2028,4114904,0,0,0,0,0,0,0,0,0,-0.433411,0.0151978,0.0163269,-0.900848,0,0,0,0,0
2034,4114910,-0.119629,-0.449805,10.1062,-2.44995,0.752563,128.589,-0.671387,0.12207,-0.549316,-0.433441,0.0151978,0.0163574,-0.900848,3862,62811,59145,5886,-30452
2040,4114916,-0.129199,-0.435449,10.0728,-2.44995,0.752563,128.584,-0.610352,0.0610352,-0.488281,-0.433472,0.0152283,0.0163879,-0.900848,3862,62810,59145,5886,-30452
2046,4114922,-0.13877,-0.459375,10.0632,-2.45544,0.758057,128.578,-0.671387,0.12207,-0.671387,-0.433502,0.0152588,0.0164185,-0.900818,3859,62810,59148,5886,-30452
2052,4114928,-0.129199,-0.449805,10.0967,-2.46094,0.758057,128.573,-0.915527,0.0610352,-0.549316,-0.433533,0.0152588,0.016449,-0.900787,3856,62812,59148,5886,-30452
2058,4114934,-0.129199,-0.478516,10.0775,-2.46643,0.758057,128.573,-0.671387,0.244141,-0.488281,-0.433563,0.0152893,0.01651,-0.900787,3854,62814,59150,5886,-30452
2064,4114940,-0.129199,-0.46416,10.0823,-2.46643,0.758057,128.568,0,0.0610352,-0.366211,-0.433594,0.0153198,0.01651,-0.900757,3851,62814,59152,5886,-30452
2070,4114946,-0.129199,-0.468945,10.0919,-2.46094,0.758057,128.568,0.671387,0.0610352,-0.244141,-0.433624,0.0153198,0.01651,-0.900757,3849,62815,59152,5886,-30452
2076,4114952,-0.133984,-0.47373,10.111,-2.44995,0.758057,128.568,1.46484,0,0.0610352,-0.433624,0.0152588,0.016449,-0.900757,3846,62814,59145,5886,-30452
2142,4115018,-0.13877,-0.406738,10.1062,-2.30164,0.774536,128.562,1.83105,0.305176,-0.12207,-0.433655,0.0148315,0.0152283,-0.900757,3850,62826,59131,5877,-30451
2148,4115024,-0.143555,-0.411523,10.0488,-2.29065,0.774536,128.562,2.01416,0.427246,-0.244141,-0.433685,0.014801,0.0151367,-0.900757,3851,62827,59132,5877,-30451
2154,4115030,-0.143555,-0.401953,10.0967,-2.27966,0.780029,128.562,2.31934,0.427246,-0.244141,-0.433685,0.0147705,0.0150452,-0.900757,3851,62826,59132,5877,-30451
2160,4115036,-0.13877,-0.411523,10.0823,-2.26868,0.780029,128.557,2.50244,0.427246,-0.183105,-0.433716,0.0147705,0.0149536,-0.900757,3851,62826,59134,5877,-30451
2166,4115042,-0.14834,-0.401953,10.0919,-2.2467,0.780029,128.557,2.0752,0.183105,-0.12207,-0.433716,0.0147095,0.0147705,-0.900757,3852,62826,59142,5877,-30451
2172,4115048,-0.15791,-0.401953,10.1206,-2.23572,0.780029,128.557,2.2583,-0.0610352,-0.244141,-0.433716,0.014679,0.014679,-0.900757,3854,62827,59148,5877,-30451
2178,4115054,-0.124414,-0.397168,10.1158,-2.22473,0.780029,128.551,2.19727,0,-0.183105,-0.433746,0.0146179,0.0146179,-0.900726,3856,62828,59152,5877,-30451
2184,4115060,-0.13877,-0.401953,10.0871,-2.21375,0.780029,128.551,2.31934,-0.12207,-0.488281,-0.433746,0.0145874,0.0145264,-0.900726,3856,62830,59156,5877,-30451
2190,4115066,-0.129199,-0.430664,10.0823,-2.20276,0.780029,128.546,2.50244,-0.366211,-0.488281,-0.433807,0.0144958,0.0143433,-0.900726,3855,62830,59159,5877,-30451
2196,4115072,-0.14834,-0.411523,10.0871,-2.17529,0.774536,128.54,2.99072,-0.244141,-0.305176,-0.433838,0.0144348,0.0142517,-0.900696,3855,62829,59168,5877,-30451
2202,4115078,-0.114844,-0.416309,10.1158,-2.15881,0.774536,128.54,3.11279,-0.366211,-0.366211,-0.433868,0.0143738,0.0141602,-0.900696,3856,62827,59171,5877,-30451
2208,4115084,-0.133984,-0.411523,10.0967,-2.14783,0.774536,128.535,3.23486,-0.305176,-0.488281,-0.433868,0.0142822,0.0140381,-0.900696,3856,62828,59175,5877,-30451
2214,4115090,-0.114844,-0.378027,10.135,-2.13135,0.774536,128.535,3.05176,-0.12207,-0.305176,-0.433899,0.0142212,0.013916,-0.900665,3857,62828,59178,5877,-30451
2220,4115096,-0.114844,-0.416309,10.1062,-2.11487,0.774536,128.535,3.23486,0.0610352,-0.183105,-0.433929,0.0141602,0.0138245,-0.900665,3856,62828,59179,5877,-30451
2226,4115102,-0.119629,-0.392383,10.0823,-2.0874,0.774536,128.529,2.74658,0.12207,-0.12207,-0.43396,0.0140381,0.0135803,-0.900665,3852,62835,59178,5877,-30451
2232,4115108,-0.110059,-0.387598,10.1015,-2.07642,0.774536,128.524,2.38037,-0.12207,-0.427246,-0.43399,0.0140076,0.0134583,-0.900665,3849,62838,59176,5877,-30451
2238,4115114,-0.153125,-0.378027,10.1302,-2.07092,0.769043,128.518,1.46484,-0.244141,-0.793457,-0.434021,0.0139465,0.0133667,-0.900635,3847,62840,59172,5877,-30451
2244,4115120,-0.119629,-0.378027,10.0919,-2.05994,0.769043,128.518,1.52588,-0.12207,-0.305176,-0.434052,0.013916,0.0133362,-0.900635,3846,62840,59168,5877,-30451
2250,4115126,-0.14834,-0.378027,10.1062,-2.05444,0.769043,128.513,1.46484,-0.12207,-0.305176,-0.434082,0.013855,0.0132446,-0.900604,3845,62840,59163,5877,-30451
2256,4115132,-0.129199,-0.349316,10.111,-2.04346,0.769043,128.507,1.09863,0.0610352,-0.244141,-0.434113,0.0138245,0.0131836,-0.900604,3841,62839,59162,5877,-30451
2262,4115138,-0.129199,-0.349316,10.0967,-2.03796,0.769043,128.507,1.15967,0.244141,0,-0.434143,0.0138245,0.0131531,-0.900604,3840,62837,59162,5877,-30451
2268,4115144,-0.15791,-0.363672,10.1254,-2.03796,0.769043,128.507,0.915527,0,-0.183105,-0.434143,0.0137939,0.013092,-0.900574,3841,62837,59162,5877,-30451
2274,4115150,-0.14834,-0.368457,10.1015,-2.03247,0.769043,128.502,0.793457,0,-0.183105,-0.434174,0.0137939,0.0130615,-0.900574,3843,62839,59164,5877,-30451
2280,4115156,-0.129199,-0.349316,10.111,-2.03247,0.769043,128.502,0.671387,-0.0610352,-0.183105,-0.434174,0.0137939,0.0130615,-0.900574,3845,62841,59167,5877,-30451
2286,4115162,-0.133984,-0.363672,10.0919,-2.03247,0.769043,128.496,0,-0.183105,-0.12207,-0.434204,0.0137634,0.013031,-0.900543,3844,62844,59167,5877,-30451
2292,4115168,-0.124414,-0.358887,10.0919,-2.03247,0.769043,128.496,-0.244141,-0.244141,-0.0610352,0,0,0,0,3842,62846,59166,0,0
2382,4115258,-0.133984,-0.392383,10.0775,-2.11487,0.758057,128.436,-0.305176,0,-0.244141,-0.434662,0.0139771,0.0137329,-0.90033,3859,62847,59147,5877,-30451
2388,4115264,-0.119629,-0.392383,10.0871,-2.12036,0.758057,128.436,-0.427246,-0.183105,-0.0610352,-0.434692,0.0140076,0.0137634,-0.900299,3859,62846,59148,5877,-30451
2394,4115270,-0.133984,-0.378027,10.0775,-2.12036,0.752563,128.43,-0.488281,-0.244141,0,-0.434723,0.0140076,0.0137634,-0.900299,3859,62845,59147,5877,-30451
2400,4115276,-0.143555,-0.378027,10.1015,-2.12585,0.752563,128.43,-0.305176,-0.12207,0.12207,-0.434723,0.0140076,0.0138245,-0.900299,3860,62844,59147,5877,-30451
2406,4115282,-0.124414,-0.382813,10.0919,-2.12585,0.752563,128.43,-0.305176,-0.12207,-0.0610352,-0.434753,0.0140076,0.013855,-0.900269,3859,62842,59148,5877,-30451
2412,4115288,-0.143555,-0.397168,10.1015,-2.13135,0.752563,128.425,-0.366211,-0.183105,0,-0.434753,0.0140076,0.013855,-0.900269,3858,62842,59151,5877,-30451
2418,4115294,-0.119629,-0.397168,10.1397,-2.13135,0.752563,128.425,-0.366211,-0.0610352,-0.0610352,-0.434784,0.0140076,0.0138855,-0.900269,3858,62842,59151,5877,-30451
2424,4115300,-0.129199,-0.378027,10.1158,-2.13684,0.74707,128.425,-0.732422,-0.305176,0,-0.434784,0.0140076,0.0138855,-0.900269,3858,62841,59150,5877,-30451
2430,4115306,-0.124414,-0.406738,10.111,-2.13684,0.74707,128.419,-0.488281,-0.366211,-0.12207,-0.434814,0.0140076,0.0139465,-0.900238,3859,62839,59149,5877,-30451
2436,4115312,-0.129199,-0.382813,10.1015,-2.14233,0.74707,128.419,-0.488281,-0.0610352,-0.12207,-0.434845,0.0140076,0.0139771,-0.900238,3864,62836,59150,5877,-30451
2442,4115318,-0.110059,-0.382813,10.0919,-2.14783,0.74707,128.414,-0.305176,-0.12207,-0.12207,-0.434845,0.0140381,0.0140076,-0.900238,3866,62835,59152,5877,-30451
2448,4115324,-0.119629,-0.387598,10.1062,0,0,0,0,0,0,0,0,0,0,0,0,0,0,0
2502,4115378,-0.114844,-0.416309,10.1158,-2.13135,0.758057,128.375,1.0376,0.244141,-0.0610352,-0.435181,0.0140686,0.013916,-0.900085,3872,62838,59147,5877,-30451
2508,4115384,-0.153125,-0.411523,10.0823,-2.12585,0.758057,128.37,1.34277,0.305176,0,-0.435181,0.0140686,0.013855,-0.900055,3870,62838,59146,5877,-30451
2514,4115390,-0.129199,-0.440234,10.1062,-2.12036,0.758057,128.37,1.34277,0.183105,0.0610352,-0.435211,0.0140381,0.0137939,-0.900055,3869,62836,59146,5877,-30451
2520,4115396,-0.105273,-0.401953,10.0919,-2.10938,0.76355,128.37,1.64795,0.366211,0.0610352,-0.435211,0.0140076,0.0136719,-0.900055,3867,62835,59150,5877,-30451
2526,4115402,-0.119629,-0.397168,10.1254,-2.0874,0.76355,128.37,2.2583,0.427246,0.183105,-0.435242,0.0140076,0.0135803,-0.900055,3861,62835,59153,5877,-30451
2532,4115408,-0.129199,-0.373242,10.1062,-2.07642,0.769043,128.37,2.50244,0.610352,0.183105,-0.435242,0.0139771,0.0134888,-0.900055,3857,62835,59152,5877,-30451
2538,4115414,-0.13877,-0.378027,10.1302,-2.06543,0.774536,128.37,2.44141,0.610352,0.12207,-0.435242,0.0139465,0.0133972,-0.900055,3854,62836,59148,5877,-30451
2544,4115420,-0.119629,-0.411523,10.111,-2.05444,0.774536,128.37,2.50244,0.488281,0.183105,-0.435242,0.013916,0.0133057,-0.900055,3851,62838,59143,5877,-30451
2616,4115492,0,0,0,0,0,0,0,0,0,-0.435364,0.0133972,0.0119934,-0.900024,3841,62857,59152,5877,-30451
2718,4115594,-0.124414,-0.330176,10.0967,-1.79077,0.769043,128.331,1.15967,-0.0610352,0.183105,-0.435577,0.0128784,0.0111694,-0.899933,3854,62857,59152,5877,-30451
2724,4115600,-0.133984,-0.325391,10.1158,-1.78528,0.769043,128.326,1.40381,-0.183105,0.305176,-0.435577,0.0128479,0.0111389,-0.899933,3855,62858,59153,5877,-30451
2730,4115606,-0.124414,-0.311035,10.135,-1.77979,0.769043,128.326,1.28174,-0.12207,0.244141,-0.435608,0.0127869,0.0110474,-0.899933,3854,62859,59154,5877,-30451
2736,4115612,-0.119629,-0.263184,10.1445,-1.7688,0.769043,128.32,0.854492,0.0610352,0,-0.435608,0.0127869,0.0110168,-0.899933,3855,62862,59151,5877,-30451
2802,4115678,0,0,0,0,0,0,0,0,0,-0.436218,0.0109253,0.00811768,-0.899689,0,0,0,0,0
2808,4115684,-0.0861328,-0.0382813,10.2689,-1.26343,0.675659,128.188,12.2681,-4.08936,-6.5918,-0.436462,0.0105286,0.00772095,-0.899567,3847,62877,59138,5877,-30451
2814,4115690,-0.330176,-0.244043,10.5465,-1.19202,0.6427,128.145,15.1978,-6.7749,-8.60596,-0.436737,0.0101318,0.00735474,-0.899445,3849,62879,59141,5877,-30451
2820,4115696,-0.244043,0.401953,10.3407,-1.08765,0.604248,128.084,20.2026,-7.44629,-10.9253,-0.437561,0.00891113,0.0062561,-0.899048,3850,62841,59142,5877,-30451
2826,4115702,-0.44502,0.741699,10.9532,-0.74707,0.543823,127.919,40.4053,-4.82178,-18.4326,-0.438171,0.00811768,0.00524902,-0.898773,3849,62782,59142,5877,-30451
2832,4115708,-0.416309,3.55059,10.9293,-0.43396,0.516357,127.744,62.8662,-5.31006,-34.5459,-0.438904,0.00717163,0.00375366,-0.898438,3848,62760,59142,5877,-30451
2838,4115714,-0.712988,3.61279,10.7379,0.0494385,0.466919,127.491,97.7173,-10.376,-49.8047,-0.440308,0.0057373,0.00140381,-0.897766,3846,62744,59144,5877,-30451
2844,4115720,0.0382813,0.904395,11.0154,0.604248,0.390015,127.216,111.145,-15.7471,-53.4058,-0.442322,0.00344849,-0.00222778,-0.89679,3845,62735,59146,5877,-30451
2850,4115726,0.416309,-0.253613,11.9581,1.10962,0.274658,126.903,100.708,-24.8413,-61.2183,-0.446869,-0.00213623,-0.00973511,-0.89447,3842,62690,59148,5877,-30451
2856,4115732,-0.0478516,0.717773,14.3938,1.98303,-0.115356,126.233,89.7217,-47.6685,-67.749,-0.449402,-0.00518799,-0.0124207,-0.893158,3833,62628,59153,5877,-30451
2976,4115852,0,0,0,-6.43799,2.19727,121.317,-198.364,-15.2588,22.8271,-0.489441,0.0407715,0.0319214,-0.870422,5622,61340,59459,5877,-30451
2982,4115858,0.813477,0.334961,18.7722,-7.42126,2.15332,121.492,-203.735,-10.8032,32.959,-0.488159,0.04422,0.0395813,-0.870667,5704,61304,59389,5877,-30451
2988,4115864,0.344531,-0.330176,18.4755,-8.37158,2.0929,-1.13381e-36,-199.585,-14.1602,35.8887,0,0,0,0,0,0,0,0,0
3042,4115918,-2.64141,1.7418,2.26816,-20.6927,2.46643,124.266,-240.723,-10.0708,45.5933,-0.458984,0.0982666,0.140259,-0.871735,5400,61611,58469,5894,-30453
3048,4115924,-2.79932,1.99541,0.75127,-21.7694,2.48291,124.459,-233.459,-10.1929,38.0859,-0.456238,0.102631,0.148834,-0.871246,5321,61690,58426,5894,-30453
3054,4115930,-2.6749,2.34951,-0.598145,-22.8406,2.51038,124.612,-231.812,-6.46973,32.8369,-0.453796,0.106812,0.157135,-0.870544,5261,61788,58392,5894,-30453
3060,4115936,-2.45,2.86152,-1.77051,-23.8788,2.56531,124.728,-227.478,0,27.771,-0.449554,0.115356,0.173065,-0.868622,5163,61900,58364,5894,-30453
3066,4115942,-1.43555,3.73721,-4.86172,-25.8728,2.77405,124.843,-217.651,17.334,22.522,-0.447784,0.119843,0.18045,-0.867432,5011,62102,58327,5894,-30453
3072,4115948,-0.77041,4.22529,-6.52217,-26.8176,2.94434,124.86,-211.67,27.1606,23.7427,-0.446228,0.124512,0.187439,-0.866119,4954,62224,58314,5894,-30453
3078,4115954,-0.133984,4.56025,-8.16348,-27.7075,3.15857,124.86,-201.843,36.499,28.3203,-0.444733,0.129456,0.193939,-0.864716,4906,62320,58308,5894,-30453
3084,4115960,0.358887,4.94785,-9.9627,-28.5205,3.43323,124.843,-187.744,47.8516,34.729,-0.443298,0.134521,0.199768,-0.863342,4864,62434,58307,5894,-30453
3090,4115966,0.617285,5.1584,-11.848,-29.2236,3.76282,124.805,-168.396,59.2041,41.4429,-0.440643,0.144958,0.20871,-0.860901,4825,62530,58305,5894,-30453
3096,4115972,0.933105,4.29229,-16.3748,-30.2399,4.50989,124.689,-119.446,70.8008,55.542,-0.439514,0.150024,0.211517,-0.859924,4759,62748,58321,5894,-30453
3102,4115978,0.894824,3.92861,-18.5808,-30.52,4.85596,124.623,-90.6372,68.4204,60.6079,-0.438599,0.154633,0.213226,-0.859161,4727,62830,58333,5894,-30453
3108,4115984,0.378027,3.46924,-20.2795,-30.6354,5.15259,124.574,-59.2651,64.209,64.3921,-0.437927,0.158386,0.213867,-0.858643,4696,62940,58348,5894,-30453
3114,4115990,0.526367,4.39277,-22.0021,-30.498,5.42725,124.568,-14.2212,65.0024,72.6929,-0.437531,0.161133,0.21344,-0.858459,4663,63035,58364,5894,-30453
3120,4115996,0.62207,3.01465,-22.7486,-30.119,5.63599,124.678,29.1138,52.6733,81.2378,-0.436401,0.162537,0.207794,-0.860138,4631,63120,58379,5894,-30453
3126,4116002,0.75127,0.875684,-21.3418,-28.8336,5.73486,125.129,90.5151,13.1226,71.8994,-0.435486,0.160828,0.20343,-0.861969,4564,63269,58412,5902,-30454
3132,4116008,0.162695,0.846973,-20.3752,-27.9657,5.63599,125.431,117.798,-5.31006,67.5049,-0.43457,0.157562,0.198364,-0.864197,4579,63299,58428,5902,-30454
3138,4116014,-0.870898,0.746484,-19.3081,-27.4768,5.93811,125.755,142.212,-17.8223,64.7583,-0.433655,0.153015,0.192596,-0.866791,4590,63334,58440,5902,-30454
3144,4116020,-1.50732,0.47373,-17.9204,-26.8726,6.17981,126.09,166.199,-28.2593,63.0493,0,0,0,0,0,0,0,0,0
3162,4116038,-3.36396,-1.225,-11.0729,-23.4613,6.47095,127.458,237.793,-73.4863,43.2129,-0.423615,0.143707,0.164307,-0.879089,4618,63324,58444,5902,-30454
3168,4116044,-4.3832,-1.35898,-9.14443,-22.4725,6.3446,127.755,246.582,-85.144,31.189,-0.422333,0.139404,0.157562,-0.881622,4624,63264,58432,5902,-30454
3174,4116050,-5.04834,-1.62217,-7.13467,-21.4508,6.14136,127.991,254.333,-92.7734,15.8081,-0.421448,0.134399,0.150757,-0.884003,4628,63189,58419,5902,-30454
3180,4116056,-5.46943,-1.67959,-2.64619,-20.4126,5.89966,128.15,259.399,-94.4214,-0.549316,-0.421448,0.122925,0.137024,-0.887909,4632,63132,58403,5902,-30454
3186,4116062,-6.19678,0.91875,2.95723,-18.2428,5.43823,128.238,279.114,-74.8901,-27.1606,-0.422272,0.116974,0.129883,-0.889404,4637,62971,58358,5902,-30454
3192,4116068,-3.81377,-2.6127,-1.46904,-17.3035,5.42175,128.134,245.667,-32.3486,-35.4614,-0.423645,0.111267,0.122009,-0.890594,4637,62869,58335,5902,-30454
3198,4116074,-4.63682,-0.875684,1.24311e-38,0,0,0,0,0,0,0,0,0,0,0,0,0,0,0
3270,4116146,0,0,0,1.70837,2.85095,123.415,0,0,0,-0.47406,0.014801,-0.0249329,-0.879944,5120,60979,58616,5919,-30456
3276,4116152,9.81914,0.679492,49.8374,1.32385,2.69714,123.541,-54.6875,-12.3901,18.7988,-0.473877,0.0148621,-0.0237732,-0.880096,5160,60816,58677,5919,-30456
3282,4116158,8.94824,0.823047,47.0094,0.928345,2.57629,123.706,-81.543,-18.7378,31.25,-0.473022,0.0152893,-0.0213318,-0.880585,5177,60742,58703,5919,-30456
3288,4116164,7.89072,0.574219,44.033,0.373535,2.42249,123.909,-112.732,-24.4751,37.6587,-0.47171,0.0159912,-0.0177307,-0.881378,5193,60671,58730,5919,-30456
3294,4116170,6.46475,0.789551,41.2528,-0.307617,2.23572,124.135,-140.381,-31.7383,43.1519,-0.470093,0.0170898,-0.0128479,-0.882294,5209,60602,58759,5919,-30456
3300,4116176,3.88555,0.717773,34.6302,-1.08765,2.0105,124.398,-160.034,-40.1611,49.0112,-0.466125,0.0199585,0.000213623,-0.88443,5223,60580,58788,5919,-30456
3306,4116182,2.72275,0.842188,31.7208,-2.94434,1.46118,124.953,-198.608,-54.0771,51.5137,-0.463867,0.0215149,0.00814819,-0.885559,5251,60537,58840,5919,-30456
3312,4116188,1.82314,1.02881,28.9646,-3.98804,1.17554,125.239,-213.684,-55.603,50.7813,-0.461578,0.0231934,0.0168762,-0.886566,5264,60517,58857,5919,-30456
3318,4116194,1.0623,1.26807,26.127,-5.09216,0.895386,125.519,-225.464,-55.8472,49.9268,-0.459259,0.0251465,0.0261841,-0.887512,5275,60498,58862,5919,-30456
3324,4116200,0.29668,1.51689,23.4999,-6.24023,0.626221,125.804,-235.474,-55.1147,49.4385,-0.456909,0.0272827,0.0358887,-0.888306,5287,60479,58855,5919,-30456
3330,4116206,-1.03359,2.26338,18.6621,-7.43225,0.373535,126.085,-244.812,-53.0396,48.4619,-0.452118,0.0322876,0.0563049,-0.889526,5301,60460,58840,5919,-30456
3336,4116212,-1.69395,2.68447,16.5901,-9.90417,-0.0823975,126.645,-255.676,-50.1709,46.3867,-0.449738,0.0351563,0.066864,-0.889893,5298,60453,58762,5919,-30456
3342,4116218,-2.31123,3.06729,14.9871,-11.1401,-0.296631,126.925,-255.554,-49.8047,46.5088,-0.447327,0.0380859,0.0774536,-0.890137,5289,60456,58703,5919,-30456
3348,4116224,-2.70361,2.87109,13.408,-12.3706,-0.494385,127.205,-254.883,-47.9126,46.0205,-0.444855,0.0410461,0.0880127,-0.890259,5245,60485,58634,5919,-30456
3354,4116230,-3.36875,3.029,12.2835,-13.6176,-0.675659,127.485,-258.423,-45.2271,44.8608,-0.442352,0.0440369,0.0984497,-0.890259,5172,60531,58561,5919,-30456
3360,4116236,-4.8043,3.84727,9.91006,-14.8755,-0.818481,127.749,-262.024,-39.6729,43.9453,-0.437378,0.0505981,0.119354,-0.889832,5116,60563,58489,5919,-30456
3366,4116242,-5.15361,4.1583,8.36924,-17.4243,-0.922852,128.271,-268.921,-17.2119,47.8516,-0.434845,0.0544739,0.129639,-0.889404,4977,60678,58335,5911,-30455
3372,4116248,-5.58906,4.79951,7.35479,-18.6768,-0.856934,128.529,-263.184,-3.66211,52.2461,-0.432251,0.0588989,0.139801,-0.888855,4894,60759,58264,5911,-30455
3378,4116254,-5.22061,4.97656,5.47422,-19.9402,-0.708618,128.765,-267.395,12.6343,54.6875,-0.429504,0.0637817,0.149384,-0.888275,4784,60854,58196,5911,-30455
3384,4116260,-4.77559,5.91924,4.1918,-21.1761,-0.483398,128.963,-263.611,27.2217,52.3071,-0.426727,0.0693359,0.158752,-0.887573,4693,60973,58139,5911,-30455
3390,4116266,-3.92861,6.51738,0.16748,-22.3572,-0.203247,129.122,-252.808,39.2456,51.6968,-0.421661,0.081665,0.175812,-0.885742,4621,61103,58090,5911,-30455
3396,4116272,-3.32568,6.97197,-1.30635,-24.5325,0.406494,129.386,-234.192,44.0063,49.9268,-0.419281,0.0878906,0.18335,-0.884735,4424,61315,58020,5911,-30455
3402,4116278,-3.10078,6.84277,-3.03379,-25.5487,0.670166,129.512,-225.586,36.0107,48.584,-0.416962,0.0939636,0.190582,-0.883667,4347,61440,58000,5911,-30455
3408,4116284,-3.04814,7.02939,-5.14404,0,0,0,-224.792,25.5737,49.8047,0,0,0,0,0,0,0,0,0
3510,4116386,0,0,0,0,0,0,0,0,0,-0.391357,0.126129,0.20932,-0.887115,0,0,0,5902,-30454
3516,4116392,-1.90449,-0.890039,-10.5608,-26.2134,3.48267,131.852,245.422,-62.2559,-4.21143,-0.390961,0.123627,0.202148,-0.889313,3386,63415,58117,5902,-30454
3606,4116482,0,0,0,0,0,0,0,0,0,-0.446289,-0.00616455,0.065918,-0.892365,0,0,0,0,0
3612,4116488,11.4748,-0.339746,31.0604,-5.18555,-4.61426,126.909,103.088,-49.0112,-10.498,-0.447327,-0.0114746,0.061615,-0.89212,3635,61453,58053,5911,-30455
3618,4116494,10.8814,-0.0957031,28.419,-4.79553,-4.86694,126.936,72.8149,-43.5791,4.63867,-0.447693,-0.0157776,0.0584412,-0.89209,3661,61367,58082,5911,-30455
3624,4116500,9.91006,1.24414,26.4428,-4.50439,-5.12512,127.035,54.9316,-46.9971,18.4326,-0.447449,-0.0192871,0.056366,-0.892273,3687,61289,58109,5911,-30455
3630,4116506,8.1252,0.545508,21.5045,-4.21875,-5.45471,127.178,53.6499,-60.2417,27.2827,-0.445496,-0.0262146,0.0541077,-0.893188,3716,61179,58140,5911,-30455
3636,4116512,7.28779,0.124414,20.179,-3.68591,-6.42151,127.535,52.6733,-103.394,30.7617,-0.444122,-0.0307007,0.0536194,-0.893768,3683,61028,58187,5911,-30455
3702,4116578,0,0,0,-1.38428,-9.37683,129.485,36.1328,18.3716,29.6021,-0.427399,-0.0686646,0.0474243,-0.900146,3159,60454,58215,5911,-30455
3708,4116584,2.54092,-0.0861328,10.781,-1.21399,-9.34387,129.639,36.0107,10.9253,28.6865,-0.426056,-0.0687866,0.0457458,-0.900848,3125,60439,58213,5886,-30452
3714,4116590,2.23467,-0.0957031,11.0633,-1.07117,-9.34387,129.787,31.7993,3.66211,26.8555,-0.424744,-0.0691833,0.04422,-0.90152,3094,60427,58215,5886,-30452
3720,4116596,1.7083,-0.253613,11.8193,-0.950317,-9.37683,129.924,26.6724,-2.38037,24.1089,-0.422363,-0.0705566,0.0420837,-0.902649,3066,60417,58112,5886,-30452
3726,4116602,1.3207,-0.320605,11.9581,-0.796509,-9.43726,130.177,14.5874,0.366211,21.4844,-0.421295,-0.0712585,0.0414429,-0.903107,3019,60402,58219,5886,-30452
3732,4116608,1.03359,-0.196191,12.0012,-0.758057,-9.39331,130.309,9.58252,11.6577,22.8882,-0.420258,-0.0716553,0.0409241,-0.903595,2999,60397,58222,5886,-30452
3736,4116612,0,0,0,0,0,0,0,0,0,0,0,0,0,16355,44420,16360,0,0
3738,4116614,0.923535,-0.0669922,11.7571,-0.74707,-9.28345,130.446,5.24902,24.6582,24.5361,-0.41922,-0.0715027,0.0404053,-0.904114,2981,60392,58227,5886,-30452
3744,4116620,1.03359,0.0478516,11.336,-0.758057,-9.12964,130.589,1.40381,34.2407,25.0854,-0.418121,-0.0707397,0.0398254,-0.904694,2964,60388,58229,5886,-30452
3750,4116626,1.35898,0.0334961,10.2785,-0.780029,-8.95386,130.726,-2.01416,37.7197,23.9258,-0.415985,-0.0681152,0.0386963,-0.905914,2949,60384,58231,5886,-30452
3756,4116632,1.28721,0.119629,9.80957,-0.856934,-8.64624,130.979,-6.71387,31.0059,20.3857,-0.415009,-0.0667114,0.0382996,-0.906494,2916,60371,58237,5886,-30452
3792,4116668,0,0,0,0,0,0,0,0,0,-0.41156,-0.065033,0.0391541,-0.908142,2816,60345,58255,5886,-30452
3798,4116674,0.842188,1.16279,8.58936,-0.961304,-8.74512,131.287,5.12695,-5.79834,-8.48389,-0.411621,-0.0655518,0.0392761,-0.908081,2806,60369,58258,5886,-30452
3804,4116680,0.803906,0.995313,8.55586,-0.900879,-8.7561,131.265,8.97217,-0.366211,-9.15527,-0.411743,-0.0660095,0.039093,-0.90802,2799,60387,58263,5886,-30452
3810,4116686,1.21064,0.732129,8.63721,-0.829468,-8.74512,131.232,10.6812,4.5166,-10.2539,-0.412079,-0.0664368,0.0380554,-0.907867,2793,60401,58266,5886,-30452
3816,4116692,1.32549,0.765625,8.9291,-0.681152,-8.62976,131.16,11.6577,15.9302,-12.3291,-0.412323,-0.0663452,0.0373535,-0.907806,2784,60419,58272,5886,-30452
3822,4116698,1.52646,0.708203,8.81426,-0.598755,-8.53638,131.116,11.9629,20.0806,-12.5732,-0.412598,-0.06604,0.036499,-0.907715,2780,60426,58272,5877,-30451
3828,4116704,1.67959,0.736914,8.85254,-0.510864,-8.4375,131.078,13.4277,21.2402,-12.5122,-0.412903,-0.0655823,0.035553,-0.907654,2775,60432,58274,5877,-30451
3834,4116710,1.78008,0.722559,8.90039,-0.422974,-8.34412,131.039,14.5264,20.0195,-11.4746,-0.413208,-0.065094,0.0345459,-0.907593,2771,60436,58276,5877,-30451
3840,4116716,1.89014,0.880469,9.03438,-0.32959,-8.26721,131.012,14.7705,16.9678,-10.437,-0.413666,-0.0644226,0.0325317,-0.907501,2766,60438,58274,5877,-30451
3846,4116722,2.02412,0.947461,9.01523,-0.142822,-8.20679,130.946,15.1367,4.27246,-11.1084,0,0,0,0,0,0,0,0,0
3882,4116758,0.875684,0.861328,10.001,0.543823,-8.50891,130.748,17.7002,9.46045,-6.7749,-0.4151,-0.069397,0.0275269,-0.906647,2772,60571,58220,5877,-30451
3888,4116764,1.96191,-3.8042,36.9223,0.192261,-7.42676,130.88,-68.6035,217.712,19.7754,-0.415192,-0.0694275,0.0265808,-0.906647,2779,60587,58207,5877,-30451
3894,4116770,0.794336,-0.272754,7.1873,-0.0823975,-6.12488,131.039,-54.7485,262.817,26.9775,-0.414642,-0.0596313,0.0253601,-0.907623,2783,60598,58195,5877,-30451
3900,4116776,1.34463,1.03359,9.88135,-0.203247,-4.98779,131.199,-23.8647,229.309,27.2827,-0.41275,-0.0388794,0.0196228,-0.90976,2776,60606,58182,5877,-30451
3906,4116782,1.25371,0.378027,10.8767,-0.708618,-2.80151,131.391,-51.0254,217.285,18.9819,-0.412262,-0.0291138,0.0176086,-0.91037,2872,60648,58165,5877,-30451
3912,4116788,1.76094,0.569434,10.5465,-0.933838,-1.71936,131.501,-47.5464,220.642,21.3013,-0.41153,-0.0197449,0.0157166,-0.91098,2909,60679,58159,5877,-30451
3918,4116794,1.86621,0.799121,9.77607,-1.13708,-0.582275,131.605,-42.0532,232.117,22.3389,-0.410706,-0.0103149,0.0136414,-0.91156,2985,60705,58154,5877,-30451
3924,4116800,2.68447,0.775195,9.52246,-1.33484,0.609741,131.77,-42.2974,245.056,35.4614,-0.409821,-0.000579834,0.0111389,-0.912048,3036,60723,58149,5877,-30451
3930,4116806,0.923535,-0.110059,10.513,-1.55457,1.80725,131.907,-47.6685,245.483,30.3955,-0.407166,0.019928,0.00595093,-0.913055,3114,60737,58144,5877,-30451
3936,4116812,0.689063,0.0861328,11.1016,-1.87317,4.20776,132.094,-26.062,245.422,24.5972,-0.406128,0.030304,0.00335693,-0.913239,3297,60759,58149,5877,-30451
3972,4116848,0,0,0,0,0,0,0,0,0,-0.403076,0.0460205,0.0178833,-0.913788,0,0,0,5877,0
3978,4116854,-0.133984,0.45459,10.5656,-4.27368,3.99353,132.297,-29.1748,3.35693,1.83105,-0.402771,0.0465393,0.0189514,-0.913879,4030,61009,58207,5877,-30451
3984,4116860,-0.253613,-0.15791,10.3551,-4.40552,3.97705,132.292,-30.2734,1.77002,-1.0376,-0.402618,0.0469055,0.019989,-0.913879,4090,61044,58204,5877,-30451
3990,4116866,-0.0287109,-0.277539,9.97705,-4.56482,3.96057,132.275,-26.8555,0.305176,-2.38037,-0.402679,0.047699,0.0224609,-0.913757,4143,61075,58199,5877,-30451
3996,4116872,-0.339746,-0.818262,9.95791,-4.75708,3.91113,132.259,-18.3105,-0.12207,-2.01416,-0.40271,0.0479126,0.023468,-0.913727,4233,61126,58193,5877,-30451
4002,4116878,-0.330176,-1.33506,9.86221,-4.82849,3.89465,132.231,-16.5405,0.793457,-5.67627,-0.402771,0.0480042,0.0241394,-0.913666,4270,61149,58192,5877,-30451
4008,4116884,-0.234473,-0.291895,10.0105,-4.86145,3.87268,132.226,-9.58252,0.549316,-1.28174,-0.402954,0.0480957,0.0247498,-0.913574,4305,61167,58192,5877,-30451
4014,4116890,0.14834,-0.0717773,9.77129,-4.84497,3.85071,132.242,0,-0.488281,2.62451,-0.402985,0.0480652,0.0250549,-0.913544,4335,61186,58192,5877,-30451
4020,4116896,-0.703418,-3.22041,10.4651,-4.75708,3.84521,132.303,7.26318,3.05176,5.43213,-0.402435,0.0474548,0.0243835,-0.913849,4363,61201,58192,5877,-30451
4026,4116902,-0.459375,-1.99063,10.1015,-4.72412,3.83972,132.352,-5.61523,2.38037,4.45557,-0.402222,0.0472717,0.0239868,-0.91394,4411,61228,58183,5877,-30451
4032,4116908,-0.105273,-0.545508,10.0105,-4.73511,3.82324,132.369,-5.37109,0.549316,2.50244,-0.402039,0.0472717,0.0241394,-0.914032,4431,61239,58177,5877,-30451
4038,4116914,-0.14834,-0.90918,10.0153,-4.72961,3.81226,132.391,-0.366211,0.549316,3.05176,-0.401886,0.0472107,0.0243225,-0.914093,4448,61251,58171,5877,-30451
4044,4116920,-0.0861328,-0.607715,1.19724e+30,0,0,0,0,0,0,0,0,0,0,0,0,0,0,0
4068,4116944,0,0,0,-4.5813,3.68591,132.539,2.92969,-1.83105,3.41797,-0.400818,0.0457764,0.0237732,-0.914642,4515,61308,58145,5877,-30451
4074,4116950,-0.196191,-0.550293,10.0775,-4.55933,3.65845,132.561,3.11279,-2.01416,2.92969,-0.400665,0.0455017,0.0236511,-0.914734,4523,61312,58139,5877,-30451
4080,4116956,-0.129199,-0.535937,10.0871,-4.53186,3.63647,132.578,3.05176,-2.31934,1.95313,-0.400421,0.0449524,0.0234375,-0.914886,4530,61318,58136,5877,-30451
4086,4116962,-0.13877,-0.521582,10.1493,-4.48792,3.58704,132.61,2.68555,-2.56348,2.0752,-0.400299,0.0446472,0.0233459,-0.914948,4546,61322,58136,5877,-30451
4092,4116968,-0.124414,-0.507227,10.1062,-4.47144,3.56506,132.621,1.89209,-2.2583,1.52588,-0.400208,0.0443726,0.0232544,-0.915009,4553,61322,58137,5877,-30451
4098,4116974,-0.14834,-0.502441,10.111,-4.45496,3.54309,132.632,1.64795,-1.77002,1.28174,-0.400116,0.0441284,0.0232239,-0.915039,4560,61324,58142,5877,-30451
4104,4116980,-0.15791,-0.45459,10.0919,-4.43848,3.52112,132.638,1.52588,-1.52588,0.549316,-0.400055,0.0439148,0.0231628,-0.9151,4565,61323,58146,5877,-30451
4110,4116986,-0.114844,-0.492871,10.1062,-4.42749,3.50464,132.643,-0.244141,-1.40381,-0.0610352,-0.399963,0.0434875,0.0231018,-0.915161,4568,61325,58150,5877,-30451
4116,4116992,-0.110059,-0.488086,10.0823,-4.422,3.46619,132.654,-0.793457,-1.09863,-0.0610352,-0.399933,0.043335,0.0231323,-0.915161,4574,61335,58157,5877,-30451
4122,4116998,-0.124414,-0.502441,10.0871,-4.422,3.44971,132.66,-1.34277,-0.793457,0,-0.399902,0.0431824,0.0231628,-0.915192,4577,61339,58159,5877,-30451
4128,4117004,-0.0861328,-0.507227,10.1254,-4.422,3.43872,132.665,-1.77002,-0.366211,0.183105,-0.399872,0.0430603,0.0232239,-0.915222,4581,61341,58160,5877,-30451
4134,4117010,-0.0957031,-0.497656,10.1015,-4.42749,3.42773,132.671,-2.44141,-0.427246,0.366211,0,0,0,0,0,0,0,0,0
4242,4117118,0,0,0,-4.48242,3.19702,132.918,0.183105,0.12207,0,-0.397949,0.0412598,0.0247498,-0.916107,4621,61344,58146,5877,-30451
4248,4117124,-0.124414,-0.564648,10.1015,-4.47693,3.19153,132.924,0.244141,0.427246,0,-0.397888,0.0411987,0.0247192,-0.916107,4622,61347,58147,5877,-30451
4254,4117130,-0.100488,-0.559863,10.0967,-4.47144,3.18054,132.929,0.610352,0.244141,0.0610352,-0.397858,0.0411072,0.0246887,-0.916138,4623,61351,58145,5877,-30451
4260,4117136,-0.129199,-0.559863,10.0967,-4.46594,3.17505,132.935,0.671387,-0.0610352,0,-0.397766,0.0409241,0.0246277,-0.916199,4621,61353,58143,5877,-30451
4266,4117142,-0.129199,-0.569434,10.0967,-4.44946,3.15857,132.946,0.366211,-0.0610352,-0.12207,-0.397736,0.0408325,0.0245972,-0.916199,4617,61359,58139,5877,-30451
4272,4117148,-0.119629,-0.559863,10.0728,-4.44397,3.14758,132.951,0.488281,0,-0.0610352,-0.397705,0.040741,0.0245667,-0.916229,4617,61359,58140,5877,-30451
4278,4117154,-0.110059,-0.555078,10.0871,-4.43298,3.14209,132.957,0.854492,-0.0610352,-0.12207,-0.397644,0.0406494,0.0245667,-0.91626,4618,61359,58140,5877,-30451
4284,4117160,-0.110059,-0.574219,10.1254,-4.422,3.1311,132.962,1.0376,0.12207,-0.0610352,-0.397614,0.0405579,0.0245056,-0.91626,4617,61357,58144,5877,-30451
4290,4117166,-0.0526367,-0.267969,5.0627,-4.4165,3.12561,132.968,0.732422,0.183105,-0.0610352,-0.397522,0.0403748,0.0244141,-0.916321,4618,61352,58147,5877,-30451
4296,4117172,-0.119629,-0.555078,10.1062,-4.40002,3.11462,132.984,0.793457,0.183105,-0.0610352,-0.397491,0.0402832,0.0243835,-0.916351,4616,61345,58149,5877,-30451
4374,4117250,0,0,0,0,0,0,0,0,0,-0.39682,0.0392151,0.0243225,-0.916687,0,0,0,5877,-30451
4380,4117256,-0.0957031,-0.555078,10.0775,-4.36157,2.99927,133.083,-1.95313,-0.244141,0.305176,-0.396698,0.0391235,0.0244751,-0.916718,4623,61353,58137,5877,-30451
4386,4117262,-0.129199,-0.540723,10.068,-4.37256,2.98279,133.099,-1.64795,-0.427246,0.732422,-0.396637,0.039093,0.0245667,-0.916748,4622,61350,58137,5877,-30451
4392,4117268,-0.105273,-0.583789,10.0967,-4.37256,2.9718,133.11,-1.58691,-0.366211,0.610352,-0.396545,0.039032,0.0246277,-0.916809,4622,61349,58136,5877,-30451
4398,4117274,-0.119629,-0.564648,10.0488,-4.37805,2.96631,133.116,-1.34277,-0.12207,0.366211,-0.396484,0.0389709,0.0246887,-0.91684,4623,61345,58134,5877,-30451
4404,4117280,-0.110059,-0.555078,10.0967,-4.37805,2.95532,133.127,-0.854492,-0.0610352,0.244141,-0.396423,0.0389099,0.0247498,-0.91684,4623,61342,58134,5877,-30451
4410,4117286,-0.124414,-0.564648,10.0775,-4.37256,2.94983,133.132,-0.305176,0.0610352,0.366211,-0.396301,0.0387878,0.0247803,-0.916901,4624,61341,58133,5877,-30451
4416,4117292,-0.105273,-0.564648,10.0967,-4.36707,2.93335,133.149,-0.12207,0,0.488281,-0.39624,0.0387268,0.0247803,-0.916931,4625,61340,58133,5877,-30451
4488,4117364,0,0,0,-4.08691,2.84546,133.27,0,0,0,-0.395447,0.0371704,0.0232544,-0.917389,4625,61359,58135,5877,-30451
4494,4117370,-0.114844,-0.564648,10.0919,-4.02649,2.83447,133.281,11.1084,-1.2207,1.58691,-0.395355,0.0369263,0.0228882,-0.91745,4626,61362,58134,5877,-30451
4500,4117376,-0.143555,-0.607715,10.0919,-3.96606,2.81799,133.297,13.1226,-1.64795,1.77002,-0.395172,0.0363159,0.0220337,-0.917572,4625,61365,58134,5877,-30451
4506,4117382,-0.13877,-0.641211,10.1206,-3.82324,2.79053,133.33,14.7705,-1.34277,1.40381,-0.395081,0.0359497,0.0215149,-0.917633,4626,61374,58131,5877,-30451
4512,4117388,-0.129199,-0.516797,10.202,-3.72986,2.78503,133.33,17.9443,-0.854492,-0.244141,-0.394989,0.0355835,0.0209656,-0.917694,4629,61378,58133,5877,-30451
4518,4117394,-0.363672,-0.813477,10.2594,-3.62,2.77405,133.325,22.4609,-0.183105,-2.62451,-0.394989,0.0351868,0.0202637,-0.917725,4630,61380,58136,5877,-30451
4524,4117400,-0.368457,-0.732129,10.446,-3.46619,2.76855,133.314,30.6396,-0.366211,-3.23486,-0.395081,0.034729,0.0194092,-0.917725,4632,61384,58138,5877,-30451
4530,4117406,0.46416,-0.263184,11.092,-3.27942,2.75757,133.297,35.2783,0.732422,-6.10352,-0.395386,0.0334473,0.0167236,-0.917694,4633,61388,58141,5877,-30451
4536,4117412,-0.870898,-1.07187,11.0394,-2.80151,2.7356,133.253,60.9131,-2.68555,-6.04248,-0.39563,0.0328064,0.0153198,-0.917633,4632,61322,58148,5877,-30451
4584,4117460,5.51729,0.512012,17.0543,2.0105,0.346069,132.693,145.142,-178.894,-15.8081,-0.400482,0.00534058,-0.014801,-0.916107,4604,61154,58235,5877,-30451
4590,4117466,8.32617,2.31602,22.629,2.81799,-0.769043,132.578,184.814,-252.502,-11.6577,-0.401794,-0.0160522,-0.0198059,-0.915314,4576,61108,58253,5877,-30451
4596,4117472,8.93867,2.39258,26.4667,4.58679,-3.22998,132.303,174.988,-240.723,-12.3291,-0.402283,-0.0293274,-0.0226135,-0.914703,4502,61004,58291,5877,-30451
4602,4117478,8.49844,1.25371,28.5817,5.29541,-4.27917,132.182,144.592,-209.778,-6.71387,-0.40274,-0.0419617,-0.0252075,-0.91394,4469,60956,58313,5877,-30451
4608,4117484,8.17783,1.82314,29.7445,5.80627,-5.14709,132.155,105.774,-171.936,11.7798,-0.402954,-0.0528259,-0.0270996,-0.913239,4406,60883,58340,5877,-30451
4614,4117490,7.82373,1.07666,30.3235,6.11389,-5.82825,132.242,67.5659,-132.263,31.3721,-0.402435,-0.0615234,-0.0280762,-0.912903,4362,60828,58372,5877,-30451
4620,4117496,7.30693,1.75615,29.0938,6.20728,-6.32813,132.446,-13.4277,-58.4717,61.0352,-0.3992,-0.0722656,-0.0272522,-0.913544,4280,60747,58413,5877,-30451
4626,4117502,6.81406,2.45,27.931,5.80627,-6.82251,133.039,-45.2271,-23.3765,67.3828,-0.396881,-0.0744324,-0.0252991,-0.914429,4150,60626,58507,5877,-30451
4632,4117508,6.5126,2.79932,26.4236,5.38879,-6.828,133.401,-72.5098,7.26318,71.2891,-0.394379,-0.074646,-0.0227356,-0.915558,4092,60547,58569,5877,-30451
4638,4117514,6.43125,2.92373,24.6627,4.83948,-6.71814,133.775,-98.4497,30.9448,72.4487,-0.391785,-0.0732117,-0.0195618,-0.91687,4033,60487,58633,5877,-30451
4644,4117520,6.24463,3.32568,22.8396,4.1748,-6.52039,134.16,-122.62,47.3022,72.6929,-0.38916,-0.0704041,-0.0158081,-0.918274,4021,60405,58698,5877,-30451
4650,4117526,5.67998,3.75156,19.6335,0,0,0,-153.015,60.2417,72.6318,0,0,0,0,0,0,0,0,0
4662,4117538,5.23018,3.93818,17.5998,0.86792,-5.50964,135.571,-174.805,52.7344,60.9741,-0.379242,-0.0522156,0.00482178,-0.923737,4028,60034,58890,5886,-30452
4668,4117544,4.84258,3.89512,16.5231,-0.0878906,-5.31189,135.84,-189.697,44.1284,53.772,-0.377228,-0.0473633,0.0111389,-0.924774,4073,59931,58901,5886,-30452
4674,4117550,3.75156,4.3832,15.8724,-1.10413,-5.17456,136.088,-201.599,30.1514,51.1475,-0.375488,-0.0426331,0.018158,-0.925598,4065,59845,58888,5886,-30452
4680,4117556,2.0624,6.09629,14.3076,-2.18628,-5.11414,136.329,-252.686,4.02832,54.5654,-0.372253,-0.0343323,0.0343323,-0.926819,4064,59769,58855,5886,-30452
4686,4117562,0.985742,3.84727,16.1403,-4.78455,-5.11963,136.884,-268.433,-3.84521,59.2041,-0.370483,-0.0302124,0.0444031,-0.927246,4036,59629,58753,5886,-30452
4691,4117567,0,0,0,1.6315,4.6001,1.02932,0,0,0,0,0,0,0,0,0,0,0,0
4692,4117568,0.382813,4.56982,16.2217,-6.14685,-5.15259,137.186,-273.621,-8.8501,62.0728,-0.368469,-0.0261841,0.0552063,-0.927582,4024,59595,58679,5886,-30452
4698,4117574,-0.110059,5.479,15.657,-7.56409,-5.18555,137.483,-287.537,-10.9253,59.8755,-0.366272,-0.0222473,0.0662537,-0.927826,3983,59587,58598,5886,-30452
4704,4117580,-1.03359,5.01963,14.322,-9.09119,-5.224,137.774,-309.692,-12.7563,59.021,0,0,0,0,0,0,0,0,0
4722,4117598,-2.69404,7.27344,10.781,-15.6171,-5.0647,139.147,-328.796,6.04248,77.3315,-0.354004,0.000854492,0.129913,-0.926117,3563,59843,58174,5886,-30452
4728,4117604,-3.32568,7.0916,9.36455,-17.2321,-4.88892,139.493,-333.252,14.9536,79.834,-0.351013,0.00631714,0.142487,-0.925385,3427,59947,58102,5886,-30452
4734,4117610,-3.99561,7.35957,8.25918,-18.8196,-4.67468,139.839,-330.017,18.5547,83.8623,-0.3479,0.0122375,0.155029,-0.9245,3320,60096,58040,5886,-30452
4740,4117616,-4.40234,6.56045,5.2876,-20.3741,-4.43848,140.191,-333.679,27.5269,82.2754,-0.341217,0.024292,0.179169,-0.922363,3183,60246,57988,5886,-30452
4746,4117622,-4.69902,6.67529,4.57939,-23.5931,-3.82874,140.762,-345.276,41.0156,81.4209,-0.338013,0.0306702,0.191223,-0.920959,2966,60535,57907,5886,-30452
4752,4117628,-5.11533,6.92412,3.38789,-25.2411,-3.41125,140.955,-351.929,58.2886,77.2095,-0.334869,0.0377502,0.20343,-0.91922,2884,60704,57875,5886,-30452
4758,4117634,-5.52686,7.01982,1.75615,-26.9,-2.91687,141.064,-356.018,76.7212,72.2046,-0.332062,0.0455627,0.215546,-0.917114,2813,60874,57851,5886,-30452
