TimeSinceCollection,Timestamp,AccX,AccY,AccZ,AngleRoll,AnglePitch,AngleYaw,AngularVelX,AngularVelY,             AngularVelZ,Quaternion1,Quaternion2,Quaternion3,Quaternion4,MagX,MagY,MagZ,Height,Airpressure
0,669149,0.00957031,-0.540723,10.1302,-3.02124,-0.00549316,-87.5006,0,0,0,0.722076,-0.0191345,0.0181885,-0.691254,56446,773,56806,4722,-30313
6,669155,0,-0.521582,10.135,-3.02124,-0.00549316,-87.5006,0,0,0,0.722076,-0.0191345,0.0181885,-0.691254,56444,774,56804,4722,-30313
12,669161,-0.00957031,-0.540723,10.1015,-3.02124,-0.00549316,-87.5006,0,0,0,0.722076,-0.0191345,0.0181885,-0.691254,56441,775,56805,4722,-30313
18,669167,0.00957031,-0.531152,10.1015,-3.02124,-0.00549316,-87.5006,0,0,0,0.722076,-0.0191345,0.0181885,-0.691254,56439,776,56807,4722,-30313
24,669173,-0.00478516,-0.559863,10.1158,-3.02124,-0.00549316,-87.5006,0,0,0,0.722076,-0.0191345,0.0181885,-0.691254,56438,774,56810,4722,-30313
30,669179,-0.00478516,-0.535937,10.1254,-3.02124,-0.00549316,-87.5006,0,0,0,0.722076,-0.0191345,0.0181885,-0.691254,56439,773,56809,4722,-30313
36,669185,-0.00957031,-0.526367,10.1062,-3.02124,-0.00549316,-87.5006,0,0,0,0.722076,-0.0191345,0.0181885,-0.691254,56439,775,56809,4722,-30313
42,669191,0.00478516,-0.535937,10.1062,-3.02124,-0.00549316,-87.5006,0,0,0,0.722076,-0.0191345,0.0181885,-0.691254,56441,775,56812,4722,-30313
48,669197,-0.00478516,-0.540723,10.111,-3.02124,-0.00549316,-87.5006,0,0,0,0.722076,-0.0191345,0.0181885,-0.691254,56443,777,56820,4722,-30313
54,669203,-0.00478516,-0.540723,10.0728,-3.02124,-0.00549316,-87.5006,0,0,0,0.722076,-0.0191345,0.0181885,-0.691254,56442,778,56822,4722,-30313
60,669209,0.0191406,-0.521582,10.1206,-3.02124,-0.00549316,-87.5006,0,0,0,0.722076,-0.0191345,0.0181885,-0.691254,56442,777,56823,4722,-30313
66,669215,0,-0.516797,10.0967,-3.02124,-0.00549316,-87.5006,0,0,0,0.722076,-0.0191345,0.0181885,-0.691254,56442,775,56820,4722,-30313
72,669221,0.0191406,-0.545508,10.1062,-3.02124,-0.00549316,-87.5006,0,0,0,0.722076,-0.0191345,0.0181885,-0.691254,56442,774,56818,4722,-30313
78,669227,0,-0.516797,10.135,-3.02124,-0.00549316,-87.5006,0,0,0,0.722076,-0.0191345,0.0181885,-0.691254,56442,770,56813,4722,-30313
84,669233,-0.00478516,-0.526367,10.1158,-3.02124,-0.00549316,-87.5006,0,0,0,0.722076,-0.0191345,0.0181885,-0.691254,56439,768,56816,4722,-30313
90,669239,0.00957031,-0.521582,10.135,-3.02124,-0.00549316,-87.5006,0,0,0,0.722076,-0.0191345,0.0181885,-0.691254,56436,766,56820,4722,-30313
96,669245,0.00478516,-0.559863,10.1302,-3.02124,-0.00549316,-87.5006,0,0,0,0.722076,-0.0191345,0.0181885,-0.691254,56433,766,56824,4722,-30313
102,669251,-0.00478516,-0.535937,10.1015,-3.02124,-0.00549316,-87.5006,0,0,0,0.722076,-0.0191345,0.0181885,-0.691254,56431,767,56826,4722,-30313
108,669257,0.00478516,-0.550293,10.1254,-3.02124,-0.0109863,-87.5006,0,0,0,0.722076,-0.0191345,0.0181885,-0.691254,56429,770,56829,4722,-30313
114,669263,0,-0.535937,10.1302,-3.02124,-0.0109863,-87.5006,0,0,0,0.722076,-0.0191345,0.0181885,-0.691254,56427,772,56829,4722,-30313
120,669269,0,-0.540723,10.1302,-3.02124,-0.0109863,-87.5006,0,0,0,0.722076,-0.0191345,0.0181885,-0.691254,56426,774,56832,4722,-30313
126,669275,0.00478516,-0.535937,10.111,-3.02124,-0.0109863,-87.5006,0,0,0,0.722076,-0.0191345,0.0181885,-0.691254,56426,774,56833,4722,-30313
132,669281,-0.00478516,-0.531152,10.1206,-3.02124,-0.0109863,-87.5006,0,0,0,0.722076,-0.0191345,0.0181885,-0.691254,56426,772,56833,4722,-30313
138,669287,-0.00478516,-0.550293,10.1062,-3.02124,-0.0109863,-87.5006,0,0,0,0.722076,-0.0191345,0.0181885,-0.691254,56429,773,56830,4722,-30313
144,669293,0.0191406,-0.521582,10.1158,-3.02124,-0.0109863,-87.5006,0,0,0,0.722076,-0.0191345,0.0181885,-0.691254,56431,774,56826,4722,-30313
150,669299,0,-0.507227,10.1015,-3.02124,-0.0109863,-87.5006,0,0,0,0.722076,-0.0191345,0.0181885,-0.691254,56432,775,56822,4722,-30313
156,669305,0.00478516,-0.545508,10.111,-3.02124,-0.0109863,-87.5006,0,0,0,0.722076,-0.0191345,0.0181885,-0.691254,56433,777,56819,4722,-30313
162,669311,-0.00478516,-0.540723,10.1254,-3.02124,-0.0109863,-87.5006,0,0,0,0.722076,-0.0191345,0.0181885,-0.691254,56434,776,56816,4722,-30313
168,669317,0.00478516,-0.526367,10.1015,-3.02124,-0.0109863,-87.5006,0,0,0,0.722076,-0.0191345,0.0181885,-0.691254,56435,776,56815,4722,-30313
174,669323,-0.00478516,-0.545508,10.0967,-3.02124,-0.0109863,-87.5006,0,0,0,0.722076,-0.0191345,0.0181885,-0.691254,56435,775,56817,4722,-30313
180,669329,-0.0191406,-0.535937,10.111,-3.02124,-0.0109863,-87.5006,0,0,0,0.722076,-0.0191345,0.0181885,-0.691254,56436,772,56819,4722,-30313
186,669335,0,-0.531152,10.1254,-3.02124,-0.0109863,-87.5006,0,0,0,0.722076,-0.0191345,0.0181885,-0.691254,56436,771,56820,4722,-30313
192,669341,0,-0.526367,10.1254,-3.02124,-0.0109863,-87.5006,0,0,0,0.722076,-0.0191345,0.0181885,-0.691254,56435,770,56822,4722,-30313
198,669347,-0.0143555,-0.526367,10.1158,-3.02124,-0.0109863,-87.5006,0,0,0,0.722076,-0.0191345,0.0181885,-0.691254,56434,769,56821,4722,-30313
204,669353,-0.00957031,-0.545508,10.0919,-3.02124,-0.0109863,-87.5006,0,0,0,0.722076,-0.0191345,0.0181885,-0.691254,56434,770,56822,4722,-30313
210,669359,-0.00957031,-0.555078,10.1062,-3.02124,-0.00549316,-87.5006,0,0,0,0.722076,-0.0191345,0.0181885,-0.691254,56435,770,56822,4722,-30313
216,669365,0,-0.545508,10.0775,-3.02124,-0.00549316,-87.5006,0,0,0,0.722076,-0.0191345,0.0181885,-0.691254,56436,772,56823,4722,-30313
222,669371,0.00478516,-0.535937,10.0967,-3.02124,-0.00549316,-87.5006,0,0,0,0.722076,-0.0191345,0.0181885,-0.691254,56436,773,56823,4722,-30313
228,669377,-0.00957031,-0.540723,10.0823,-3.02124,-0.00549316,-87.5006,0,0,0,0.722076,-0.0191345,0.0181885,-0.691254,56440,776,56826,4722,-30313
234,669383,-0.00957031,-0.521582,10.1206,-3.02124,-0.00549316,-87.5006,0,0,0,0.722076,-0.0191345,0.0181885,-0.691254,56441,777,56828,4722,-30313
240,669389,0,-0.535937,10.111,-3.02124,-0.00549316,-87.5006,0,0,0,0.722076,-0.0191345,0.0181885,-0.691254,56440,777,56830,4722,-30313
246,669395,0,-0.535937,10.1206,-3.02124,-0.00549316,-87.5006,0,0,0,0.722076,-0.0191345,0.0181885,-0.691254,56440,775,56830,4722,-30313
252,669401,0.00957031,-0.535937,10.1158,-3.02673,-0.00549316,-87.5006,0,0,0,0.722076,-0.0191345,0.0181885,-0.691254,56439,774,56830,4722,-30313
258,669407,0.0143555,-0.526367,10.1254,-3.02673,-0.00549316,-87.5006,0,0,0,0.722076,-0.0191345,0.0181885,-0.691254,56438,772,56833,4722,-30313
264,669413,0.00957031,-0.521582,10.1206,-3.02673,-0.00549316,-87.5006,0,0,0,0.722076,-0.0191345,0.0181885,-0.691254,56437,770,56833,4722,-30313
270,669419,0.0334961,-0.535937,10.1158,-3.02673,-0.00549316,-87.5006,0,0,0,0.722076,-0.0191345,0.0181885,-0.691254,56437,770,56833,4722,-30313
276,669425,0,-0.531152,10.1158,-3.02673,-0.00549316,-87.5006,0,0,0,0.722076,-0.0191345,0.0181885,-0.691254,56437,769,56833,4722,-30313
282,669431,0.0143555,-0.540723,10.1158,-3.02673,-0.00549316,-87.5006,0,0,0,0.722076,-0.0191345,0.0181885,-0.691254,56436,767,56834,4722,-30313
288,669437,-0.00957031,-0.545508,10.1206,-3.02673,-0.00549316,-87.5006,0,0,0,0.722076,-0.0191345,0.0181885,-0.691254,56439,769,56834,4722,-30313
294,669443,-0.0191406,-0.555078,10.1254,-3.02673,-0.00549316,-87.5006,0,0,0,0.722076,-0.0191345,0.0181885,-0.691254,56441,770,56832,4722,-30313
300,669449,-0.0239258,-0.540723,10.0967,-3.02673,-0.00549316,-87.5006,0,0,0,0.722076,-0.0191345,0.0181885,-0.691254,56443,771,56831,4722,-30313
306,669455,-0.00478516,-0.526367,10.111,-3.02673,-0.00549316,-87.5006,0,0,0,0.722076,-0.0191345,0.0181885,-0.691254,56444,773,56831,4722,-30313
312,669461,0,-0.540723,10.1015,-3.02673,-0.00549316,-87.5006,0,0,0,0.722076,-0.0191345,0.0181885,-0.691254,56446,774,56829,4722,-30313
318,669467,0,-0.545508,10.1015,-3.02673,-0.00549316,-87.5006,0,0,0,0.722076,-0.0191345,0.0181885,-0.691254,56447,772,56826,4722,-30313
324,669473,-0.00478516,-0.516797,10.135,-3.02673,-0.00549316,-87.5006,0,0,0,0.722076,-0.0191345,0.0181885,-0.691254,56447,772,56824,4722,-30313
330,669479,-0.0191406,-0.550293,10.1206,-3.02673,-0.00549316,-87.5006,0,0,0,0.722076,-0.0191345,0.0181885,-0.691254,56448,772,56824,4722,-30313
336,669485,0,-0.545508,10.1206,-3.02673,-0.00549316,-87.5006,0,0,0,0.722076,-0.0191345,0.0181885,-0.691254,56448,772,56823,4722,-30313
342,669491,0,-0.526367,10.111,-3.02673,-0.00549316,-87.5006,0,0,0,0.722076,-0.0191345,0.0181885,-0.691254,56449,772,56823,4722,-30313
348,669497,0.00478516,-0.545508,10.1206,-3.02673,-0.00549316,-87.5006,0,0,0,0.722076,-0.0191345,0.0181885,-0.691254,56446,769,56815,4722,-30313
354,669503,0,-0.521582,10.1302,-3.02673,-0.00549316,-87.5006,0,0,0,0.722076,-0.0191345,0.0181885,-0.691254,56446,768,56814,4722,-30313
360,669509,0,-0.535937,10.0967,-3.02673,-0.00549316,-87.5006,0,0,0,0.722076,-0.0191345,0.0181885,-0.691254,56448,766,56813,4722,-30313
366,669515,0.00957031,-0.535937,10.1302,-3.02673,-0.00549316,-87.5006,0,0,0,0.722076,-0.0191345,0.0181885,-0.691254,56449,766,56811,4722,-30313
372,669521,0,-0.540723,10.1062,-3.02673,-0.00549316,-87.5006,0,0,0,0.722076,-0.0191345,0.0181885,-0.691254,56450,765,56810,4722,-30313
378,669527,-0.0239258,-0.512012,10.0919,-3.02673,-0.00549316,-87.5006,0,0,0,0.722076,-0.0191345,0.0181885,-0.691254,56450,764,56809,4722,-30313
384,669533,-0.00957031,-0.540723,10.1062,-3.02673,-0.00549316,-87.5006,0,0,0,0.722076,-0.0191345,0.0181885,-0.691254,56450,765,56813,4722,-30313
390,669539,0,-0.555078,10.1015,-3.02673,-0.00549316,-87.5006,0,0,0,0.722076,-0.0191345,0.0181885,-0.691254,56451,766,56817,4722,-30313
396,669545,0,-0.512012,10.1015,-3.02673,-0.00549316,-87.5006,0,0,0,0.722076,-0.0191345,0.0181885,-0.691254,56451,768,56821,4722,-30313
402,669551,-0.00957031,-0.550293,10.1158,-3.02673,-0.00549316,-87.5006,0,0,0,0.722076,-0.0191345,0.0181885,-0.691254,56451,769,56826,4722,-30313
408,669557,-0.0287109,-0.521582,10.1062,-3.02673,-0.00549316,-87.5006,0,0,0,0.722076,-0.0191345,0.0181885,-0.691254,56450,770,56830,4722,-30313
414,669563,-0.0143555,-0.550293,10.1015,-3.02673,-0.00549316,-87.5006,0,0,0,0.722076,-0.0191345,0.0181885,-0.691254,56450,809,56829,4722,-30313
420,669569,-0.00478516,-0.535937,10.1015,-3.02673,-0.00549316,-87.5006,0,0,0,0.722076,-0.0191345,0.0181885,-0.691254,56451,843,56824,4722,-30313
426,669575,0.0143555,-0.555078,10.1062,-3.02673,-0.00549316,-87.5006,0,0,0,0.722076,-0.0191345,0.0181885,-0.691254,56451,875,56823,4722,-30313
432,669581,0.00957031,-0.535937,10.1254,-3.02673,-0.00549316,-87.5006,0,0,0,0.722076,-0.0191345,0.0181885,-0.691254,56402,903,56823,4722,-30313
438,669587,-0.00957031,-0.535937,10.0919,-3.02673,-0.00549316,-87.5006,0,0,0,0.722076,-0.0191345,0.0181885,-0.691254,56411,876,56823,4722,-30313
444,669593,0,-0.526367,10.1206,-3.02673,-0.00549316,-87.5006,0,0,0,0.722076,-0.0191345,0.0181885,-0.691254,56413,864,56824,4722,-30313
450,669599,0.00478516,-0.531152,10.1062,-3.02673,-0.00549316,-87.5006,0,0,0,0.722076,-0.0191345,0.0181885,-0.691254,56414,853,56824,4722,-30313
456,669605,0,-0.555078,10.1158,-3.02673,-0.00549316,-87.5006,0,0,0,0.722076,-0.0191345,0.0181885,-0.691254,56417,842,56822,4722,-30313
462,669611,-0.0239258,-0.545508,10.111,-3.02673,-0.00549316,-87.5006,0,0,0,0.722076,-0.0191345,0.0181885,-0.691254,56419,833,56822,4722,-30313
468,669617,-0.00957031,-0.540723,10.1062,-3.02673,-0.00549316,-87.5006,0,0,0,0.722076,-0.0191345,0.0181885,-0.691254,56426,859,56821,4722,-30313
474,669623,0,-0.535937,10.1015,-3.02673,-0.00549316,-87.5006,0,0,0,0.722076,-0.0191345,0.0181885,-0.691254,56428,889,56821,4722,-30313
480,669629,0,-0.535937,10.1254,-3.02673,-0.00549316,-87.5006,0,0,0,0.722076,-0.0191345,0.0181885,-0.691254,56431,875,56822,4722,-30313
486,669635,0.0191406,-0.526367,10.135,-3.02673,-0.00549316,-87.5006,0,0,0,0.722076,-0.0191345,0.018219,-0.691254,56431,864,56823,4722,-30313
492,669641,0.00957031,-0.521582,10.1158,-3.02673,-0.00549316,-87.5006,0,0,0,0.722076,-0.0191345,0.018219,-0.691254,56432,854,56824,4722,-30313
498,669647,-0.00957031,-0.531152,10.1206,-3.02673,-0.00549316,-87.5006,0,0,0,0.722076,-0.0191345,0.018219,-0.691254,56432,837,56830,4722,-30313
504,669653,0.00478516,-0.521582,10.1062,-3.02673,-0.00549316,-87.5006,0,0,0,0.722076,-0.0191345,0.018219,-0.691254,56432,829,56832,4722,-30313
510,669659,-0.00957031,-0.535937,10.1637,-3.02673,-0.00549316,-87.5006,0,0,0,0.722076,-0.0191345,0.018219,-0.691254,56432,862,56832,4722,-30313
516,669665,0.0143555,-0.540723,10.1302,-3.02673,-0.00549316,-87.5006,0,0,0,0.722076,-0.0191345,0.018219,-0.691254,56432,850,56831,4722,-30313
522,669671,0,-0.521582,10.1206,-3.02673,-0.00549316,-87.5006,0,0,0,0.722076,-0.0191345,0.018219,-0.691254,56433,841,56828,4722,-30313
528,669677,0.0143555,-0.540723,10.1062,-3.02673,-0.00549316,-87.5006,0,0,0,0.722076,-0.0191345,0.018219,-0.691254,56436,828,56823,4722,-30313
534,669683,0,-0.535937,10.1062,-3.02673,-0.00549316,-87.5006,0,0,0,0.722076,-0.0191345,0.018219,-0.691254,56438,824,56822,4722,-30313
540,669689,0,-0.526367,10.1015,-3.02673,-0.00549316,-87.5006,0,0,0,0.722076,-0.0191345,0.018219,-0.691254,56438,819,56822,4722,-30313
546,669695,0.0143555,-0.545508,10.111,-3.02673,-0.00549316,-87.5006,0,0,0,0.722076,-0.0191345,0.018219,-0.691254,56437,814,56825,4722,-30313
552,669701,-0.00478516,-0.540723,10.1158,-3.02673,-0.00549316,-87.5006,0,0,0,0.722076,-0.0191345,0.018219,-0.691254,56438,810,56827,4722,-30313
558,669707,-0.0191406,-0.559863,10.0775,-3.02673,-0.00549316,-87.5006,0,0,0,0.722076,-0.0191345,0.018219,-0.691254,56442,803,56828,4722,-30313
564,669713,-0.0191406,-0.526367,10.1302,-3.02673,-0.00549316,-87.5006,0,0,0,0.722076,-0.0191345,0.018219,-0.691254,56443,798,56824,4722,-30313
570,669719,-0.00478516,-0.535937,10.1062,-3.02673,-0.00549316,-87.5006,0,0,0,0.722076,-0.0191345,0.018219,-0.691254,56442,796,56819,4722,-30313
576,669725,0.00957031,-0.540723,10.1062,-3.02673,-0.00549316,-87.5006,0,0,0,0.722076,-0.0191345,0.018219,-0.691254,56440,793,56815,4722,-30313
582,669731,0.0143555,-0.531152,10.0967,-3.02673,-0.00549316,-87.5006,0,0,0,0.722076,-0.0191345,0.018219,-0.691254,56438,790,56813,4722,-30313
588,669737,-0.0239258,-0.535937,10.1158,-3.02673,-0.00549316,-87.5006,0,0,0,0.722076,-0.0191345,0.018219,-0.691254,56438,788,56811,4722,-30313
594,669743,0,-0.540723,10.0919,-3.02673,-0.00549316,-87.5006,0,0,0,0.722076,-0.0191345,0.018219,-0.691254,56438,786,56811,4722,-30313
600,669749,0,-0.550293,10.1015,-3.02673,-0.00549316,-87.5006,0,0,0,0.722076,-0.0191345,0.018219,-0.691254,56439,785,56811,4722,-30313
606,669755,0,-0.535937,10.0728,-3.02673,-0.00549316,-87.5006,0,0,0,0.722076,-0.0191345,0.018219,-0.691254,56439,783,56812,4722,-30313
612,669761,-0.00957031,-0.535937,10.1302,-3.02673,-0.00549316,-87.5006,0,0,0,0.722076,-0.0191345,0.018219,-0.691254,56439,782,56813,4722,-30313
618,669767,0,-0.526367,10.111,-3.02673,-0.00549316,-87.5006,0,0,0,0.722076,-0.0191345,0.018219,-0.691254,56441,781,56815,4722,-30313
624,669773,0.00478516,-0.526367,10.1158,-3.02673,-0.00549316,-87.5006,0,0,0,0.722076,-0.0191345,0.018219,-0.691254,56443,780,56816,4722,-30313
630,669779,0.00957031,-0.526367,10.1302,-3.02673,-0.00549316,-87.5006,0,0,0,0.722076,-0.0191345,0.018219,-0.691254,56444,776,56817,4722,-30313
636,669785,-0.00957031,-0.555078,10.0919,-3.02673,-0.00549316,-87.5006,0,0,0,0.722076,-0.0191345,0.018219,-0.691254,56445,814,56818,4722,-30313
642,669791,0.0143555,-0.545508,10.1302,-3.02673,-0.00549316,-87.5006,0,0,0,0.722076,-0.0191345,0.018219,-0.691254,56444,849,56818,4722,-30313
648,669797,0.00957031,-0.535937,10.1062,-3.02673,-0.00549316,-87.5006,0,0,0,0.722076,-0.0191345,0.018219,-0.691254,56443,831,56817,4722,-30313
654,669803,0.00478516,-0.535937,10.0871,-3.02673,-0.00549316,-87.5006,0,0,0,0.722076,-0.0191345,0.018219,-0.691254,56443,825,56818,4722,-30313
660,669809,0.00957031,-0.535937,10.1015,-3.02673,-0.00549316,-87.5006,0,0,0,0.722076,-0.0191345,0.018219,-0.691254,56443,821,56818,4722,-30313
666,669815,0,-0.540723,10.1254,-3.02673,-0.00549316,-87.5006,0,0,0,0.722076,-0.0191345,0.018219,-0.691254,56443,817,56817,4722,-30313
672,669821,0,-0.550293,10.1062,-3.02673,-0.00549316,-87.5006,0,0,0,0.722076,-0.0191345,0.018219,-0.691254,56443,813,56815,4722,-30313
678,669827,0.00957031,-0.559863,10.1254,-3.02673,-0.00549316,-87.5006,0,0,0,0.722076,-0.0191345,0.018219,-0.691254,56441,808,56817,4722,-30313
684,669833,0.0143555,-0.540723,10.0919,-3.02673,-0.00549316,-87.5006,0,0,0,0.722076,-0.0191345,0.018219,-0.691254,56440,805,56822,4722,-30313
690,669839,0,-0.545508,10.1254,-3.02673,-0.00549316,-87.5006,0,0,0,0.722076,-0.0191345,0.018219,-0.691254,56441,802,56827,4722,-30313
696,669845,-0.00957031,-0.569434,10.1062,-3.02673,-0.00549316,-87.5006,0,0,0,0.722076,-0.0191345,0.018219,-0.691254,56443,800,56831,4722,-30313
702,669851,-0.00478516,-0.516797,10.1062,-3.02673,-0.00549316,-87.5006,0,0,0,0.722076,-0.0191345,0.018219,-0.691254,56445,799,56833,4722,-30313
708,669857,0.00957031,-0.535937,10.1206,-3.02673,-0.00549316,-87.5006,0,0,0,0.722076,-0.0191345,0.018219,-0.691254,56444,794,56827,4722,-30313
714,669863,0,-0.531152,10.0919,-3.02673,-0.00549316,-87.5006,0,0,0,0.722076,-0.0191345,0.018219,-0.691254,56441,793,56822,4722,-30313
720,669869,0.0143555,-0.535937,10.1158,-3.02673,-0.00549316,-87.5006,0,0,0,0.722076,-0.0191345,0.018219,-0.691254,56438,790,56821,4722,-30313
726,669875,0.0239258,-0.535937,10.1302,-3.02673,-0.00549316,-87.5006,0,0,0,0.722076,-0.0191345,0.018219,-0.691254,56436,788,56821,4722,-30313
732,669881,-0.00478516,-0.540723,10.1254,-3.02673,-0.00549316,-87.5006,0,0,0,0.722076,-0.0191345,0.018219,-0.691254,56435,787,56822,4722,-30313
738,669887,-0.00957031,-0.526367,10.1158,-3.02673,-0.00549316,-87.5006,0,0,0,0.722076,-0.0191345,0.018219,-0.691254,56433,784,56821,4722,-30313
744,669893,-0.0382813,-0.526367,10.1158,-3.02673,-0.00549316,-87.5006,0,0,0,0.722076,-0.0191345,0.018219,-0.691254,56433,784,56819,4722,-30313
750,669899,-0.00478516,-0.526367,10.1062,-3.02673,-0.00549316,-87.5006,0,0,0,0.722076,-0.0191345,0.018219,-0.691254,56433,783,56816,4722,-30313
756,669905,-0.0191406,-0.512012,10.0967,-3.02673,-0.00549316,-87.5006,0,0,0,0.722076,-0.0191345,0.018219,-0.691254,56433,782,56812,4722,-30313
762,669911,0,-0.540723,10.0728,-3.03223,-0.00549316,-87.5006,0,0,0,0.722076,-0.0191345,0.018219,-0.691254,56434,781,56808,4722,-30313
768,669917,-0.00478516,-0.531152,10.1015,-3.03223,-0.00549316,-87.5006,0,0,0,0.722076,-0.0191345,0.018219,-0.691254,56435,782,56801,4722,-30313
774,669923,0,-0.516797,10.1302,-3.03223,-0.00549316,-87.5006,0,0,0,0.722076,-0.0191345,0.018219,-0.691254,56434,783,56801,4722,-30313
780,669929,0,-0.521582,10.1302,-3.03223,-0.00549316,-87.5006,0,0,0,0.722076,-0.0191345,0.018219,-0.691254,56431,784,56805,4722,-30313
786,669935,0,-0.545508,10.1254,-3.03223,-0.00549316,-87.5006,0,0,0,0.722076,-0.0191345,0.018219,-0.691254,56429,784,56810,4722,-30313
792,669941,0,-0.535937,10.1254,-3.03223,-0.00549316,-87.5006,0,0,0,0.722076,-0.0191345,0.018219,-0.691254,56427,785,56814,4722,-30313
798,669947,0,-0.516797,10.1158,-3.03223,-0.00549316,-87.5006,0,0,0,0.722076,-0.0191345,0.018219,-0.691254,56425,782,56819,4722,-30313
804,669953,0.0143555,-0.535937,10.0967,-3.03223,-0.00549316,-87.5006,0,0,0,0.722076,-0.0191345,0.018219,-0.691254,56425,780,56819,4722,-30313
810,669959,-0.00957031,-0.559863,10.1062,-3.03223,-0.00549316,-87.5006,0,0,0,0.722076,-0.0191345,0.018219,-0.691254,56427,778,56821,4722,-30313
816,669965,-0.00478516,-0.526367,10.1397,-3.03223,-0.00549316,-87.5006,0,0,0,0.722076,-0.0191345,0.018219,-0.691254,56428,775,56822,4722,-30313
822,669971,-0.00478516,-0.535937,10.1015,-3.03223,-0.00549316,-87.5006,0,0,0,0.722076,-0.0191345,0.018219,-0.691254,56428,772,56823,4722,-30313
828,669977,0.00957031,-0.535937,10.1206,-3.03223,-0.00549316,-87.5006,0,0,0,0.722076,-0.0191345,0.018219,-0.691254,56432,770,56822,4722,-30313
834,669983,-0.0191406,-0.516797,10.1302,-3.03223,-0.00549316,-87.5006,0,0,0,0.722076,-0.0191345,0.018219,-0.691254,56434,770,56823,4722,-30313
840,669989,0.0143555,-0.526367,10.111,-3.03223,-0.00549316,-87.5006,0,0,0,0.722076,-0.0191345,0.018219,-0.691254,56436,771,56824,4722,-30313
846,669995,-0.0287109,-0.521582,10.1158,-3.03223,-0.00549316,-87.5006,0,0,0,0.722076,-0.0191345,0.018219,-0.691254,56438,772,56826,4722,-30313
852,670001,0.00957031,-0.540723,10.135,-3.03223,-0.00549316,-87.5006,0,0,0,0.722076,-0.0191345,0.0182495,-0.691254,56439,772,56830,4722,-30313
858,670007,-0.00478516,-0.535937,10.1015,-3.03223,-0.00549316,-87.5006,0,0,0,0.722076,-0.0191345,0.0182495,-0.691254,56440,774,56838,4722,-30313
864,670013,-0.00478516,-0.555078,10.1015,-3.03223,-0.00549316,-87.5006,0,0,0,0.722076,-0.0191345,0.0182495,-0.691254,56438,776,56839,4722,-30313
870,670019,0.00957031,-0.526367,10.111,-3.03223,-0.00549316,-87.5006,0,0,0,0.722076,-0.0191345,0.0182495,-0.691254,56436,778,56839,4722,-30313
876,670025,0.0191406,-0.512012,10.1206,-3.03223,-0.00549316,-87.5006,0,0,0,0.722076,-0.0191345,0.0182495,-0.691254,56433,778,56841,4722,-30313
882,670031,-0.00957031,-0.540723,10.111,-3.03223,-0.00549316,-87.5006,0,0,0,0.722076,-0.0191345,0.0182495,-0.691254,56433,778,56840,4722,-30313
888,670037,0.00478516,-0.531152,10.1397,-3.03223,-0.00549316,-87.5006,0,0,0,0.722076,-0.0191345,0.0182495,-0.691254,56433,781,56839,4722,-30313
894,670043,0,-0.545508,10.1397,-3.03223,-0.00549316,-87.5006,0,0,0,0.722076,-0.0191345,0.0182495,-0.691254,56436,783,56836,4722,-30313
900,670049,0,-0.545508,10.1158,-3.03223,-0.00549316,-87.5006,0,0,0,0.722076,-0.0191345,0.0182495,-0.691254,56438,783,56834,4722,-30313
906,670055,0.00478516,-0.526367,10.1206,-3.03223,-0.00549316,-87.5006,0,0,0,0.722076,-0.0191345,0.0182495,-0.691254,56438,784,56833,4722,-30313
912,670061,0.00478516,-0.545508,10.135,-3.03223,-0.00549316,-87.5006,0,0,0,0.722076,-0.0191345,0.0182495,-0.691254,56438,783,56829,4722,-30313
918,670067,0.00478516,-0.521582,10.1015,-3.03223,-0.00549316,-87.5006,0,0,0,0.722076,-0.0191345,0.0182495,-0.691254,56433,782,56821,4722,-30313
924,670073,-0.0239258,-0.521582,10.1254,-3.03223,-0.00549316,-87.5006,0,0,0,0.722076,-0.0191345,0.0182495,-0.691254,56430,780,56819,4722,-30313
930,670079,-0.00957031,-0.516797,10.1254,-3.03223,-0.00549316,-87.5006,0,0,0,0.722076,-0.0191345,0.0182495,-0.691254,56427,779,56817,4722,-30313
936,670085,0.0191406,-0.550293,10.1206,-3.03223,-0.00549316,-87.5006,0,0,0,0.722076,-0.0191345,0.0182495,-0.691254,56426,778,56818,4722,-30313
942,670091,-0.00478516,-0.531152,10.1158,-3.03223,-0.00549316,-87.5006,0,0,0,0.722076,-0.0191345,0.0182495,-0.691254,56425,778,56818,4722,-30313
948,670097,0,-0.526367,10.1062,-3.03223,-0.00549316,-87.5006,0,0,0,0.722076,-0.0191345,0.0182495,-0.691254,56423,778,56819,4722,-30313
954,670103,0.00478516,-0.535937,10.0919,-3.02673,-0.00549316,-87.5006,0,0,0,0.722076,-0.0191345,0.0182495,-0.691254,56422,777,56820,4722,-30313
960,670109,0,-0.526367,10.135,-3.02673,-0.00549316,-87.5006,0,0,0,0.722076,-0.0191345,0.0182495,-0.691254,56421,776,56821,4722,-30313
966,670115,-0.00957031,-0.521582,10.0967,-3.02673,-0.00549316,-87.5006,0,0,0,0.722076,-0.0191345,0.0182495,-0.691254,56423,774,56822,4722,-30313
972,670121,0.00478516,-0.521582,10.1158,-3.02673,-0.00549316,-87.5006,0,0,0,0.722076,-0.0191345,0.0182495,-0.691254,56425,771,56823,4722,-30313
978,670127,0.00478516,-0.535937,10.0967,-3.02673,-0.00549316,-87.5006,0,0,0,0.722076,-0.0191345,0.0182495,-0.691254,56426,768,56826,4722,-30313
984,670133,0.00478516,-0.535937,10.0871,-3.02673,-0.00549316,-87.5006,0,0,0,0.722076,-0.0191345,0.0182495,-0.691254,56427,768,56829,4722,-30313
990,670139,0,-0.526367,10.0871,-3.02673,-0.00549316,-87.5006,0,0,0,0.722076,-0.0191345,0.0182495,-0.691254,56428,768,56830,4722,-30313
996,670145,-0.00957031,-0.526367,10.0871,-3.02673,-0.00549316,-87.5006,0,0,0,0.722076,-0.0191345,0.0182495,-0.691254,56430,768,56830,4722,-30313
1002,670151,-0.0191406,-0.540723,10.111,-3.02673,-0.00549316,-87.5006,0,0,0,0.722076,-0.0191345,0.0182495,-0.691254,56434,769,56830,4722,-30313
1008,670157,-0.0239258,-0.521582,10.1397,-3.02673,-0.00549316,-87.5006,0,0,0,0.722076,-0.0191345,0.0182495,-0.691254,56437,769,56832,4722,-30313
1014,670163,0.0334961,-0.521582,10.111,-3.02673,-0.00549316,-87.5006,0,0,0,0.722076,-0.0191345,0.0182495,-0.691254,56440,768,56832,4722,-30313
1020,670169,0.00478516,-0.535937,10.1015,-3.02673,-0.00549316,-87.5006,0,0,0,0.722076,-0.0191345,0.0182495,-0.691254,56442,768,56833,4722,-30313
1026,670175,0.00478516,-0.507227,10.1158,-3.02673,-0.00549316,-87.5006,0,0,0,0.722076,-0.0191345,0.0182495,-0.691254,56441,767,56832,4722,-30313
1032,670181,0.00478516,-0.550293,10.111,-3.02673,-0.00549316,-87.5006,0,0,0,0.722076,-0.0191345,0.0182495,-0.691254,56441,768,56828,4722,-30313
1038,670187,0.0239258,-0.545508,10.1206,-3.02673,-0.00549316,-87.5006,0,0,0,0.722076,-0.0191345,0.0182495,-0.691254,56441,772,56825,4722,-30313
1044,670193,0.0143555,-0.545508,10.1302,-3.02673,-0.00549316,-87.5006,0,0,0,0.722076,-0.0191345,0.0182495,-0.691254,56442,774,56824,4722,-30313
1050,670199,0,-0.497656,10.1158,-3.02673,-0.00549316,-87.5006,0,0,0,0.722076,-0.0191345,0.0182495,-0.691254,56444,776,56823,4722,-30313
1056,670205,-0.00957031,-0.521582,10.1062,-3.02673,-0.00549316,-87.5006,0,0,0,0.722076,-0.0191345,0.0182495,-0.691254,56444,775,56820,4722,-30313
1062,670211,-0.0143555,-0.550293,10.1015,-3.02673,-0.00549316,-87.5006,0,0,0,0.722076,-0.0191345,0.018219,-0.691254,56443,775,56816,4722,-30313
1068,670217,0,-0.512012,10.1158,-3.02673,-0.00549316,-87.5006,0,0,0,0.722076,-0.0191345,0.018219,-0.691254,56441,775,56811,4722,-30313
1074,670223,0.0239258,-0.521582,10.1158,-3.02673,-0.00549316,-87.5006,0,0,0,0.722076,-0.0191345,0.018219,-0.691254,56439,775,56807,4722,-30313
1080,670229,0.0143555,-0.526367,10.1158,-3.02673,-0.00549316,-87.5006,0,0,0,0.722076,-0.0191345,0.018219,-0.691254,56439,775,56803,4722,-30313
1086,670235,0.00957031,-0.545508,10.1062,-3.02673,-0.00549316,-87.5006,0,0,0,0.722076,-0.0191345,0.018219,-0.691254,56438,774,56801,4722,-30313
1092,670241,0.00478516,-0.550293,10.1254,-3.02673,-0.00549316,-87.5006,0,0,0,0.722076,-0.0191345,0.018219,-0.691254,56439,772,56798,4722,-30313
1098,670247,-0.00478516,-0.526367,10.0871,-3.02673,-0.00549316,-87.5006,0,0,0,0.722076,-0.0191345,0.018219,-0.691254,56441,771,56799,4722,-30313
1104,670253,0.00478516,-0.526367,10.1062,-3.02673,-0.00549316,-87.5006,0,0,0,0.722076,-0.0191345,0.018219,-0.691254,56441,770,56802,4722,-30313
1110,670259,-0.00957031,-0.540723,10.1254,-3.02673,-0.00549316,-87.5006,0,0,0,0.722076,-0.0191345,0.018219,-0.691254,56439,771,56804,4722,-30313
1116,670265,0.00957031,-0.516797,10.111,-3.02673,-0.00549316,-87.5006,0,0,0,0.722076,-0.0191345,0.018219,-0.691254,56439,770,56806,4722,-30313
1122,670271,0,-0.521582,10.0919,-3.02673,-0.00549316,-87.5006,0,0,0,0.722076,-0.0191345,0.018219,-0.691254,56440,770,56807,4722,-30313
1128,670277,0,-0.516797,10.1015,-3.02673,-0.00549316,-87.5006,0,0,0,0.722076,-0.0191345,0.018219,-0.691254,56439,804,56810,4722,-30313
1134,670283,0,-0.540723,10.0871,-3.02673,-0.00549316,-87.5006,0,0,0,0.722076,-0.0191345,0.018219,-0.691254,56439,799,56815,4722,-30313
1140,670289,-0.00957031,-0.531152,10.0919,-3.02673,-0.00549316,-87.5006,0,0,0,0.722076,-0.0191345,0.018219,-0.691254,56438,796,56819,4722,-30313
1146,670295,0,-0.526367,10.0871,-3.02673,-0.00549316,-87.5006,0,0,0,0.722076,-0.0191345,0.018219,-0.691254,56437,795,56821,4722,-30313
1152,670301,0.00478516,-0.535937,10.1493,-3.02673,-0.00549316,-87.5006,0,0,0,0.722076,-0.0191345,0.018219,-0.691254,56438,798,56820,4722,-30313
1158,670307,-0.00957031,-0.555078,10.1015,-3.02673,-0.00549316,-87.5006,0,0,0,0.722076,-0.0191345,0.018219,-0.691254,56438,798,56821,4722,-30313
1164,670313,-0.00957031,-0.540723,10.1015,-3.02673,-0.00549316,-87.5006,0,0,0,0.722076,-0.0191345,0.018219,-0.691254,56437,798,56819,4722,-30313
1170,670319,-0.0239258,-0.526367,10.0967,-3.02673,-0.00549316,-87.5006,0,0,0,0.722076,-0.0191345,0.018219,-0.691254,56436,797,56820,4722,-30313
1176,670325,-0.0239258,-0.535937,10.1206,-3.02673,-0.00549316,-87.5006,0,0,0,0.722076,-0.0191345,0.018219,-0.691254,56435,796,56824,4722,-30313
1182,670331,0.00957031,-0.521582,10.1206,-3.02673,-0.00549316,-87.5006,0,0,0,0.722076,-0.0191345,0.018219,-0.691254,56434,795,56826,4722,-30313
1188,670337,-0.00957031,-0.555078,10.1206,-3.02673,-0.00549316,-87.5006,0,0,0,0.722076,-0.0191345,0.018219,-0.691254,56434,793,56831,4722,-30313
1194,670343,0.00478516,-0.531152,10.1062,-3.02673,-0.00549316,-87.5006,0,0,0,0.722076,-0.0191345,0.018219,-0.691254,56434,790,56833,4722,-30313
1200,670349,0,-0.545508,10.1254,-3.02673,-0.00549316,-87.5006,0,0,0,0.722076,-0.0191345,0.018219,-0.691254,56434,789,56834,4722,-30313
1206,670355,-0.0287109,-0.526367,10.1062,-3.02673,-0.00549316,-87.5006,0,0,0,0.722076,-0.0191345,0.018219,-0.691254,56433,787,56837,4722,-30313
1212,670361,0,-0.521582,10.0919,-3.02673,-0.00549316,-87.5006,0,0,0,0.722076,-0.0191345,0.018219,-0.691254,56431,784,56836,4722,-30313
1218,670367,0.00478516,-0.526367,10.0919,-3.02673,-0.00549316,-87.5006,0,0,0,0.722076,-0.0191345,0.018219,-0.691254,56433,778,56836,4722,-30313
1224,670373,0.0239258,-0.559863,10.111,-3.02673,-0.00549316,-87.5006,0,0,0,0.722076,-0.0191345,0.018219,-0.691254,56435,777,56832,4722,-30313
1230,670379,0,-0.555078,10.0967,-3.02673,-0.00549316,-87.5006,0,0,0,0.722076,-0.0191345,0.018219,-0.691254,56436,775,56831,4722,-30313
1236,670385,0.0191406,-0.535937,10.111,-3.02673,-0.00549316,-87.5006,0,0,0,0.722076,-0.0191345,0.018219,-0.691254,56436,775,56830,4722,-30313
1242,670391,0.00478516,-0.550293,10.1062,-3.02673,-0.00549316,-87.5006,0,0,0,0.722076,-0.0191345,0.018219,-0.691254,56434,775,56831,4722,-30313
1248,670397,-0.0143555,-0.526367,10.1062,-3.02673,-0.00549316,-87.5006,0,0,0,0.722076,-0.0191345,0.018219,-0.691254,56432,775,56833,4722,-30313
1254,670403,0.0191406,-0.526367,10.1302,-3.02673,-0.00549316,-87.5006,0,0,0,0.722076,-0.0191345,0.018219,-0.691254,56431,773,56834,4722,-30313
1260,670409,-0.0191406,-0.526367,10.1158,-3.02673,-0.00549316,-87.5006,0,0,0,0.722076,-0.0191345,0.018219,-0.691254,56431,772,56835,4722,-30313
1266,670415,-0.0143555,-0.526367,10.1015,-3.02673,-0.00549316,-87.5006,0,0,0,0.722076,-0.0191345,0.018219,-0.691254,56431,771,56836,4722,-30313
1272,670421,-0.00957031,-0.512012,10.111,-3.02673,-0.00549316,-87.5006,0,0,0,0.722076,-0.0191345,0.018219,-0.691254,56434,771,56833,4722,-30313
1278,670427,0,-0.531152,10.1206,-3.02673,-0.00549316,-87.5006,0,0,0,0.722076,-0.0191345,0.018219,-0.691254,56434,773,56831,4722,-30313
1284,670433,0.00478516,-0.526367,10.111,-3.02673,-0.00549316,-87.5006,0,0,0,0.722076,-0.0191345,0.018219,-0.691254,56434,774,56831,4722,-30313
1290,670439,-0.0239258,-0.550293,10.1158,-3.02673,-0.00549316,-87.5006,0,0,0,0.722076,-0.0191345,0.018219,-0.691254,56435,775,56832,4722,-30313
1296,670445,0.00957031,-0.526367,10.1206,-3.02673,-0.00549316,-87.5006,0,0,0,0.722076,-0.0191345,0.018219,-0.691254,56436,776,56831,4722,-30313
1302,670451,0,-0.535937,10.1062,-3.02673,-0.00549316,-87.5006,0,0,0,0.722076,-0.0191345,0.018219,-0.691254,56440,775,56830,4722,-30313
1308,670457,-0.00957031,-0.550293,10.1015,-3.02673,-0.00549316,-87.5006,0,0,0,0.722076,-0.0191345,0.018219,-0.691254,56441,777,56831,4722,-30313
1314,670463,0,-0.526367,10.1062,-3.02673,-0.00549316,-87.5006,0,0,0,0.722076,-0.0191345,0.018219,-0.691254,56442,779,56832,4722,-30313
1320,670469,0.0191406,-0.559863,10.0632,-3.02673,-0.00549316,-87.5006,0,0,0,0.722076,-0.0191345,0.018219,-0.691254,56444,781,56831,4722,-30313
1326,670475,-0.00478516,-0.550293,10.1254,-3.02673,-0.00549316,-87.5006,0,0,0,0.722076,-0.0191345,0.018219,-0.691254,56445,784,56830,4722,-30313
1332,670481,-0.00478516,-0.516797,10.0823,-3.02673,-0.00549316,-87.5006,0,0,0,0.722076,-0.0191345,0.018219,-0.691254,56446,783,56832,4722,-30313
1338,670487,-0.0239258,-0.555078,10.1015,-3.02673,-0.00549316,-87.5006,0,0,0,0.722076,-0.0191345,0.018219,-0.691254,56447,781,56837,4722,-30313
1344,670493,0,-0.559863,10.111,-3.02673,-0.00549316,-87.5006,0,0,0,0.722076,-0.0191345,0.0182495,-0.691254,56446,779,56841,4722,-30313
1350,670499,0,-0.535937,10.1206,-3.02673,-0.00549316,-87.5006,0,0,0,0.722076,-0.0191345,0.0182495,-0.691254,56446,778,56844,4722,-30313
1356,670505,0.00478516,-0.512012,10.1302,-3.02673,-0.00549316,-87.5006,0,0,0,0.722076,-0.0191345,0.0182495,-0.691254,56445,778,56844,4722,-30313
1362,670511,-0.0143555,-0.535937,10.0871,-3.02673,-0.00549316,-87.5006,0,0,0,0.722076,-0.0191345,0.0182495,-0.691254,56445,776,56842,4722,-30313
1368,670517,0,-0.535937,10.0919,-3.02673,-0.00549316,-87.5006,0,0,0,0.722076,-0.0191345,0.0182495,-0.691254,56445,776,56840,4722,-30313
1374,670523,0.00478516,-0.526367,10.0871,-3.02673,-0.00549316,-87.5006,0,0,0,0.722076,-0.0191345,0.0182495,-0.691254,56445,775,56837,4722,-30313
1380,670529,-0.0191406,-0.516797,10.1015,-3.02673,-0.00549316,-87.5006,0,0,0,0.722076,-0.0191345,0.0182495,-0.691254,56445,773,56835,4722,-30313
1386,670535,-0.00478516,-0.540723,10.0967,-3.02673,0,-87.5006,0,0,0,0.722076,-0.0191345,0.0182495,-0.691254,56444,772,56833,4722,-30313
1392,670541,-0.0143555,-0.521582,10.1015,-3.02673,0,-87.5006,0,0,0,0.722076,-0.0191345,0.0182495,-0.691254,56444,771,56831,4722,-30313
1398,670547,0.00478516,-0.540723,10.1158,-3.02673,0,-87.5006,0,0,0,0.722076,-0.0191345,0.0182495,-0.691254,56444,774,56827,4722,-30313
1404,670553,0.0143555,-0.521582,10.1254,-3.02673,0,-87.5006,0,0,0,0.722076,-0.0191345,0.0182495,-0.691254,56444,775,56826,4722,-30313
1410,670559,0.00478516,-0.531152,10.1158,-3.02673,0,-87.5006,0,0,0,0.722076,-0.0191345,0.0182495,-0.691254,56444,774,56823,4722,-30313
1416,670565,-0.00957031,-0.550293,10.1206,-3.02673,0,-87.5006,0,0,0,0.722076,-0.0191345,0.0182495,-0.691254,56442,774,56822,4722,-30313
1422,670571,0.00478516,-0.516797,10.135,-3.02673,0,-87.5006,0,0,0,0.722076,-0.0191345,0.0182495,-0.691254,56439,772,56819,4722,-30313
1428,670577,0.00478516,-0.526367,10.1015,-3.02673,0,-87.5006,0,0,0,0.722076,-0.0191345,0.0182495,-0.691254,56436,773,56819,4722,-30313
1434,670583,0.00957031,-0.516797,10.1254,-3.02673,0,-87.5006,0,0,0,0.722076,-0.0191345,0.0182495,-0.691254,56436,773,56822,4722,-30313
1440,670589,-0.00957031,-0.550293,10.111,-3.02673,0,-87.5006,0,0,0,0.722076,-0.0191345,0.0182495,-0.691254,56436,774,56827,4722,-30313
1446,670595,0,-0.526367,10.1015,-3.02673,0,-87.5006,0,0,0,0.722076,-0.0191345,0.0182495,-0.691254,56435,774,56830,4722,-30313
1452,670601,-0.00478516,-0.555078,10.111,-3.02673,0,-87.5006,0,0,0,0.722076,-0.0191345,0.0182495,-0.691254,56436,775,56836,4722,-30313
1458,670607,-0.00957031,-0.555078,10.1158,-3.02673,0,-87.5006,0,0,0,0.722076,-0.0191345,0.0182495,-0.691254,56435,776,56839,4722,-30313
1464,670613,-0.00957031,-0.535937,10.0919,-3.02673,0,-87.5006,0,0,0,0.722076,-0.0191345,0.0182495,-0.691254,56434,779,56842,4722,-30313
1470,670619,0,-0.531152,10.1062,-3.02673,0,-87.5006,0,0,0,0.722076,-0.0191345,0.0182495,-0.691254,56435,780,56845,4722,-30313
1476,670625,-0.00478516,-0.526367,10.1254,-3.02673,0,-87.5006,0,0,0,0.722076,-0.0191345,0.0182495,-0.691254,56436,779,56845,4722,-30313
1482,670631,0,-0.540723,10.111,-3.02673,0,-87.5006,0,0,0,0.722076,-0.0191345,0.0182495,-0.691254,56440,817,56843,4722,-30313
1488,670637,-0.00957031,-0.535937,10.1015,-3.02673,0,-87.5006,0,0,0,0.722076,-0.0191345,0.0182495,-0.691254,56440,810,56841,4722,-30313
1494,670643,-0.00478516,-0.531152,10.1397,-3.02673,0,-87.5006,0,0,0,0.722076,-0.0191345,0.0182495,-0.691254,56441,845,56837,4722,-30313
1500,670649,-0.0239258,-0.550293,10.1062,-3.02673,0,-87.5006,0,0,0,0.722076,-0.019104,0.0182495,-0.691254,56441,835,56835,4722,-30313
1506,670655,0.00478516,-0.521582,10.0967,-3.02673,0,-87.5006,0,0,0,0.722076,-0.019104,0.0182495,-0.691254,56442,827,56835,4722,-30313
1512,670661,0.0143555,-0.526367,10.111,-3.02673,0,-87.5006,0,0,0,0.722076,-0.019104,0.0182495,-0.691254,56395,850,56838,4722,-30313
1518,670667,0,-0.521582,10.0967,-3.02673,0,-87.5006,0,0,0,0.722076,-0.019104,0.0182495,-0.691254,56351,841,56840,4722,-30313
1524,670673,-0.0143555,-0.545508,10.1302,-3.02673,0,-87.5006,0,0,0,0.722076,-0.019104,0.0182495,-0.691254,56363,832,56840,4722,-30313
1530,670679,-0.00957031,-0.512012,10.1206,-3.02673,0,-87.5006,0,0,0,0.722076,-0.019104,0.0182495,-0.691254,56373,824,56840,4722,-30313
1536,670685,-0.00957031,-0.521582,10.1302,-3.02673,0,-87.5006,0,0,0,0.722076,-0.019104,0.0182495,-0.691254,56332,817,56840,4722,-30313
1542,670691,-0.0191406,-0.535937,10.135,-3.02673,0,-87.5006,0,0,0,0.722076,-0.019104,0.0182495,-0.691254,56295,812,56839,4722,-30313
1548,670697,0,-0.526367,10.1158,-3.02673,0,-87.5006,0,0,0,0.722076,-0.019104,0.0182495,-0.691254,56324,806,56838,4722,-30313
1554,670703,-0.00957031,-0.531152,10.111,-3.02673,0,-87.5006,0,0,0,0.722076,-0.019104,0.0182495,-0.691254,56335,805,56836,4722,-30313
1560,670709,0.00478516,-0.512012,10.1062,-3.02673,0,-87.5006,0,0,0,0.722076,-0.019104,0.0182495,-0.691254,56344,801,56834,4722,-30313
1566,670715,0,-0.559863,10.1206,-3.02673,0,-87.5006,0,0,0,0.722076,-0.019104,0.0182495,-0.691254,56352,795,56829,4722,-30313
1572,670721,-0.00957031,-0.526367,10.1062,-3.02673,0,-87.5006,0,0,0,0.722076,-0.019104,0.0182495,-0.691254,56360,791,56827,4722,-30313
1578,670727,0,-0.535937,10.0919,-3.02673,0,-87.5006,0,0,0,0.722076,-0.019104,0.0182495,-0.691254,56376,784,56818,4722,-30313
1584,670733,-0.0239258,-0.531152,10.111,-3.02673,0,-87.5006,0,0,0,0.722076,-0.019104,0.0182495,-0.691254,56381,782,56815,4722,-30313
1590,670739,0.0143555,-0.531152,10.111,-3.02673,0,-87.5006,0,0,0,0.722076,-0.019104,0.0182495,-0.691254,56388,782,56815,4722,-30313
1596,670745,-0.00478516,-0.521582,10.1206,-3.02673,0,-87.5006,0,0,0,0.722076,-0.019104,0.0182495,-0.691254,56394,782,56817,4722,-30313
1602,670751,-0.0191406,-0.535937,10.1206,-3.02673,0,-87.5006,0,0,0,0.722076,-0.019104,0.0182495,-0.691254,56400,781,56825,4722,-30313
1608,670757,0.00957031,-0.540723,10.1206,-3.02673,0,-87.5006,0,0,0,0.722076,-0.019104,0.0182495,-0.691254,56402,781,56825,4722,-30313
1614,670763,0.00957031,-0.535937,10.1158,-3.02673,0,-87.5006,0,0,0,0.722076,-0.019104,0.0182495,-0.691254,56405,782,56824,4722,-30313
1620,670769,-0.00478516,-0.526367,10.1015,-3.02673,0,-87.5006,0,0,0,0.722076,-0.019104,0.0182495,-0.691254,56407,782,56827,4722,-30313
1626,670775,0,-0.545508,10.0967,-3.02673,0,-87.5006,0,0,0,0.722076,-0.019104,0.0182495,-0.691254,56409,782,56829,4722,-30313
1632,670781,0,-0.526367,10.1206,-3.02673,0,-87.5006,0,0,0,0.722076,-0.019104,0.0182495,-0.691254,56414,778,56830,4722,-30313
1638,670787,0,-0.512012,10.111,-3.02673,0,-87.5006,0,0,0,0.722076,-0.019104,0.0182495,-0.691254,56415,776,56831,4722,-30313
1644,670793,0,-0.521582,10.1206,-3.02673,0,-87.5006,0,0,0,0.722076,-0.019104,0.0182495,-0.691254,56416,775,56830,4722,-30313
1650,670799,0,-0.535937,10.1397,-3.02673,0,-87.5006,0,0,0,0.722076,-0.019104,0.0182495,-0.691254,56418,772,56833,4722,-30313
1656,670805,0.0143555,-0.531152,10.1158,-3.02673,0,-87.5006,0,0,0,0.722076,-0.019104,0.0182495,-0.691254,56422,771,56834,4722,-30313
1662,670811,-0.0143555,-0.545508,10.135,-3.02673,0,-87.5006,0,0,0,0.722076,-0.019104,0.0182495,-0.691254,56427,770,56833,4722,-30313
1668,670817,-0.00957031,-0.535937,10.1015,-3.02673,0,-87.5006,0,0,0,0.722076,-0.019104,0.0182495,-0.691254,56428,770,56832,4722,-30313
1674,670823,0,-0.526367,10.1158,-3.02673,0,-87.5006,0,0,0,0.722076,-0.019104,0.0182495,-0.691254,56427,769,56831,4722,-30313
1680,670829,0.0143555,-0.550293,10.1254,-3.02673,0,-87.5006,0,0,0,0.722076,-0.019104,0.0182495,-0.691254,56425,766,56830,4722,-30313
1686,670835,-0.00478516,-0.512012,10.0967,-3.02673,0,-87.5006,0,0,0,0.722076,-0.019104,0.0182495,-0.691254,56424,765,56829,4722,-30313
1692,670841,-0.0191406,-0.540723,10.1062,-3.02673,0,-87.5006,0,0,0,0.722076,-0.019104,0.0182495,-0.691254,56425,764,56823,4722,-30313
1698,670847,0.0334961,-0.531152,10.0919,-3.02673,0,-87.5006,0,0,0,0.722076,-0.019104,0.0182495,-0.691254,56378,764,56819,4722,-30313
1704,670853,0,-0.516797,10.0632,-3.02673,0,-87.5006,0,0,0,0.722076,-0.019104,0.0182495,-0.691254,56387,765,56817,4722,-30313
1710,670859,0,-0.512012,10.1158,-3.02673,0,-87.5006,0,0,0,0.722076,-0.019104,0.0182495,-0.691254,56393,764,56814,4722,-30313
1716,670865,-0.0191406,-0.550293,10.0871,-3.02673,0,-87.5006,0,0,0,0.722076,-0.019104,0.0182495,-0.691254,56399,765,56817,4722,-30313
1722,670871,0,-0.535937,10.1015,-3.02673,0,-87.5006,0,0,0,0.722076,-0.019104,0.0182495,-0.691254,56404,765,56826,4722,-30313
1728,670877,-0.0334961,-0.521582,10.111,-3.02673,0,-87.5006,0,0,0,0.722076,-0.019104,0.0182495,-0.691254,56407,764,56829,4722,-30313
1734,670883,0,-0.540723,10.1158,-3.02673,0,-87.5006,0,0,0,0.722076,-0.019104,0.0182495,-0.691254,56410,763,56831,4722,-30313
1740,670889,-0.00957031,-0.521582,10.111,-3.02673,0,-87.5006,0,0,0,0.722076,-0.019104,0.0182495,-0.691254,56411,763,56835,4722,-30313
1746,670895,-0.00957031,-0.540723,10.1158,-3.02673,0,-87.5006,0,0,0,0.722076,-0.019104,0.0182495,-0.691254,56413,765,56835,4722,-30313
1752,670901,0.00478516,-0.555078,10.1206,-3.02673,0,-87.5006,0,0,0,0.722076,-0.019104,0.0182495,-0.691254,56414,766,56835,4722,-30313
1758,670907,0.00478516,-0.559863,10.0823,-3.02673,0,-87.5006,0,0,0,0.722076,-0.019104,0.0182495,-0.691254,56415,766,56834,4722,-30313
1764,670913,0.0239258,-0.555078,10.1062,-3.02673,0,-87.5006,0,0,0,0.722076,-0.019104,0.0182495,-0.691254,56416,766,56833,4722,-30313
1770,670919,0.00957031,-0.598145,10.0823,-3.02673,0,-87.5006,0,0,0,0.722076,-0.019104,0.0182495,-0.691254,56418,764,56833,4722,-30313
1776,670925,-0.00478516,-0.535937,10.1445,-3.02673,0,-87.5006,0,0,0,0.722076,-0.019104,0.0182495,-0.691254,56422,764,56833,4722,-30313
1782,670931,0.0143555,-0.526367,10.111,-3.02673,0,-87.5006,0,0,0,0.722076,-0.019104,0.0182495,-0.691254,56426,763,56828,4722,-30313
1788,670937,0,-0.555078,10.0919,-3.02673,0,-87.5006,0,0,0,0.722076,-0.019104,0.0182495,-0.691254,56427,765,56826,4722,-30313
1794,670943,0.0143555,-0.550293,10.1302,-3.03223,0,-87.5006,-0.610352,0.183105,-0.183105,0.722076,-0.019104,0.0182495,-0.691254,56428,766,56822,4722,-30313
1800,670949,-0.0239258,-0.521582,10.1158,-3.03223,0,-87.5006,-0.305176,0.0610352,-0.12207,0.722046,-0.019104,0.01828,-0.691254,56428,768,56819,4722,-30313
1806,670955,0.0143555,-0.521582,10.0823,-3.03772,0,-87.5006,-0.488281,-0.0610352,0,0.722046,-0.0191345,0.0183105,-0.691254,56427,768,56815,4722,-30313
1812,670961,-0.00957031,-0.555078,10.0775,-3.03772,0,-87.5006,-0.244141,-0.183105,-0.0610352,0.722046,-0.0191345,0.0183411,-0.691254,56429,767,56811,4722,-30313
1818,670967,0,-0.531152,10.0967,-3.03772,0,-87.5006,0.0610352,0.0610352,0,0.722046,-0.019165,0.0183411,-0.691254,56430,767,56811,4722,-30313
1824,670973,0,-0.540723,10.1493,-3.03772,0,-87.5006,0.12207,-0.12207,-0.183105,0.722046,-0.019165,0.0183411,-0.691254,56432,766,56811,4722,-30313
1830,670979,0.0191406,-0.545508,10.1732,-3.03772,0,-87.5006,-0.0610352,0,-0.183105,0.722046,-0.019165,0.0183105,-0.691254,56434,767,56812,4722,-30313
1836,670985,-0.0382813,-0.607715,10.1972,-3.04321,0,-87.5006,-0.488281,0.0610352,0,0.722046,-0.019165,0.0183411,-0.691254,56435,766,56812,4722,-30313
1842,670991,0.0143555,-0.555078,10.2211,-3.04871,0,-87.5061,-0.671387,-0.12207,-0.366211,0.722046,-0.0191956,0.0183716,-0.691284,56436,766,56818,4722,-30313
1848,670997,-0.0191406,-0.545508,10.1397,-3.0542,0,-87.5061,-0.793457,0.12207,-0.427246,0.722015,-0.0192261,0.0183716,-0.691284,56437,765,56822,4722,-30313
1854,671003,0.00478516,-0.550293,10.1015,-3.0542,0,-87.5061,-0.549316,-0.12207,-0.183105,0.722015,-0.0192566,0.0184021,-0.691284,56438,766,56825,4722,-30313
1860,671009,0,-0.579004,10.0775,-3.05969,0,-87.5116,-0.854492,0.12207,-0.305176,0.722015,-0.0192566,0.0184326,-0.691315,56440,766,56825,4722,-30313
1866,671015,0.00957031,-0.559863,10.0345,-3.06519,0,-87.5116,-0.854492,-0.366211,-0.305176,0.721985,-0.0192871,0.0184631,-0.691315,56443,768,56826,4722,-30313
1872,671021,-0.0430664,-0.60293,10.1206,-3.07068,0,-87.5171,-0.610352,-0.12207,-0.366211,0.721954,-0.0193787,0.0185242,-0.691345,56394,769,56828,4722,-30313
1878,671027,0.0239258,-0.545508,9.94834,-3.07617,0,-87.5226,-0.427246,-0.244141,-0.488281,0.721924,-0.0194092,0.0185242,-0.691376,56404,766,56832,4722,-30313
1884,671033,-0.114844,-0.234473,10.0536,-3.07617,0,-87.5226,0.12207,0.549316,0,0.721893,-0.0194092,0.0185547,-0.691406,56407,766,56837,4722,-30313
1890,671039,0.0239258,-0.712988,10.1589,-3.07617,-0.00549316,-87.5281,-0.183105,-0.854492,-0.488281,0.721893,-0.0194092,0.0185547,-0.691406,56410,766,56840,4722,-30313
1896,671045,-0.0191406,-0.325391,10.0105,-3.07617,0,-87.5281,0.0610352,0.183105,0.305176,0.721863,-0.0194397,0.0185242,-0.691437,56411,766,56841,4722,-30313
1902,671051,0.0287109,-0.507227,10.1493,-3.07617,-0.00549316,-87.5336,-0.732422,0,0,0.721863,-0.0194092,0.0185242,-0.691437,56413,767,56839,4722,-30313
1908,671057,-0.0143555,-0.545508,10.0584,-3.08167,-0.00549316,-87.5336,-0.12207,-0.12207,0.12207,0.721863,-0.0194397,0.0185547,-0.691467,56415,765,56834,4722,-30313
1914,671063,0.0191406,-0.655566,10.1158,-3.07617,-0.00549316,-87.5336,0.244141,-0.305176,0,0.721832,-0.0194397,0.0185547,-0.691467,56417,763,56830,4722,-30313
1920,671069,0.0239258,-0.588574,10.0871,-3.07617,-0.00549316,-87.5391,0.0610352,0,0,0.721832,-0.0194397,0.0185242,-0.691467,56418,762,56832,4722,-30313
1926,671075,0.00957031,-0.559863,10.0919,-3.08167,-0.00549316,-87.5391,-0.244141,0,0,0.721832,-0.0194397,0.0185242,-0.691467,56420,761,56834,4722,-30313
1932,671081,-0.00957031,-0.559863,10.135,-3.08167,-0.00549316,-87.5391,-0.366211,0,-0.0610352,0.721802,-0.0194702,0.0185547,-0.691498,56421,761,56837,4722,-30313
1938,671087,-0.00478516,-0.540723,10.0823,-3.08167,-0.00549316,-87.5446,0,-0.0610352,0,0.721802,-0.0194702,0.0185852,-0.691498,56422,760,56843,4722,-30313
1944,671093,0,-0.569434,10.068,-3.08167,-0.00549316,-87.5446,0.244141,0,0,0.721771,-0.0194702,0.0185852,-0.691528,56423,759,56844,4722,-30313
1950,671099,0.0143555,-0.535937,10.0871,-3.08167,-0.00549316,-87.55,0.12207,0,-0.0610352,0.721771,-0.0194702,0.0185547,-0.691528,56424,758,56846,4722,-30313
1956,671105,-0.0239258,-0.555078,10.1158,-3.08167,-0.00549316,-87.55,0.0610352,0.12207,0,0.721771,-0.0194702,0.0185547,-0.691559,56426,798,56849,4722,-30313
1962,671111,0.00478516,-0.535937,10.0728,-3.08167,-0.00549316,-87.55,-0.183105,0.244141,-0.0610352,0.721741,-0.0194702,0.0185547,-0.691559,56430,794,56853,4722,-30313
1968,671117,-0.0143555,-0.516797,10.1015,-3.08167,-0.00549316,-87.5555,-0.183105,0,0,0.721741,-0.0194702,0.0185547,-0.691559,56435,788,56858,4722,-30313
1974,671123,-0.0191406,-0.512012,10.135,-3.08167,0,-87.5555,0,0.305176,0,0.721741,-0.0194702,0.0185547,-0.691589,56437,786,56858,4722,-30313
1980,671129,-0.0239258,-0.531152,10.111,-3.08167,-0.00549316,-87.5555,0.12207,-0.244141,-0.0610352,0.72171,-0.0194397,0.0185852,-0.691589,56438,786,56857,4722,-30313
1986,671135,-0.00478516,-0.555078,10.0584,-3.08167,0,-87.5555,0,0.12207,0.0610352,0.72171,-0.0194702,0.0185547,-0.691589,56437,785,56854,4722,-30313
1992,671141,0,-0.555078,10.1158,-3.08167,-0.00549316,-87.561,-0.305176,0,0,0.72168,-0.0194702,0.0185852,-0.69162,56440,785,56853,4722,-30313
1998,671147,-0.00478516,-0.559863,10.1062,-3.08167,-0.00549316,-87.561,0,0,0.0610352,0.72168,-0.0194702,0.0185852,-0.69162,56441,784,56850,4722,-30313
2004,671153,0,-0.550293,10.1015,-3.08167,-0.00549316,-87.561,0.244141,0,0,0.72168,-0.0194702,0.0185852,-0.69162,56441,784,56849,4722,-30313
2010,671159,-0.00478516,-0.574219,10.1062,-3.08167,-0.00549316,-87.561,0.183105,0,0,0.72168,-0.0194702,0.0185852,-0.69165,56440,785,56850,4722,-30313
2016,671165,0,-0.555078,10.0967,-3.08167,-0.00549316,-87.5665,0,-0.12207,0,0.721649,-0.0194397,0.0185852,-0.69165,56438,788,56849,4722,-30313
2022,671171,0.0191406,-0.531152,10.1062,-3.08167,-0.00549316,-87.5665,-0.12207,0,-0.0610352,0.721649,-0.0194702,0.0185852,-0.69165,56435,789,56847,4722,-30313
2028,671177,-0.0239258,-0.535937,10.111,-3.08167,0,-87.572,0.0610352,0.0610352,0,0.721649,-0.0194702,0.0185852,-0.691681,56432,788,56843,4722,-30313
2034,671183,-0.00478516,-0.535937,10.1062,-3.08167,0,-87.572,0.0610352,0,0,0.721619,-0.0194702,0.0185852,-0.691681,56432,785,56842,4722,-30313
2040,671189,0,-0.545508,10.0823,-3.08167,0,-87.572,0.0610352,0,0,0.721619,-0.0194397,0.0185852,-0.691681,56431,782,56841,4722,-30313
2046,671195,0,-0.545508,10.0775,-3.08167,0,-87.572,-0.0610352,0,0,0.721619,-0.0194397,0.0185852,-0.691711,56429,781,56840,4722,-30313
2052,671201,0.00957031,-0.545508,10.1015,-3.08167,0,-87.5775,0,-0.0610352,0,0.721588,-0.0194397,0.0185852,-0.691711,56428,780,56838,4731,-30314
2058,671207,0.0143555,-0.540723,10.1062,-3.08167,0,-87.5775,0.0610352,0.0610352,0.0610352,0.721588,-0.0194397,0.0185852,-0.691711,56424,780,56835,4731,-30314
2064,671213,0,-0.531152,10.111,-3.08167,-0.00549316,-87.5775,0.12207,-0.183105,0,0.721588,-0.0194397,0.0185852,-0.691742,56423,779,56838,4731,-30314
2070,671219,0,-0.531152,10.068,-3.08167,-0.00549316,-87.5775,-0.0610352,0,0,0.721588,-0.0194397,0.0185852,-0.691742,56423,778,56843,4731,-30314
2076,671225,0,-0.535937,10.0919,-3.08167,0,-87.583,-0.183105,0.12207,-0.12207,0.721558,-0.0194397,0.0185852,-0.691742,56425,778,56849,4731,-30314
2082,671231,0,-0.555078,10.0823,-3.08167,0,-87.583,0,0,0,0.721558,-0.0194702,0.0185852,-0.691772,56426,778,56855,4731,-30314
2088,671237,-0.00957031,-0.550293,10.111,-3.08167,0,-87.583,0.0610352,0.0610352,0,0.721527,-0.0194702,0.0185852,-0.691772,56427,775,56865,4731,-30314
2094,671243,0,-0.531152,10.1015,-3.08167,0,-87.5885,0.0610352,0,0.0610352,0.721527,-0.0194702,0.0185852,-0.691772,56427,773,56866,4731,-30314
2100,671249,0.00478516,-0.540723,10.0775,-3.08167,0,-87.5885,-0.0610352,0,0,0.721527,-0.0194397,0.0185852,-0.691803,56427,771,56862,4731,-30314
2106,671255,-0.00957031,-0.535937,10.111,-3.08167,0,-87.5885,0.0610352,0.0610352,0.0610352,0.721527,-0.0194397,0.0185852,-0.691803,56426,771,56857,4731,-30314
2112,671261,0.00478516,-0.535937,10.1015,-3.08167,0,-87.5885,0,0,-0.0610352,0.721497,-0.0194397,0.0185852,-0.691803,56424,773,56852,4731,-30314
2118,671267,-0.0239258,-0.540723,10.1015,-3.08167,0,-87.594,0,0,-0.0610352,0.721497,-0.0194397,0.0185852,-0.691833,56420,776,56849,4731,-30314
2124,671273,0.00478516,-0.535937,10.1206,-3.08167,0,-87.594,0,-0.0610352,0,0.721466,-0.0194397,0.0185852,-0.691833,56418,777,56851,4731,-30314
2130,671279,-0.00478516,-0.531152,10.0919,-3.08167,0,-87.5995,-0.0610352,0,-0.0610352,0.721466,-0.0194397,0.0185852,-0.691833,56416,776,56855,4731,-30314
2136,671285,0.00478516,-0.545508,10.1254,-3.08167,0,-87.5995,0,0,-0.0610352,0.721466,-0.0194397,0.0185852,-0.691864,56416,776,56859,4731,-30314
2142,671291,-0.00957031,-0.545508,10.0871,-3.08167,0,-87.5995,0.0610352,0.12207,-0.0610352,0.721436,-0.0194397,0.0185852,-0.691864,56417,775,56860,4731,-30314
2148,671297,-0.0143555,-0.535937,10.0632,-3.08167,0,-87.605,-0.0610352,0,0,0.721436,-0.0194397,0.0185852,-0.691895,56421,774,56859,4731,-30314
2154,671303,-0.0143555,-0.550293,10.1062,-3.08167,0,-87.605,0.0610352,-0.0610352,0,0.721436,-0.0194397,0.0185852,-0.691895,56422,774,56858,4731,-30314
2160,671309,0.00957031,-0.550293,10.0871,-3.08167,0,-87.605,0,0,0.0610352,0.721405,-0.0194397,0.0185852,-0.691895,56421,774,56856,4722,-30313
2166,671315,0,-0.535937,10.1158,-3.08167,0,-87.605,0.0610352,0,0,0.721405,-0.0194397,0.0185852,-0.691925,56420,776,56856,4722,-30313
2172,671321,0,-0.540723,10.1062,-3.08167,0,-87.6105,-0.0610352,0.12207,0,0.721405,-0.0194397,0.0185852,-0.691925,56420,780,56856,4722,-30313
2178,671327,-0.00478516,-0.569434,10.0871,-3.08167,0,-87.6105,0,-0.12207,0.0610352,0.721375,-0.0194397,0.0185852,-0.691925,56423,788,56853,4722,-30313
2184,671333,0.0143555,-0.550293,10.0728,-3.08167,0,-87.6105,0.0610352,0,0,0.721375,-0.0194397,0.0185852,-0.691956,56426,790,56853,4722,-30313
2190,671339,-0.00478516,-0.545508,10.1206,-3.08167,0,-87.6105,0,0,0,0.721375,-0.0194397,0.0185852,-0.691956,56428,788,56855,4722,-30313
2196,671345,0,-0.535937,10.0823,-3.08167,0,-87.616,0,-0.12207,0,0.721375,-0.0194397,0.0185852,-0.691956,56431,787,56857,4722,-30313
2202,671351,0.0143555,-0.540723,10.1062,-3.08167,0,-87.616,0.0610352,0,0,0.721344,-0.0194397,0.0185852,-0.691956,56433,785,56859,4722,-30313
2208,671357,-0.00957031,-0.540723,10.1158,-3.08167,0,-87.616,0,0,0.0610352,0.721344,-0.0194397,0.0185852,-0.691986,56439,783,56859,4722,-30313
2214,671363,0,-0.512012,10.1206,-3.08167,0,-87.616,0,0.0610352,0.0610352,0.721344,-0.0194397,0.0185852,-0.691986,56392,783,56858,4722,-30313
2220,671369,0.00957031,-0.540723,10.1015,-3.08167,0,-87.6215,0.0610352,-0.183105,0,0.721344,-0.0194397,0.0185852,-0.691986,56350,781,56856,4722,-30313
2226,671375,0.00478516,-0.550293,10.1302,-3.08167,0,-87.6215,0,0.0610352,-0.12207,0.721313,-0.0194397,0.0185852,-0.691986,56312,782,56855,4722,-30313
2232,671381,0.0191406,-0.535937,10.1254,-3.08167,0,-87.6215,0.0610352,0,0,0.721313,-0.0194397,0.0185852,-0.692017,56279,783,56852,4722,-30313
2238,671387,-0.00478516,-0.550293,10.1206,-3.08167,0,-87.627,0,-0.12207,0,0.721313,-0.0194397,0.0185852,-0.692017,56269,784,56846,4722,-30313
2244,671393,0,-0.555078,10.1158,-3.08167,0,-87.627,0,0,0,0.721283,-0.0194397,0.0185852,-0.692047,56238,785,56845,4722,-30313
2250,671399,-0.00957031,-0.521582,10.0871,-3.08167,0,-87.627,0,0,0,0.721283,-0.0194397,0.0185852,-0.692047,56260,783,56843,4722,-30313
2256,671405,0,-0.540723,10.1158,-3.08167,0,-87.627,0,0,0.0610352,0.721283,-0.0194397,0.0185852,-0.692047,56278,783,56844,4722,-30313
2262,671411,0,-0.545508,10.1158,-3.08167,0,-87.6324,-0.0610352,0,0,0.721252,-0.0194397,0.0185852,-0.692047,56295,783,56847,4722,-30313
2268,671417,-0.00957031,-0.574219,10.1015,-3.08167,0,-87.6324,0,-0.0610352,0,0.721252,-0.0194397,0.0185852,-0.692078,56323,783,56854,4722,-30313
2274,671423,0.0143555,-0.521582,10.111,-3.08167,0,-87.6324,0,0,-0.12207,0.721252,-0.0194397,0.0185852,-0.692078,56336,783,56860,4722,-30313
2280,671429,-0.0191406,-0.550293,10.0919,-3.08167,0,-87.6379,0,0,0,0.721252,-0.0194397,0.0185852,-0.692078,56348,781,56862,4722,-30313
2286,671435,0,-0.550293,10.1206,-3.08167,-0.00549316,-87.6379,0,-0.12207,-0.0610352,0.721222,-0.0194397,0.0185852,-0.692108,56310,778,56864,4722,-30313
2292,671441,0.0143555,-0.555078,10.0632,-3.08167,-0.00549316,-87.6379,0,0,0,0.721222,-0.0194397,0.0185852,-0.692108,56274,776,56862,4722,-30313
2298,671447,-0.0239258,-0.559863,10.1015,-3.08167,-0.00549316,-87.6434,0,0,0,0.721191,-0.0194397,0.0185852,-0.692139,56217,773,56857,4722,-30313
2304,671453,-0.0143555,-0.535937,10.1206,-3.08167,-0.00549316,-87.6434,0,-0.0610352,-0.0610352,0.721191,-0.0194397,0.0185852,-0.692139,56192,774,56856,4722,-30313
2310,671459,0.00957031,-0.535937,10.1015,-3.08167,-0.00549316,-87.6434,0.0610352,0.0610352,0,0.721191,-0.0194397,0.0185852,-0.692139,56170,774,56854,4722,-30313
2316,671465,0.00957031,-0.535937,10.111,-3.08167,-0.00549316,-87.6434,0,0,-0.0610352,0.721161,-0.0194397,0.0185852,-0.692169,56150,775,56855,4722,-30313
2322,671471,-0.00478516,-0.535937,10.1206,-3.08167,-0.00549316,-87.6489,0.0610352,0.0610352,0,0.721161,-0.0194397,0.0185852,-0.692169,56131,775,56854,4722,-30313
2328,671477,0,-0.555078,10.1015,-3.08167,-0.00549316,-87.6489,0,0,0,0.721161,-0.0194397,0.0185852,-0.692169,56099,776,56854,4722,-30313
2334,671483,-0.0287109,-0.540723,10.0919,-3.08167,-0.00549316,-87.6544,0,-0.0610352,0,0.72113,-0.0194397,0.0185852,-0.6922,56085,777,56855,4722,-30313
2340,671489,-0.00478516,-0.526367,10.1254,-3.08167,-0.00549316,-87.6544,0.0610352,0,0,0.72113,-0.0194397,0.0185852,-0.6922,56123,778,56858,4722,-30313
2346,671495,0.00478516,-0.545508,10.1062,-3.08167,-0.00549316,-87.6544,-0.0610352,0,0,0.72113,-0.0194397,0.0185547,-0.6922,56157,778,56860,4722,-30313
2352,671501,-0.00957031,-0.545508,10.1015,-3.08167,-0.00549316,-87.6544,0.0610352,0,0,0.7211,-0.0194397,0.0185852,-0.69223,56137,779,56863,4722,-30313
2358,671507,0.00478516,-0.545508,10.0967,-3.08167,-0.00549316,-87.6599,-0.0610352,0,0,0.7211,-0.0194397,0.0185852,-0.69223,56105,783,56864,4722,-30313
2364,671513,0.0143555,-0.545508,10.1302,-3.08167,-0.00549316,-87.6599,0,-0.0610352,0,0.7211,-0.0194397,0.0185852,-0.69223,56091,784,56862,4722,-30313
2370,671519,-0.0143555,-0.526367,10.111,-3.08167,-0.00549316,-87.6599,0,0.0610352,0,0.721069,-0.0194397,0.0185852,-0.692261,56079,786,56861,4722,-30313
2376,671525,-0.00478516,-0.545508,10.0871,-3.08167,-0.00549316,-87.6599,0,0,0.0610352,0.721069,-0.0194397,0.0185852,-0.692261,56066,785,56858,4722,-30313
2382,671531,-0.00478516,-0.535937,10.1254,-3.08167,-0.00549316,-87.6654,0.0610352,-0.0610352,0,0.721069,-0.0194397,0.0185852,-0.692261,56058,783,56857,4722,-30313
2388,671537,0.00478516,-0.526367,10.1206,-3.08167,-0.00549316,-87.6654,0,0,0,0.721069,-0.0194397,0.0185852,-0.692291,56043,779,56860,4722,-30313
2394,671543,0,-0.555078,10.1254,-3.08167,-0.00549316,-87.6654,0,-0.183105,0,0.721039,-0.0194397,0.0185852,-0.692291,56035,777,56863,4722,-30313
2400,671549,0.00957031,-0.540723,10.1062,-3.08167,-0.00549316,-87.6709,0,0,0,0.721039,-0.0194397,0.0185547,-0.692291,56078,775,56865,4722,-30313
2406,671555,-0.0191406,-0.555078,10.0919,-3.08167,-0.00549316,-87.6709,-0.0610352,0,0,0.721039,-0.0194397,0.0185547,-0.692322,56114,774,56865,4722,-30313
2412,671561,0.00957031,-0.545508,10.1015,-3.08167,-0.00549316,-87.6709,0,0,0,0.721008,-0.0194397,0.0185547,-0.692322,56148,773,56861,4722,-30313
2418,671567,-0.00478516,-0.550293,10.0823,-3.08167,-0.00549316,-87.6764,0,-0.0610352,0,0.721008,-0.0194397,0.0185547,-0.692322,56207,772,56850,4722,-30313
2424,671573,0,-0.545508,10.0967,-3.08167,-0.00549316,-87.6764,0,-0.0610352,0,0.721008,-0.0194397,0.0185547,-0.692352,56232,774,56846,4722,-30313
2430,671579,-0.00478516,-0.550293,10.1158,-3.08167,-0.00549316,-87.6764,0,0,0,0.720978,-0.0194397,0.0185547,-0.692352,56204,774,56847,4722,-30313
2436,671585,0.0143555,-0.540723,10.111,-3.08167,-0.00549316,-87.6764,0,0,0,0.720978,-0.0194397,0.0185547,-0.692352,56230,773,56847,4722,-30313
2442,671591,0.0143555,-0.574219,10.0823,-3.08167,-0.00549316,-87.6819,0,0,0,0.720978,-0.0194397,0.0185547,-0.692383,56203,772,56847,4722,-30313
2448,671597,-0.00957031,-0.526367,10.1302,-3.08167,-0.00549316,-87.6819,-0.0610352,0.0610352,0,0.720947,-0.0194397,0.0185547,-0.692383,56158,810,56844,4722,-30313
2454,671603,-0.00478516,-0.540723,10.111,-3.08167,-0.00549316,-87.6819,-0.0610352,0,0,0.720947,-0.0194397,0.0185547,-0.692383,56139,805,56840,4722,-30313
2460,671609,-0.00957031,-0.545508,10.1158,-3.08167,-0.00549316,-87.6819,-0.0610352,0,0,0.720947,-0.0194397,0.0185852,-0.692383,56122,801,56841,4722,-30313
2466,671615,0,-0.535937,10.111,-3.08167,-0.00549316,-87.6819,0,0,0,0.720947,-0.0194397,0.0185852,-0.692383,56106,797,56842,4722,-30313
2472,671621,0,-0.540723,10.135,-3.08167,-0.00549316,-87.6874,0,-0.0610352,0,0.720917,-0.0194397,0.0185852,-0.692413,56092,797,56847,4722,-30313
2478,671627,0,-0.540723,10.0871,-3.08167,-0.00549316,-87.6874,0.0610352,0.12207,0,0.720917,-0.0194397,0.0185852,-0.692413,56069,797,56854,4722,-30313
2484,671633,0.0143555,-0.531152,10.1397,-3.08167,-0.00549316,-87.6874,-0.0610352,0.0610352,0,0.720917,-0.0194397,0.0185852,-0.692413,56061,795,56858,4722,-30313
2490,671639,0.00957031,-0.540723,10.1158,-3.08167,-0.00549316,-87.6874,0.0610352,0,0,0.720917,-0.0194397,0.0185852,-0.692413,56053,792,56860,4722,-30313
2496,671645,0,-0.545508,10.1254,-3.08167,-0.00549316,-87.6874,0.0610352,0,0,0.720917,-0.0194397,0.0185852,-0.692444,56044,788,56860,4722,-30313
2502,671651,0,-0.531152,10.0919,-3.08167,-0.00549316,-87.6929,0,0,0,0.720886,-0.0194092,0.0185852,-0.692444,56035,784,56860,4722,-30313
2508,671657,-0.00478516,-0.540723,10.135,-3.08167,-0.00549316,-87.6929,0,0.0610352,0,0.720886,-0.0194092,0.0185852,-0.692444,56066,781,56857,4722,-30313
2514,671663,0.0191406,-0.550293,10.1206,-3.08167,-0.00549316,-87.6929,0.0610352,0,0,0.720886,-0.0194092,0.0185852,-0.692474,56056,780,56854,4722,-30313
2520,671669,-0.00957031,-0.545508,10.1015,-3.08167,-0.00549316,-87.6984,0,-0.0610352,0,0.720886,-0.0194092,0.0185852,-0.692474,56096,780,56852,4722,-30313
