TimeSinceCollection,Timestamp,AccX,AccY,AccZ,AngleRoll,AnglePitch,AngleYaw,AngularVelX,AngularVelY,             AngularVelZ,Q1,Q2,Q3,Q4,MagX,MagY,MagZ,Height,Airpressure
0,166259,33.7019,-7.4792,3.8999,-40.0836,-29.0643,128.469,-192.932,-99.6704,-470.52,-0.457275,-0.0595398,0.39386,-0.795074,61368,215,61117,6380,-30511
6,166265,31.9553,-8.49844,6.49346,-40.5615,-31.0913,127.463,-204.285,-183.044,-377.686,-0.483185,-0.0776062,0.410706,-0.769226,61715,142,60868,6380,-30511
12,166271,30.7829,-8.50322,7.52705,-41.012,-32.6129,126.738,-173.889,-136.536,-277.222,-0.490814,-0.0843811,0.418396,-0.75946,62030,114,60650,6380,-30511
18,166277,18.2793,-8.64199,8.17783,-41.3306,-33.2391,126.381,-111.45,-41.3208,-113.892,-0.494415,-0.0863342,0.422516,-0.754639,62277,78,60457,6380,-30511
24,166283,27.328,-8.76162,6.12021,-41.5448,-32.8821,126.425,-47.0581,63.0493,66.8335,-0.493713,-0.0829163,0.422913,-0.755249,62506,42,60284,6380,-30511
30,166289,24.7345,-4.90479,3.63672,-42.0062,-30.7397,127.705,20.0806,88.1958,283.997,-0.489655,-0.0765686,0.420868,-0.759674,62914,39,59991,6380,-30511
36,166295,21.5954,-3.07686,3.9334,-42.627,-29.6466,129.1,8.8501,15.3198,341.675,-0.470947,-0.064209,0.419708,-0.773193,63083,31,59867,6380,-30511
42,166301,17.6668,-2.18203,4.69424,-43.5004,-28.6963,130.886,-6.83594,-57.6172,375.305,-0.457458,-0.0601196,0.42218,-0.780243,63225,22,59756,6380,-30511
48,166307,13.92,-1.81836,5.65605,-44.5166,-27.8229,132.907,-17.4561,-106.445,395.752,-0.442322,-0.0570984,0.425934,-0.787109,63347,10,59659,6380,-30511
54,166313,10.5704,-1.9667,6.28291,-45.5658,-26.9495,135.022,-21.4844,-126.953,408.508,-0.42627,-0.0544434,0.430115,-0.793854,63452,41,59570,6380,-30511
60,166319,5.55557,-2.62705,6.36426,-47.5104,-24.9884,139.158,-15.8691,-116.15,421.814,-0.409912,-0.0515747,0.434113,-0.800476,63722,82,59423,6380,-30511
66,166325,3.41182,-3.11514,6.2207,-48.3508,-23.9008,141.136,-9.70459,-108.459,425.903,-0.376862,-0.0448303,0.440674,-0.813416,63835,90,59366,6371,-30510
72,166331,0.933105,-3.91904,6.19199,-49.1144,-22.7362,143.113,-0.732422,-107.239,437.073,-0.359802,-0.0411682,0.443237,-0.819916,63934,93,59318,6371,-30510
78,166337,-2.19639,-4.95264,6.67529,-49.812,-21.4453,145.173,11.8408,-110.352,469.116,-0.341431,-0.0371704,0.445313,-0.826813,64022,132,59279,6371,-30510
84,166343,0.301465,-5.90967,6.96719,-50.3833,-19.9841,147.288,31.9214,-105.835,502.747,-0.321777,-0.0326233,0.446411,-0.834259,64100,164,59245,6371,-30510
90,166349,-2.07197,-4.26357,6.47432,-51.1359,-17.4023,150.754,33.9355,-84.8389,416.504,-0.304504,-0.0280151,0.446991,-0.840576,64217,208,59185,6371,-30510
96,166355,-2.87588,-4.00518,6.27334,-51.4874,-16.3257,152.474,26.4893,-113.464,400.269,-0.272003,-0.0219116,0.448029,-0.851288,64309,224,59161,6371,-30510
102,166361,-2.33994,-3.91426,6.54131,-51.8774,-15.4578,154.171,11.2915,-141.113,365.234,-0.25647,-0.0209961,0.449493,-0.855347,64387,238,59139,6371,-30510
108,166367,-4.45977,-3.98125,6.81885,-52.2949,-14.7766,155.858,0.488281,-168.091,333.557,-0.241547,-0.0215149,0.451508,-0.858612,64455,250,59123,6371,-30510
114,166373,-5.23018,-4.12959,7.01982,-52.7344,-14.2493,157.533,-8.11768,-187.256,307.312,-0.227203,-0.0231323,0.453888,-0.861237,64518,261,59111,6371,-30510
120,166379,-6.20635,-4.23486,7.68975,-53.5803,-13.4802,160.631,-16.6016,-189.453,254.333,-0.213684,-0.0254211,0.456421,-0.863281,64631,314,59094,6371,-30510
126,166385,-6.58437,-4.16309,7.71846,-53.9648,-13.1726,161.977,-21.3623,-174.316,227.966,-0.190033,-0.030365,0.461151,-0.86615,64637,352,59091,6371,-30510
132,166391,-6.771,-4.22051,7.57012,-54.3329,-12.8925,163.163,-27.0996,-154.541,204.346,-0.180084,-0.0323792,0.463409,-0.866974,64647,383,59090,6371,-30510
138,166397,-6.95762,-4.40713,7.24951,-54.6844,-12.6288,164.196,-33.5693,-134.338,181.274,-0.171387,-0.0339966,0.465607,-0.867523,64658,409,59092,6371,-30510
144,166403,-6.98633,-4.71816,6.76621,-55.0305,-12.3871,165.092,-40.4663,-117.188,159.485,-0.163757,-0.0353088,0.467834,-0.867737,64674,429,59095,6371,-30510
150,166409,-7.10117,-5.55078,5.87139,-55.7227,-12.0081,166.608,-50.8423,-99.8535,121.277,-0.157074,-0.036438,0.470093,-0.867706,64713,454,59106,6371,-30510
156,166415,-6.92412,-5.74219,5.45508,-56.0687,-11.9037,167.3,-53.4058,-101.379,104.065,-0.145508,-0.0392761,0.474701,-0.867096,64684,502,59116,6371,-30510
162,166421,-6.83799,-5.8666,5.15361,-56.4038,-11.8652,167.992,-52.8564,-108.948,88.3789,-0.140228,-0.0414429,0.47699,-0.866608,64662,541,59129,6371,-30510
168,166427,-6.43604,-5.88574,4.98135,-56.7169,-11.8982,168.701,-48.2178,-118.958,73.6694,-0.135101,-0.044281,0.479126,-0.866089,64644,576,59142,6371,-30510
174,166433,-6.24941,-5.84268,4.96221,-56.9916,-12.0026,169.42,-40.2832,-127.502,58.7769,-0.130219,-0.04776,0.480927,-0.865662,64632,602,59157,6371,-30510
180,166439,-5.73262,-5.50771,5.24932,-57.3871,-12.3926,170.815,-19.7754,-132.935,27.4658,-0.12561,-0.0517883,0.482361,-0.865326,64629,636,59193,6371,-30510
186,166445,-5.55078,-5.67041,5.60342,-57.4805,-12.6617,171.436,-7.69043,-127.197,9.58252,-0.11792,-0.06073,0.483795,-0.865021,64589,688,59213,6371,-30510
192,166451,-5.31631,-5.9623,5.81875,-57.5244,-12.9639,171.985,1.58691,-118.286,-6.10352,-0.115021,-0.0653381,0.483826,-0.865051,64560,733,59232,6371,-30510
198,166457,-5.01006,-6.08672,6.02451,-57.5244,-13.2935,172.463,7.26318,-108.521,-21.1182,-0.112793,-0.0698547,0.483551,-0.865143,64539,773,59249,6371,-30510
204,166463,-4.49326,-6.08672,6.22549,-57.5079,-13.656,172.875,8.42285,-100.22,-35.0342,-0.111145,-0.0743713,0.483154,-0.865204,64479,809,59266,6371,-30510
210,166469,-3.2874,-6.25898,6.62266,-57.486,-14.491,173.535,2.38037,-89.6606,-62.561,-0.110077,-0.0788879,0.482819,-0.865143,64399,833,59297,6371,-30510
216,166475,-2.47871,-6.34033,6.74229,-57.4969,-14.9744,173.782,-2.19727,-85.8765,-77.6978,-0.109711,-0.0882263,0.48233,-0.864532,64325,827,59317,6371,-30510
222,166481,-1.69395,-6.2877,6.79492,-57.5244,-15.5017,173.974,-9.27734,-80.2612,-91.4917,-0.110474,-0.0930176,0.48233,-0.863922,64266,823,59339,6371,-30510
228,166487,-0.92832,-6.27334,6.82363,-57.5793,-16.062,174.095,-16.6016,-72.5098,-104.004,-0.111877,-0.0977173,0.482513,-0.863129,64216,820,59360,6371,-30510
234,166493,-0.30625,-6.33076,6.70879,-57.6453,-16.6333,174.144,-23.8647,-61.9507,-113.831,-0.113892,-0.102203,0.48288,-0.862152,64180,818,59384,6371,-30510
240,166499,0.674707,-6.81885,6.36426,-57.8595,-17.7374,174.056,-41.9312,-38.6353,-121.887,-0.116425,-0.106293,0.483459,-0.860992,64048,816,59426,6371,-30510
246,166505,1.08623,-7.23037,6.1585,-58.0133,-18.2593,173.952,-50.1099,-31.311,-120.85,-0.122345,-0.113312,0.485413,-0.858154,64005,815,59447,6371,-30510
252,166511,1.49297,-7.64189,5.98145,-58.2056,-18.7592,173.859,-56.7017,-29.9072,-117.798,-0.125336,-0.116516,0.486786,-0.856537,63921,814,59467,6371,-30510
258,166517,1.91885,-7.90029,5.82832,-58.4253,-19.2535,173.787,-61.4014,-32.8369,-113.464,-0.128113,-0.11969,0.488342,-0.854797,63848,814,59485,6371,-30510
264,166523,2.31123,-8.07734,5.68955,-58.667,-19.7534,173.754,-64.0869,-38.8794,-109.192,-0.130646,-0.123016,0.490051,-0.852936,63788,815,59503,6371,-30510
270,166529,3.096,-7.9625,5.24932,-59.2712,-20.7587,173.831,-72.7539,-54.0161,-101.624,-0.132935,-0.126526,0.491974,-0.850983,63703,812,59540,6371,-30510
276,166535,3.44531,-7.77109,5.00049,-59.6448,-21.275,173.936,-79.2236,-62.0117,-98.6938,-0.136749,-0.134094,0.496521,-0.846558,63626,808,59559,6371,-30510
282,166541,3.69414,-7.7376,4.7373,-60.0732,-21.8024,174.095,-87.4023,-70.3125,-95.6421,-0.138306,-0.138184,0.499298,-0.844025,63564,802,59576,6371,-30510
288,166547,4.00518,-7.48877,4.49805,-60.5731,-22.3352,174.298,-97.1069,-78.6743,-92.4683,-0.139648,-0.142456,0.502472,-0.841187,63513,838,59596,6371,-30510
294,166553,4.23486,-7.23516,4.36406,-61.1389,-22.879,174.551,-106.384,-85.9985,-90.1489,-0.140839,-0.146881,0.506042,-0.838104,63473,868,59616,6371,-30510
300,166559,4.49326,-7.28779,4.28271,-62.3859,-23.9502,175.111,-116.333,-87.0972,-86.0596,-0.141907,-0.151367,0.509857,-0.834808,63327,914,59672,6371,-30510
306,166565,4.43105,-7.53662,4.17744,-62.9956,-24.4501,175.347,-115.784,-76.9653,-84.4727,-0.144318,-0.159668,0.517517,-0.828094,63277,928,59706,6371,-30510
312,166571,4.23008,-7.36914,4.06738,-63.5724,-24.884,175.523,-114.197,-59.8145,-79.6509,-0.145813,-0.162933,0.521118,-0.824921,63190,938,59742,6371,-30510
318,166577,4.24443,-7.20166,3.92383,-64.1052,-25.2411,175.611,-112.183,-37.9639,-71.5942,-0.147491,-0.165222,0.524567,-0.821991,63116,944,59777,6371,-30510
324,166583,4.26836,-7.30693,3.68936,-64.5886,-25.5048,175.605,-110.779,-13.6108,-63.1104,-0.149445,-0.166504,0.527832,-0.819275,63057,946,59815,6371,-30510
330,166589,4.26836,-7.79502,2.9668,-65.3851,-25.8014,175.331,-102.295,28.3813,-47.1802,-0.151611,-0.166779,0.530914,-0.816833,62921,1019,59893,6371,-30510
336,166595,4.3832,-7.98164,2.55527,-65.6982,-25.8563,175.1,-94.7876,42.2363,-40.8936,-0.156219,-0.165192,0.536194,-0.812836,62843,1047,59932,6371,-30510
342,166601,4.49326,-7.84287,2.29209,-65.9399,-25.8893,174.842,-84.3506,50.1709,-37.8418,-0.158569,-0.163879,0.538269,-0.811279,62773,1070,59966,6371,-30510
348,166607,4.61289,-7.85244,2.09111,-66.1157,-25.9113,174.567,-71.5332,53.3447,-36.2549,-0.160828,-0.162506,0.539886,-0.810028,62710,1088,59999,6371,-30510
354,166613,4.72295,-7.84287,1.92842,-66.2256,-25.9332,174.293,-57.251,53.9551,-36.8042,-0.163025,-0.161224,0.541016,-0.809082,62653,1100,60030,6371,-30510
360,166619,5.08184,-8.08213,1.9667,-66.2256,-26.0266,173.787,-26.3672,47.1191,-39.0625,-0.1651,-0.160187,0.541626,-0.808472,62550,1151,60086,6371,-30510
366,166625,5.38809,-7.74238,2.23945,-66.1377,-26.1145,173.562,-12.4512,41.748,-43.1519,-0.168884,-0.15918,0.541321,-0.808105,62507,1192,60109,6371,-30510
372,166631,5.55557,-7.73281,2.6749,-65.9949,-26.2244,173.337,-1.89209,40.4663,-47.2412,-0.170807,-0.159119,0.540527,-0.808228,62466,1228,60131,6371,-30510
378,166637,5.79961,-7.79023,3.23477,-65.7971,-26.3452,173.068,5.61523,45.5322,-51.6357,-0.172943,-0.159058,0.539429,-0.808502,62430,1261,60150,6371,-30510
384,166643,6.01973,-8.01514,3.65107,-65.5499,-26.4661,172.749,10.437,54.3213,-54.3823,-0.175385,-0.158783,0.538086,-0.808929,62397,1251,60166,6371,-30510
390,166649,6.70879,-8.43623,4.3832,-64.9951,-26.6418,171.936,8.36182,76.4771,-54.8706,-0.178131,-0.158142,0.536621,-0.809448,62434,1237,60182,6371,-30510
396,166655,7.19209,-8.75205,4.56504,-64.715,-26.6968,171.453,3.72314,85.5103,-54.2603,-0.184448,-0.15567,0.533783,-0.810364,62447,1231,60186,6371,-30510
402,166661,7.82373,-8.77598,4.66074,-64.4513,-26.7352,170.942,-3.05176,91.3086,-53.5889,-0.187897,-0.153992,0.532623,-0.810669,62456,1227,60186,6371,-30510
408,166667,8.43145,-9.05352,4.56025,-64.2261,-26.7737,170.414,-11.4136,93.0786,-54.1382,-0.191467,-0.152222,0.531738,-0.81076,62463,1224,60186,6371,-30510
414,166673,9.0918,-9.1875,4.44541,-64.0558,-26.8286,169.898,-19.8975,89.2334,-55.6641,-0.195129,-0.150513,0.531158,-0.810577,62466,1225,60182,6371,-30510
420,166679,10.1924,-9.3167,4.09131,-63.8855,-27.0264,168.986,-36.6211,71.228,-58.7158,-0.1987,-0.149109,0.530914,-0.81012,62462,1228,60167,6371,-30510
426,166685,10.7044,-9.22578,4.10088,-63.891,-27.1527,168.596,-44.4336,62.439,-57.1289,-0.205536,-0.147125,0.531555,-0.80838,62457,1230,60158,6371,-30510
432,166691,11.1781,-9.33105,4.20615,-63.9349,-27.2736,168.228,-50.8423,59.6313,-53.0396,-0.20871,-0.14621,0.532318,-0.80722,62451,1229,60147,6371,-30510
438,166697,11.5466,-9.30234,4.44541,-63.9899,-27.356,167.833,-54.5044,66.8945,-46.936,-0.211884,-0.144836,0.533173,-0.806061,62444,1229,60137,6371,-30510
444,166703,11.9198,-9.06787,4.65596,-64.0118,-27.3669,167.355,-54.8706,86.1206,-40.4663,-0.215332,-0.14267,0.533905,-0.805054,62436,1226,60128,6371,-30510
450,166709,12.6711,-8.67549,4.78994,-63.8306,-27.1088,165.959,-51.5137,151.062,-27.9541,-0.223816,-0.134644,0.534363,-0.803802,62506,1218,60104,6371,-30510
456,166715,13.2357,-8.27832,4.64639,-63.6273,-26.8341,165.02,-50.9033,184.814,-22.9492,-0.229004,-0.128662,0.534088,-0.803528,62528,1255,60090,6371,-30510
462,166721,13.9439,-7.87637,4.26357,-63.3856,-26.488,163.96,-53.0396,210.938,-18.9819,-0.23468,-0.121674,0.533569,-0.803314,62543,1287,60079,6371,-30510
468,166727,14.633,-7.66582,3.81855,-63.1549,-26.087,162.839,-58.7158,226.135,-14.8926,-0.240662,-0.114014,0.533112,-0.802979,62601,1317,60067,6371,-30510
474,166733,16.2647,-7.01504,2.60791,-62.9791,-25.6696,161.73,-66.5894,226.868,-10.376,-0.246552,-0.10614,0.532898,-0.802399,62642,1340,60053,6371,-30510
480,166739,16.2217,-7.68975,1.86143,-63.0066,-24.9115,159.95,-91.3086,171.387,3.479,-0.25589,-0.0922546,0.534454,-0.80014,62723,1374,60018,6371,-30510
486,166745,15.858,-7.89551,1.23457,-63.2648,-24.5929,159.346,-105.103,136.963,17.0898,-0.258972,-0.0865173,0.536621,-0.79834,62814,1383,59996,6371,-30510
492,166751,15.8197,-7.52705,0.684277,-63.6768,-24.2578,158.994,-114.197,97.5342,41.2598,-0.260376,-0.0815125,0.539612,-0.796387,62888,1390,59975,6371,-30510
498,166757,15.7192,-7.31172,0.133984,-64.2151,-23.9063,158.906,-117.065,55.2979,68.2983,-0.259857,-0.077301,0.543304,-0.794495,62945,1390,59955,6371,-30510
504,166763,15.0637,-7.36914,-0.449805,-64.8468,-23.5162,159.082,-113.77,14.7095,96.9238,-0.257446,-0.0738525,0.547394,-0.792786,63037,1428,59937,6371,-30510
510,166769,12.8816,-6.73272,-1.60781,-66.2256,-22.5055,160.17,-89.7217,-57.8613,165.1,-0.252991,-0.0710449,0.551666,-0.791534,63174,1474,59919,6371,-30510
516,166775,11.3265,-6.98154,-2.38779,-66.9562,-21.8573,161.076,-77.0264,-93.3838,201.721,-0.237793,-0.0669556,0.560242,-0.790558,63224,1527,59919,6371,-30510
522,166781,9.46025,-7.64189,-2.57441,-67.6538,-21.1157,162.23,-53.7109,-132.874,236.45,-0.226898,-0.0658875,0.564209,-0.791046,63268,1570,59923,6371,-30510
528,166787,7.55576,-7.76631,-2.69404,-68.28,-20.2972,163.619,-24.292,-171.631,266.846,-0.213898,-0.0656738,0.567535,-0.792297,63355,1601,59932,6371,-30510
534,166793,5.77568,-7.21602,-2.64141,-68.8074,-19.4238,165.223,5.31006,-208.862,290.161,-0.199097,-0.0664368,0.57019,-0.794189,63431,1621,59944,6371,-30510
540,166799,3.20605,-5.45029,-2.63662,-69.6039,-17.6385,169.041,57.4341,-289.551,321.472,-0.182648,-0.0683289,0.572113,-0.7966,63560,1722,59977,6371,-30510
546,166805,1.99541,-5.32588,-2.17246,-69.8895,-16.7871,171.271,81.543,-336.548,327.026,-0.14502,-0.0762024,0.574097,-0.802185,63616,1759,59997,6371,-30510
552,166811,0.736914,-5.12969,-2.0624,-70.0873,-15.9906,173.754,107.178,-389.16,331.665,-0.123901,-0.0827637,0.573944,-0.805145,63668,1790,60018,6371,-30510
558,166817,-0.62207,-4.4167,-1.65088,-70.2026,-15.26,176.495,132.263,-443.848,336.67,-0.101105,-0.091156,0.572968,-0.808136,63668,1816,60040,6371,-30510
564,166823,-0.765625,-3.64629,-0.0382813,-70.2081,-14.5239,179.462,159.79,-489.136,352.966,-0.0764771,-0.100769,0.570923,-0.811127,63678,1838,60065,6371,-30510
570,166829,-2.15332,-2.45,1.44512,-69.7852,-13.3319,-174.111,220.825,-559.204,342.102,-0.0507507,-0.111969,0.567444,-0.814117,63671,1876,60116,6371,-30510
576,166835,-2.50742,-1.93799,2.43086,-69.3237,-12.8705,-170.777,254.517,-580.261,333.74,0.00213623,-0.137329,0.555908,-0.819763,63664,1895,60146,6371,-30510
582,166841,-2.60313,-1.38291,3.5458,-68.6975,-12.5299,-167.404,284.485,-595.276,319.275,0.0287781,-0.151093,0.547577,-0.822418,63613,1914,60176,6371,-30510
588,166847,-2.34951,-0.483301,5.19189,-67.9285,-12.3486,-164.037,310.608,-603.943,297.913,0.0549316,-0.165436,0.537659,-0.82489,63583,1937,60208,6371,-30510
594,166853,-2.75146,-0.392383,7.07725,-67.0166,-12.3322,-160.735,334.839,-603.943,271.912,0.0802002,-0.180115,0.526123,-0.827148,63525,1964,60242,6371,-30510
600,166859,-3.64629,-0.531152,11.4604,-64.8853,-12.5903,-154.484,361.145,-564.88,238.22,0.104614,-0.19455,0.513275,-0.829224,63338,1954,60309,6371,-30510
606,166865,-4.23008,-0.641211,14.0827,-63.7152,-12.7441,-151.65,363.098,-523.56,232.544,0.149841,-0.219849,0.485504,-0.832703,63215,1920,60343,6371,-30510
612,166871,-4.62725,-1.21543,15.9394,-62.5287,-12.821,-149.063,353.882,-468.872,232.91,0.170654,-0.229523,0.471588,-0.834076,63117,1892,60375,6371,-30510
618,166877,-5.01006,-1.85664,18.241,-61.3586,-12.7881,-146.733,333.374,-406.677,234.558,0.190125,-0.236908,0.458405,-0.835144,62998,1875,60406,6371,-30510
624,166883,-5.37852,-2.62705,19.399,-60.2435,-12.6233,-144.662,305.054,-340.576,235.535,0.208313,-0.241974,0.446381,-0.835876,62906,1865,60439,6371,-30510
630,166889,-5.80918,-2.44521,21.1169,-58.3868,-11.8488,-141.229,220.093,-213.623,234.375,0.22522,-0.244934,0.436035,-0.83609,62691,1791,60504,6371,-30510
636,166895,-6.68008,-2.37822,21.9112,-57.6727,-11.25,-139.845,178.345,-156.372,232.849,0.254822,-0.245392,0.421356,-0.834991,62558,1767,60533,6371,-30510
642,166901,-7.6084,-2.79932,22.9257,-57.1069,-10.5304,-138.675,137.695,-104.736,227.539,0.267517,-0.243347,0.416901,-0.833832,62441,1747,60558,6371,-30510
648,166907,-7.57012,-3.4501,21.9304,-56.7554,-9.75037,-137.741,82.5806,-57.251,211.609,0.27829,-0.240417,0.414764,-0.832245,62338,1726,60584,6371,-30510
654,166913,-8.39795,-3.7085,21.9352,-56.5851,-8.95386,-136.983,38.3911,-26.1841,193.054,0.287354,-0.237183,0.414398,-0.830261,62243,1704,60606,6371,-30510
660,166919,-9.37412,-3.82334,21.8155,-56.9641,-7.69043,-136.329,-74.9512,49.7437,89.1113,0.29361,-0.234436,0.416138,-0.827972,62119,1650,60641,6371,-30510
666,166925,-9.49854,-4.07695,20.7341,-57.5024,-7.17957,-136.719,-138.733,130.737,18.0664,0.294617,-0.228058,0.425964,-0.824402,62081,1661,60656,6371,-30510
672,166931,-9.44111,-4.16787,20.0546,-58.2166,-6.73462,-137.758,-189.209,233.032,-60.4248,0.287567,-0.222839,0.434509,-0.823853,62043,1669,60669,6371,-30510
678,166937,-8.77119,-3.34004,19.289,-59.0405,-6.33362,-139.515,-225.769,351.074,-141.174,0.275024,-0.215332,0.444946,-0.824554,62000,1671,60680,6371,-30510
684,166943,-7.78066,-2.63184,17.8008,-59.8865,-5.96558,-142.009,-243.896,477.051,-218.018,0.25705,-0.204895,0.456604,-0.82663,62004,1667,60690,6371,-30510
690,166949,-3.88555,-1.44512,14.9823,-61.3202,-5.16357,-149.233,-226.624,749.878,-342.651,0.233856,-0.190765,0.468872,-0.830048,62020,1726,60690,6371,-30510
696,166955,-1.0623,-1.74658,13.1975,-61.7871,-4.72412,-153.847,-194.275,869.263,-395.752,0.173309,-0.150513,0.491699,-0.839905,62074,1745,60674,6371,-30510
702,166961,2.4165,-2.17725,10.8479,-62.0728,-4.36157,-158.923,-158.203,949.341,-447.937,0.137238,-0.126251,0.500549,-0.845306,62112,1762,60653,6371,-30510
708,166967,6.51738,-2.1916,8.33096,-62.2266,-4.19678,-164.191,-129.639,967.773,-499.451,0.098877,-0.102081,0.507141,-0.850006,62167,1775,60619,6371,-30510
714,166973,11.4461,-2.30645,5.1249,-62.3199,-4.4165,-169.283,-116.516,905.64,-549.988,0.0599365,-0.0811157,0.511719,-0.853149,62284,1790,60575,6371,-30510
720,166979,14.2933,-6.5126,-2.25381,-62.8473,-6.71265,-177.457,-170.471,535.889,-624.512,-0.0115967,-0.0614929,0.519226,-0.852295,62530,1823,60461,6371,-30510
726,166985,16.0542,-7.98164,-3.08643,-63.4515,-8.55835,-179.918,-210.205,299.927,-586.487,-0.0386658,-0.0638428,0.524323,-0.848175,62673,1800,60399,6371,-30510
732,166991,17.7721,-7.74238,-2.62705,-64.2645,-10.7666,178.418,-244.446,128.723,-571.533,-0.0614929,-0.0721741,0.530579,-0.842255,62845,1779,60342,6371,-30510
738,166997,16.9299,-8.02471,-1.90928,-65.127,-13.0902,177.182,-251.648,45.6543,-546.692,-0.0819092,-0.0829163,0.536926,-0.83548,62998,1801,60290,6371,-30510
744,167003,16.5758,-8.94824,-1.25371,-65.8466,-15.2985,175.946,-231.506,49.7437,-510.498,-0.101685,-0.0925903,0.542297,-0.828796,63095,1819,60246,6371,-30510
750,167009,18.0927,-9.04873,-1.81836,-66.2585,-18.869,172.562,-130.798,190.186,-429.138,-0.142944,-0.10202,0.546875,-0.818512,63260,1838,60182,6371,-30510
756,167015,20.7197,-9.12051,-3.08164,-65.863,-20.2094,170.453,-72.8149,249.634,-392.517,-0.163788,-0.102234,0.545563,-0.81546,63275,1847,60160,6371,-30510
762,167021,23.409,-8.69941,-3.84248,-65.1764,-21.3574,168.283,-24.0479,269.897,-360.779,-0.183777,-0.101318,0.542419,-0.813416,63293,1856,60143,6371,-30510
768,167027,25.9403,-8.91953,-4.26357,-64.3469,-22.4011,166.251,10.1929,248.596,-331.482,-0.202026,-0.100708,0.538269,-0.81192,63315,1867,60125,6371,-30510
774,167033,28.7253,-10.6948,-3.96211,-63.4955,-23.3844,164.542,36.438,195.19,-296.692,-0.217621,-0.101471,0.533752,-0.81076,63336,1842,60109,6371,-30510
780,167039,29.2182,-11.3504,-3.21084,-62.0178,-25.0433,162.372,66.5283,71.7163,-187.805,-0.238556,-0.106567,0.525452,-0.809631,63369,1818,60065,6371,-30510
786,167045,29.5244,-12.049,-2.21074,-61.4575,-25.5157,161.9,75.8667,32.8369,-104.858,-0.243286,-0.1091,0.522003,-0.81012,63384,1774,60041,6371,-30510
792,167051,28.6631,-12.6807,-1.18193,-60.9906,-25.6036,161.768,87.0972,15.7471,-7.01904,-0.24411,-0.110138,0.51886,-0.811768,63398,1736,60017,6371,-30510
798,167057,27.1414,-12.2452,0.0717773,-60.5841,-25.1917,161.922,100.159,21.5454,105.042,-0.241028,-0.108612,0.515747,-0.81488,63412,1706,59989,6371,-30510
804,167063,25.3087,-11.1111,1.19629,-60.2106,-24.2853,162.263,110.352,40.6494,210.022,-0.234589,-0.104187,0.512543,-0.819336,63423,1685,59961,6371,-30510
810,167069,19.265,-8.18262,2.24902,-59.5844,-21.4453,163.411,114.258,57.0068,349.792,-0.225555,-0.0974121,0.509338,-0.824677,63423,1661,59900,6371,-30510
816,167075,16.1403,-7.02461,2.33516,-59.3701,-19.7864,164.246,108.826,40.3442,387.939,-0.201569,-0.0810242,0.503723,-0.83606,63458,1613,59870,6371,-30510
822,167081,13.0874,-6.10107,2.20596,-59.2328,-18.1165,165.251,100.586,13.6108,410.034,-0.187286,-0.0730896,0.501556,-0.84137,63481,1569,59840,6371,-30510
828,167087,10.312,-5.56035,2.30645,-59.1614,-16.474,166.421,92.4683,-16.6626,422.058,-0.171967,-0.0659485,0.499847,-0.846222,63538,1570,59808,6371,-30510
834,167093,7.74238,-5.05791,2.80889,-59.1229,-14.8975,167.723,87.4023,-48.1567,425.781,-0.155792,-0.0598145,0.498444,-0.850647,63624,1570,59776,6371,-30510
840,167099,2.84238,-4.97178,3.57451,-59.0295,-11.9861,170.728,88.9282,-111.755,429.016,-0.138885,-0.0548401,0.49707,-0.854706,63784,1536,59714,6371,-30510
846,167105,0.885254,-4.47891,4.30664,-58.9417,-10.6567,172.408,93.6279,-141.418,426.88,-0.102936,-0.0482483,0.49411,-0.861877,63859,1499,59689,6371,-30510
852,167111,-0.933105,-4.08652,4.88564,-58.8098,-9.42627,174.155,96.3745,-163.269,417.725,-0.0845337,-0.0465393,0.49234,-0.86499,63920,1466,59665,6371,-30510
858,167117,-3.45967,-4.0626,6.00059,-58.6505,-8.25073,175.952,96.1304,-179.565,415.283,-0.0658875,-0.0454407,0.490417,-0.867737,64019,1438,59644,6371,-30510
864,167123,-3.31133,-4.00039,6.6083,-58.4802,-7.13013,177.764,91.7969,-188.11,408.813,-0.0473328,-0.0447693,0.488495,-0.870087,64100,1412,59622,6371,-30510
870,167129,-6.80928,-2.23945,7.79502,-58.244,-5.53162,-178.885,59.082,-208.069,324.28,-0.0306702,-0.045166,0.486847,-0.871735,64230,1375,59578,6371,-30510
876,167135,-8.33574,-2.16768,8.26396,-58.244,-5.00427,-177.231,37.1704,-226.746,293.213,-0.000152588,-0.0498657,0.485138,-0.872955,64285,1360,59556,6371,-30510
882,167141,-9.67559,-1.85664,8.91475,-58.3264,-4.65271,-175.622,15.625,-239.746,257.874,0.0135193,-0.0540161,0.485168,-0.872589,64335,1344,59539,6371,-30510
888,167147,-10.9484,-1.67002,9.5416,-58.4802,-4.46045,-174.095,-3.35693,-243.53,220.398,0.0258484,-0.0590515,0.485687,-0.871704,64385,1330,59527,6371,-30510
894,167153,-12.0777,-1.68438,10.111,-58.678,-4.41101,-172.689,-17.6392,-240.662,182.19,0.0366821,-0.0646667,0.486481,-0.870453,64434,1355,59519,6371,-30510
900,167159,-14.0636,-1.62217,11.1542,-59.1394,-4.61975,-170.25,-33.8135,-219.299,113.098,0.0460205,-0.0707092,0.487396,-0.869049,64436,1375,59513,6371,-30510
906,167165,-14.8101,-1.66523,11.5944,-59.3591,-4.823,-169.244,-36.8042,-199.158,82.7026,0.0605469,-0.0827637,0.489075,-0.866119,64457,1400,59517,6371,-30510
912,167171,-15.5326,-1.98584,11.8672,-59.5569,-5.0592,-168.376,-37.6587,-175.659,54.7485,0.0659485,-0.0883484,0.489716,-0.864807,64427,1408,59523,6371,-30510
918,167177,-15.3029,-1.99541,11.9198,-59.7382,-5.3009,-167.635,-37.9028,-150.879,30.7617,0.070343,-0.0934448,0.490234,-0.863647,64411,1414,59534,6371,-30510
924,167183,-15.8676,-1.82793,12.0012,-59.9084,-5.55908,-167.025,-39.856,-125.122,5.24902,0.0736694,-0.0980835,0.490784,-0.862549,64407,1418,59549,6371,-30510
930,167189,-15.2838,-1.20107,11.8911,-60.0842,-5.83374,-166.558,-45.8984,-77.0264,-44.6777,0.0758362,-0.102234,0.491394,-0.861511,64362,1418,59565,6371,-30510
936,167195,-14.9249,-1.49775,11.7284,-60.4688,-6.49841,-166.014,-50.293,-61.7065,-70.1904,0.0766602,-0.109802,0.493011,-0.859589,64309,1453,59603,6371,-30510
942,167201,-13.9535,-2.01455,11.7332,-60.6775,-6.92139,-165.877,-53.2837,-54.2603,-92.5903,0.075592,-0.113678,0.493958,-0.858643,64243,1482,59625,6371,-30510
948,167207,-13.8482,-2.48828,12.0395,-60.8862,-7.42126,-165.817,-54.5044,-47.9126,-116.089,0.0736084,-0.117798,0.494873,-0.857727,64191,1507,59649,6371,-30510
954,167213,-13.0491,-2.73711,12.3936,-61.0785,-7.99805,-165.833,-51.6357,-41.1377,-138.245,0.0707397,-0.12207,0.495605,-0.856964,64151,1529,59672,6371,-30510
960,167219,-10.8097,-2.98594,12.8769,-61.4191,-9.38782,-166.13,-52.7344,-26.9775,-186.951,0.066864,-0.126556,0.496216,-0.856262,64122,1551,59695,6371,-30510
966,167225,-9.42197,-3.37354,12.963,-61.6058,-10.2338,-166.388,-59.3262,-24.7192,-213.318,0.0559998,-0.136505,0.497375,-0.854828,63997,1591,59743,6371,-30510
972,167231,-7.90986,-3.82334,12.8577,-61.8475,-11.2006,-166.696,-72.5098,-26.5503,-240.051,0.0490417,-0.142365,0.498291,-0.85376,63954,1609,59765,6371,-30510
978,167237,-6.31641,-3.97168,12.6328,-62.1716,-12.2772,-167.047,-92.8955,-29.9072,-264.404,0.0411377,-0.148895,0.499756,-0.852234,63873,1627,59786,6371,-30510
984,167243,-4.81387,-4.13916,12.1734,-62.6056,-13.4583,-167.421,-117.798,-32.5317,-285.278,0.0323792,-0.156006,0.501923,-0.850037,63811,1641,59808,6371,-30510
990,167249,-1.18193,-4.24443,10.9389,-63.8525,-16.0236,-168.267,-176.025,-28.9917,-315.735,0.0228577,-0.163513,0.504913,-0.847168,63643,1668,59858,6371,-30510
996,167255,0.330176,-4.78037,9.84785,-64.6655,-17.3804,-168.723,-206.177,-25.6958,-324.89,0.00161743,-0.178955,0.51358,-0.839111,63583,1639,59887,6371,-30510
1002,167261,2.17246,-4.67031,8.44102,-65.6268,-18.7701,-169.173,-237.793,-26.123,-330.994,-0.00976563,-0.186859,0.519318,-0.833771,63493,1614,59922,6371,-30510
1008,167267,3.99561,-4.31621,7.02939,-66.7255,-20.2258,-169.59,-266.968,-32.1655,-340.21,-0.0215759,-0.195129,0.525818,-0.827545,63428,1590,59962,6371,-30510
1014,167273,5.44551,-4.59375,3.2252,-67.9449,-21.7639,-169.958,-291.443,-40.8325,-352.783,-0.0338135,-0.203979,0.532898,-0.820465,63334,1610,60007,6371,-30510
1020,167279,6.77578,-4.45977,1.67959,-70.697,-24.9829,-170.53,-328.491,-49.3164,-360.84,-0.0589905,-0.222412,0.54834,-0.803894,63126,1641,60112,6371,-30510
1026,167285,8.51279,-4.05303,0.0861328,-72.1417,-26.6034,-170.826,-340.027,-37.2314,-364.38,-0.0721436,-0.231201,0.556244,-0.794861,63004,1653,60168,6371,-30510
1032,167291,9.90527,-3.94775,-1.2585,-73.5425,-28.2184,-171.178,-339.722,-19.2261,-364.99,-0.0857544,-0.239349,0.563782,-0.785736,62911,1658,60230,6371,-30510
1038,167297,11.1925,-3.87119,-2.62705,-74.8224,-29.7784,-171.563,-323.059,-2.86865,-353.76,-0.0992432,-0.246704,0.570526,-0.776978,62792,1658,60297,6371,-30510
1044,167303,16.5327,-3.89033,-6.59873,-75.9595,-31.2836,-172.051,-307.617,21.6064,-345.337,-0.112946,-0.253082,0.576447,-0.768646,62650,1658,60372,6371,-30510
1050,167309,18.9684,-4.00518,-8.76162,-77.7557,-34.1785,-173.32,-270.508,58.2275,-323.853,-0.140808,-0.263336,0.585602,-0.75351,62402,1656,60535,6371,-30510
1056,167315,20.7532,-4.66074,-10.7475,-78.4973,-35.5682,-173.969,-248.84,52.6123,-303.65,-0.154205,-0.267853,0.589172,-0.74646,62285,1656,60615,6371,-30510
1062,167321,21.9495,-5.29238,-12.2739,-79.2224,-36.8427,-174.452,-219.971,26.8555,-265.808,-0.165863,-0.2724,0.592407,-0.739746,62142,1657,60692,6371,-30510
1068,167327,23.8827,-6.01494,-13.4894,-79.942,-37.9907,-174.677,-180.908,-8.91113,-228.149,-0.175232,-0.277374,0.595154,-0.73349,62023,1660,60768,6371,-30510
1074,167333,25.3135,-5.79482,-13.9487,-80.6506,-38.996,-174.578,-132.568,-51.8188,-186.951,-0.181763,-0.28302,0.59726,-0.728027,61924,1668,60841,6371,-30510
1080,167339,25.3757,-6.12979,-13.6999,-81.9965,-40.4462,-173.386,-31.4941,-131.714,-95.8252,-0.185608,-0.295929,0.599518,-0.720032,61687,1683,60986,6371,-30510
1086,167345,24.9259,-6.43604,-13.0013,-82.6227,-40.8746,-172.392,11.5356,-160.339,-51.4526,-0.18335,-0.302704,0.599823,-0.717529,61596,1693,61055,6371,-30510
1092,167351,24.2272,-6.23506,-11.9198,-83.183,-41.1108,-171.249,45.9595,-176.025,-12.3291,-0.178986,-0.309204,0.599701,-0.715942,61474,1662,61124,6371,-30510
1098,167357,23.3611,-6.01016,-10.7427,-83.6719,-41.1877,-170.052,70.0684,-178.955,19.104,-0.173279,-0.315186,0.599274,-0.715118,61375,1640,61193,6371,-30510
1104,167363,21.5236,-5.88574,-9.02002,-84.0619,-41.1328,-168.882,86.0596,-172.119,44.6167,-0.166748,-0.320404,0.598633,-0.714905,61293,1624,61262,6371,-30510
1110,167369,20.6958,-5.87617,-8.59414,-84.5618,-40.6879,-166.794,101.318,-141.357,84.5337,-0.152588,-0.328003,0.597046,-0.715942,61075,1601,61402,6371,-30510
1116,167375,19.9206,-5.62256,-8.47451,-84.6661,-40.2924,-165.921,105.225,-122.253,106.995,-0.145172,-0.330139,0.596283,-0.717133,60986,1591,61468,6371,-30510
1122,167381,19.0258,-5.45986,-8.43623,-84.6771,-39.765,-165.163,109.07,-102.905,131.775,-0.137421,-0.331024,0.595581,-0.718811,60910,1580,61530,6371,-30510
1128,167387,18.0305,-5.44072,-8.46494,-84.5947,-39.1003,-164.493,116.028,-87.7686,158.813,-0.12912,-0.33078,0.594971,-0.720978,60842,1568,61592,6371,-30510
1134,167393,16.815,-5.42158,-8.4123,-84.4244,-38.2874,-163.861,127.502,-79.3457,188.049,-0.119965,-0.329559,0.59433,-0.723633,60781,1557,61650,6371,-30510
1140,167399,13.8961,-4.56025,-7.79502,-83.8531,-36.2604,-162.587,158.508,-77.3926,242.554,-0.109772,-0.327545,0.593567,-0.726776,60666,1565,61752,6371,-30510
1146,167405,12.0634,-3.8042,-7.00068,-83.4302,-35.0739,-161.906,180.908,-79.7729,266.846,-0.0861206,-0.321869,0.591217,-0.734406,60611,1580,61794,6371,-30510
1152,167411,10.4125,-3.096,-6.01494,-82.8973,-33.8104,-161.208,203.369,-80.8105,284.119,-0.0728455,-0.31842,0.589233,-0.738922,60557,1591,61831,6371,-30510
1158,167417,8.78076,-2.8376,-4.91436,-82.2491,-32.4921,-160.488,226.99,-82.5195,297.058,-0.0587769,-0.314667,0.586578,-0.743866,60553,1595,61861,6371,-30510
1164,167423,7.23037,-2.81846,-3.58887,-81.4966,-31.1407,-159.719,250.977,-88.1348,306.152,-0.0440063,-0.310883,0.58313,-0.749176,60540,1635,61885,6371,-30510
1170,167429,4.34971,-3.01465,-0.334961,-79.7552,-28.4381,-157.906,294.861,-117.432,315.796,-0.0284424,-0.307281,0.578888,-0.7547,60517,1668,61903,6371,-30510
1176,167435,3.02422,-3.35439,1.27285,-78.8049,-27.1088,-156.802,314.941,-140.93,320.068,0.00524902,-0.301422,0.568054,-0.765717,60548,1712,61917,6371,-30510
1182,167441,1.79443,-3.81377,2.50742,-77.8546,-25.8069,-155.544,324.89,-167.297,322.754,0.023407,-0.299469,0.561737,-0.770782,60552,1727,61919,6371,-30510
1188,167447,0.660352,-3.88555,4.97178,-76.9373,-24.5599,-154.144,324.768,-193.665,322.327,0.0421448,-0.298279,0.555176,-0.775177,60598,1737,61911,6371,-30510
1194,167453,-0.971387,-4.40234,7.15381,-76.0583,-23.3734,-152.573,325.5,-224.67,320.801,0.061554,-0.298004,0.548248,-0.7789,60631,1744,61902,6371,-30510
1200,167459,-3.29697,-4.59854,11.6088,-75.2509,-22.2363,-150.848,317.078,-254.639,322.815,0.0815735,-0.298553,0.541321,-0.781708,60653,1791,61890,6371,-30510
1206,167465,-2.91895,-4.56025,13.3171,-73.916,-20.1489,-147.222,269.836,-276.428,309.021,0.101746,-0.299683,0.534607,-0.783539,60780,1870,61855,6371,-30510
1212,167471,-4.254,-4.254,15.1737,-73.3832,-19.2535,-145.497,238.403,-268.311,288.086,0.138947,-0.302734,0.522827,-0.784576,60831,1904,61839,6371,-30510
1218,167477,-5.49336,-4.39277,16.7146,-72.9767,-18.4515,-143.882,198.364,-254.822,267.029,0.155304,-0.304474,0.518097,-0.783997,60874,1933,61824,6371,-30510
1224,167483,-6.46953,-4.63203,18.0018,-72.702,-17.7209,-142.394,154.114,-234.68,246.033,0.170013,-0.306183,0.514404,-0.782715,60911,1956,61814,6371,-30510
1230,167489,-7.5127,-4.84736,18.9062,-72.5482,-17.0508,-141.059,109.131,-207.581,224.548,0.183014,-0.307709,0.51181,-0.780884,60944,1973,61808,6371,-30510
1236,167495,-8.72334,-4.37363,19.6335,-72.6196,-15.8203,-138.867,17.8833,-138.672,177.063,0.194366,-0.308929,0.510406,-0.778564,60971,1984,61807,6371,-30510
1242,167501,-9.154,-4.16309,19.5665,-72.8229,-15.2765,-138.032,-20.0806,-106.14,149.048,0.211914,-0.310516,0.510986,-0.772949,61015,1993,61816,6371,-30510
1248,167507,-9.70908,-3.99561,19.265,-73.1305,-14.8041,-137.357,-53.1616,-79.2236,119.141,0.218048,-0.311188,0.512695,-0.769836,61033,2031,61825,6371,-30510
1254,167513,-9.97705,-3.76113,18.9205,-73.5205,-14.425,-136.835,-78.5522,-56.8237,87.1582,0.222443,-0.311951,0.515045,-0.766693,61046,2059,61840,6371,-30510
1260,167519,-10.2163,-3.36396,18.6382,-73.9545,-14.1669,-136.456,-96.9238,-37.1094,52.4902,0.225098,-0.312897,0.517761,-0.763702,61054,2076,61859,6371,-30510
1266,167525,-9.87178,-3.02422,18.0305,-74.4159,-14.046,-136.236,-120.789,6.16455,-22.8882,0.225952,-0.314026,0.52063,-0.761017,61061,2130,61879,6371,-30510
1272,167531,-9.39326,-3.22998,17.552,-75.3772,-14.1943,-136.269,-130.798,28.2593,-56.8848,0.22229,-0.316681,0.526611,-0.756897,61068,2208,61926,6371,-30510
1278,167537,-8.60371,-3.49316,16.9634,-75.8936,-14.447,-136.494,-143.494,47.4243,-86.1816,0.218079,-0.318146,0.529846,-0.755219,61072,2236,61951,6371,-30510
1284,167543,-7.57969,-3.43574,16.1786,-76.4703,-14.7931,-136.824,-161.438,62.1338,-111.328,0.212463,-0.319824,0.533447,-0.753571,61076,2260,61981,6371,-30510
1290,167549,-6.47432,-3.37354,15.1785,-77.1405,-15.238,-137.225,-184.998,72.6929,-134.277,0.205536,-0.321869,0.537598,-0.751678,61082,2278,62013,6371,-30510
1296,167555,-4.3832,-3.41182,12.2165,-77.948,-15.7819,-137.686,-252.136,86.853,-175.842,0.197327,-0.324371,0.54248,-0.749298,61089,2334,62044,6371,-30510
1302,167561,-3.19648,-3.27305,10.5561,-80.0684,-17.1606,-138.708,-290.1,88.1958,-195.984,0.177094,-0.331146,0.554871,-0.742279,61116,2429,62114,6371,-30510
1308,167567,-2.08154,-3.38311,8.5415,-81.3812,-18.0176,-139.224,-325.867,87.8906,-217.957,0.165131,-0.335602,0.562225,-0.737488,61137,2470,62155,6371,-30510
1314,167573,-1.1293,-3.10078,6.89063,-82.8424,-18.9899,-139.741,-357.178,90.271,-238.77,0.152008,-0.340668,0.570099,-0.731934,61112,2507,62201,6371,-30510
1320,167579,-0.0526367,-2.97158,5.07705,-84.397,-20.0555,-140.284,-379.272,97.3511,-257.324,0.137726,-0.346008,0.578278,-0.72583,61098,2499,62255,6371,-30510
1326,167585,2.55049,-2.09111,0.971387,-87.4951,-22.4615,-141.63,-394.531,143.982,-289.978,0.122314,-0.351166,0.586426,-0.719513,61041,2563,62369,6371,-30510
1332,167591,4.39756,-1.68916,-1.13887,-88.9178,-23.8129,-142.564,-392.639,184.814,-308.96,0.0871887,-0.359406,0.601807,-0.707764,61006,2590,62435,6371,-30510
1338,167597,6.41689,-1.11494,-2.9333,-90.1428,-25.2795,-143.663,-372.498,221.375,-327.393,0.0675964,-0.362213,0.608185,-0.703003,60985,2575,62504,6371,-30510
1344,167603,8.81426,-1.21064,-6.125,-91.1591,-26.8726,-144.888,-348.633,248.779,-346.802,0.0470581,-0.364563,0.613251,-0.699066,60926,2566,62573,6371,-30510
1350,167609,7.2208,-3.12471,-8.575,-91.9611,-28.4106,-146.157,-316.284,258.667,-332.153,0.0271606,-0.366028,0.617279,-0.695801,60886,2564,62642,6371,-30510
1356,167615,13.2405,-3.25869,-11.848,-92.7795,-31.1737,-148.7,-221.924,256.47,-278.137,-0.00814819,-0.366608,0.621552,-0.692169,60739,2570,62763,6371,-30510
1362,167621,15.0589,-3.91426,-13.1496,-92.8015,-32.3767,-149.886,-168.823,240.54,-246.46,-0.0229187,-0.366302,0.621613,-0.691956,60691,2542,62813,6371,-30510
1368,167627,16.3222,-4.6751,-13.9535,-92.6093,-33.4369,-150.98,-118.042,217.224,-211.792,-0.0356445,-0.365875,0.620544,-0.692596,60602,2525,62855,6380,-30511
1374,167633,17.1835,-5.33545,-14.365,-92.2577,-34.3488,-151.996,-70.4346,189.026,-173.706,-0.0463867,-0.365204,0.618744,-0.693909,60528,2475,62886,6380,-30511
1380,167639,17.8582,-6.30684,-14.2598,-91.8073,-35.0519,-152.88,-23.8037,153.015,-127.686,-0.0546875,-0.364258,0.616577,-0.695709,60465,2439,62908,6380,-30511
1386,167645,17.7673,-6.93848,-13.9344,-90.8514,-35.8923,-154.155,33.8135,89.3555,-54.1992,-0.0646667,-0.362305,0.612152,-0.699799,60363,2390,62935,6380,-30511
1392,167651,17.3653,-7.15381,-13.475,-90.401,-36.1066,-154.55,51.5137,63.1104,-29.9683,-0.0669556,-0.361572,0.609955,-0.701874,60322,2334,62936,6380,-30511
1398,167657,16.8533,-7.15381,-12.9726,-89.978,-36.2329,-154.803,64.1479,40.7715,-12.8784,-0.0679321,-0.361145,0.607758,-0.703888,60286,2287,62933,6380,-30511
1404,167663,16.2121,-7.4792,-12.4845,-89.588,-36.3043,-154.935,73.7305,23.0713,-2.56348,-0.0679932,-0.361053,0.60556,-0.705841,60254,2247,62924,6380,-30511
1410,167669,15.2407,-8.0917,-11.6901,-89.2145,-36.3538,-155.001,80.5664,12.207,2.0752,-0.0675049,-0.361206,0.603302,-0.707733,60223,2214,62909,6380,-30511
1416,167675,15.102,-8.12041,-11.6279,-88.4235,-36.4362,-155.105,88.6841,12.6953,4.45557,-0.0661316,-0.361542,0.59848,-0.711761,60170,2169,62873,6380,-30511
1422,167681,15.4082,-8.49365,-11.6949,-88.006,-36.4581,-155.198,88.501,18.9819,6.16455,-0.0655518,-0.36145,0.5961,-0.713867,60148,2152,62849,6380,-30511
1428,167687,15.5518,-8.10606,-12.2309,-87.5775,-36.4581,-155.319,87.5854,24.292,11.8408,-0.0649414,-0.361053,0.593811,-0.716034,60128,2096,62825,6380,-30511
1434,167693,15.8389,-8.2209,-12.451,-87.1326,-36.4087,-155.44,91.6748,25.0244,20.752,-0.0640259,-0.360413,0.591553,-0.718292,60109,2045,62798,6380,-30511
1440,167699,15.9776,-7.86201,-12.5467,-86.6492,-36.2988,-155.544,101.44,24.5361,33.6304,-0.0625,-0.359497,0.589203,-0.720825,60090,1999,62769,6380,-30511
1446,167705,15.7479,-7.54619,-12.2452,-85.4572,-35.777,-155.731,137.207,26.001,74.8291,-0.0568237,-0.356293,0.583832,-0.727203,60054,1930,62711,6380,-30511
1452,167711,15.3221,-7.25908,-11.7476,-84.6991,-35.332,-155.825,159.729,29.7241,99.5483,-0.0524597,-0.353699,0.580658,-0.731323,60036,1901,62681,6380,-30511
1458,167717,14.8244,-6.85234,-11.0585,-83.8367,-34.7717,-155.918,181.702,34.2407,123.657,-0.0471191,-0.350433,0.577148,-0.736053,60016,1874,62649,6380,-30511
1464,167723,14.0971,-6.21113,-10.1158,-82.8754,-34.0851,-155.995,204.468,36.7432,147.949,-0.0407104,-0.346466,0.573212,-0.741364,60045,1850,62612,6380,-30511
1470,167729,12.2596,-5.51729,-7.95772,-81.8427,-33.3105,-156.044,222.961,35.9497,166.321,-0.0334473,-0.342102,0.568909,-0.74704,60063,1829,62574,6380,-30511
1476,167735,11.2403,-5.26367,-6.73272,-79.5905,-31.5637,-156.011,258.789,32.7148,194.214,-0.0166321,-0.332397,0.559021,-0.759369,60072,1792,62483,6380,-30511
1482,167741,10.1876,-5.01963,-5.45508,-78.371,-30.6079,-155.923,275.818,30.5176,206.36,-0.00720215,-0.327148,0.553375,-0.7659,60114,1773,62430,6371,-30510
1488,167747,9.15879,-4.7708,-4.22051,-77.1185,-29.6082,-155.77,291.26,24.353,217.468,0.00289917,-0.321777,0.547272,-0.772552,60143,1755,62369,6371,-30510
1494,167753,8.31182,-4.56025,-2.98115,-75.8386,-28.5864,-155.517,305.786,12.0239,225.586,0.0137939,-0.316589,0.54068,-0.779205,60164,1738,62308,6371,-30510
1500,167759,7.40264,-4.59375,-1.45469,-74.5422,-27.5702,-155.132,321.289,-5.49316,230.469,0.0254211,-0.311768,0.533508,-0.785767,60223,1726,62243,6371,-30510
1506,167765,5.83789,-4.22529,1.804,-71.889,-25.6146,-153.962,351.99,-49.3164,236.572,0.0378113,-0.307434,0.525726,-0.792175,60347,1714,62110,6371,-30510
1512,167771,5.24932,-4.31621,3.34004,-70.5487,-24.7192,-153.149,364.258,-76.2329,235.596,0.0648499,-0.300934,0.508118,-0.804321,60410,1717,62040,6371,-30510
1518,167777,4.66553,-4.82344,4.7708,-69.2194,-23.9008,-152.199,372.498,-102.112,232.117,0.0792236,-0.29892,0.498444,-0.809814,60464,1721,61972,6371,-30510
1524,167783,3.78027,-4.81865,7.31172,-67.8955,-23.1647,-151.128,377.93,-125.244,228.21,0.0939331,-0.297668,0.488251,-0.814911,60505,1727,61901,6371,-30510
1530,167789,3.22041,-4.88086,9.40283,-66.5826,-22.5055,-149.98,378.967,-141.724,224.121,0.108826,-0.296967,0.477722,-0.819519,60587,1694,61828,6371,-30510
1536,167795,1.84229,-4.92393,13.6568,-64.0833,-21.3409,-147.629,356.567,-148.438,214.844,0.123535,-0.296478,0.467194,-0.823669,60716,1653,61681,6371,-30510
1542,167801,1.11973,-5.23018,15.3029,-62.9297,-20.8081,-146.508,335.144,-140.808,210.754,0.151398,-0.29538,0.447235,-0.830475,60772,1645,61606,6371,-30510
1548,167807,0.660352,-4.68945,16.9777,-61.8805,-20.2917,-145.459,304.016,-129.272,204.59,0.164124,-0.294525,0.438446,-0.833069,60821,1599,61536,6371,-30510
1554,167813,-0.401953,-5.38809,17.7481,-60.9796,-19.7974,-144.47,265.991,-118.591,197.571,0.175873,-0.293549,0.430817,-0.834961,60868,1566,61468,6371,-30510
1560,167819,-1.10537,-5.11055,18.7147,-60.2655,-19.3195,-143.531,221.008,-111.145,192.139,0.186737,-0.292664,0.424622,-0.83609,60909,1542,61404,6371,-30510
1566,167825,-2.4835,-4.93828,20.3608,-59.447,-18.4406,-141.641,125.854,-114.563,182.922,0.196899,-0.292145,0.419861,-0.836365,60946,1524,61342,6371,-30510
1572,167831,-3.10078,-4.55068,21.0499,-59.3536,-18.045,-140.647,78.9795,-121.765,178.65,0.215759,-0.292938,0.414551,-0.834076,61002,1419,61236,6371,-30510
1578,167837,-3.53623,-4.26836,21.648,-59.458,-17.688,-139.625,34.4238,-127.075,169.983,0.224487,-0.294403,0.413818,-0.831604,61026,1374,61190,6371,-30510
1584,167843,-4.37363,-4.01953,21.9208,-59.7382,-17.3694,-138.615,-8.05664,-127.747,156.494,0.232483,-0.296448,0.414276,-0.828461,61045,1334,61150,6371,-30510
1590,167849,-5.23496,-3.64629,21.9782,-60.1831,-17.0782,-137.631,-47.5464,-124.512,144.104,0.239716,-0.29895,0.415894,-0.824677,61063,1338,61113,6371,-30510
1596,167855,-6.50303,-2.87588,21.6768,-60.7599,-16.7981,-136.719,-112.061,-98.6938,111.511,0.246002,-0.301605,0.418579,-0.820496,61081,1337,61086,6371,-30510
1602,167861,-7.03418,-2.73711,21.2892,-62.1881,-16.2762,-135.247,-136.719,-78.4302,92.4072,0.255035,-0.306702,0.426605,-0.811646,61114,1315,61053,6371,-30510
1608,167867,-7.29736,-2.42607,20.7628,-62.9901,-16.0455,-134.736,-157.227,-54.9927,70.6787,0.257538,-0.308899,0.431671,-0.807343,61130,1336,61051,6371,-30510
1614,167873,-7.18252,-2.09111,20.179,-63.8251,-15.8588,-134.407,-175.476,-28.8086,44.4946,0.258484,-0.310791,0.437286,-0.803284,61145,1346,61057,6371,-30510
1620,167879,-7.14424,-1.8375,19.4947,-64.682,-15.7324,-134.247,-190.491,-5.7373,15.4419,0.257813,-0.312531,0.443298,-0.79953,61158,1388,61071,6371,-30510
1626,167885,-6.92891,-1.77529,18.7243,-65.5719,-15.694,-134.225,-204.59,10.8032,-12.9395,0.255707,-0.314362,0.449554,-0.79599,61169,1418,61091,6371,-30510
1632,167891,-6.12979,-2.05283,17.1117,-67.478,-15.8862,-134.5,-234.924,32.7759,-63.9038,0.252289,-0.316376,0.456024,-0.792572,61188,1492,61143,6371,-30510
1638,167897,-5.42637,-2.01455,16.2552,-68.5162,-16.1005,-134.769,-252.441,42.8467,-85.4492,0.241882,-0.321167,0.469971,-0.785706,61198,1535,61175,6371,-30510
1644,167903,-4.62246,-1.90928,15.3412,-69.6204,-16.3916,-135.115,-271.545,53.2837,-104.858,0.234955,-0.323883,0.477539,-0.782135,61208,1567,61213,6371,-30510
1650,167909,-3.69893,-1.76094,14.4129,-70.8014,-16.7487,-135.533,-290.894,63.2935,-122.375,0.22699,-0.326721,0.485565,-0.778351,61220,1631,61257,6371,-30510
1656,167915,-1.85664,-1.82314,12.1495,-72.0538,-17.1716,-136.005,-309.998,71.7773,-138,0.218048,-0.329773,0.493988,-0.774323,61183,1682,61306,6371,-30510
1662,167921,-0.937891,-1.89014,10.9676,-74.8004,-18.2043,-137.049,-348.938,80.8716,-162.964,0.197693,-0.336487,0.512054,-0.765106,61126,1757,61414,6371,-30510
1668,167927,-0.0478516,-1.79443,9.8,-76.3055,-18.8086,-137.582,-369.69,82.1533,-172.18,0.186493,-0.34024,0.521698,-0.759705,61106,1782,61474,6371,-30510
1674,167933,0.894824,-1.71787,8.49365,-77.915,-19.4623,-138.098,-390.381,81.2378,-180.542,0.174744,-0.344299,0.531738,-0.753723,61091,1843,61534,6371,-30510
1680,167939,1.89492,-1.73223,7.17773,-79.6344,-20.1709,-138.593,-412.903,79.6509,-188.66,0.162384,-0.348694,0.542145,-0.746979,61082,1890,61599,6371,-30510
1686,167945,4.11523,-1.78486,4.17744,-81.4691,-20.9454,-139.048,-435.425,75.5615,-197.754,0.149475,-0.353485,0.552917,-0.739502,61030,1927,61670,6371,-30510
1692,167951,5.04355,-1.90928,2.39736,-85.4901,-22.6813,-139.752,-476.379,58.4717,-214.539,0.122375,-0.364532,0.575165,-0.721954,60952,2023,61820,6371,-30510
1698,167957,5.76611,-2.07676,0.392383,-87.6819,-23.6206,-139.944,-493.408,45.2271,-219.971,0.108521,-0.37085,0.586426,-0.711823,60930,2079,61908,6371,-30510
1704,167963,6.21113,-2.13418,-1.22979,-89.978,-24.5819,-140.021,-506.958,31.5552,-222.534,0.0947266,-0.377594,0.597656,-0.700806,60868,2125,62007,6371,-30510
1710,167969,6.90498,-2.10068,-3.20605,-92.3676,-25.5542,-139.993,-518.372,22.0337,-222.9,0.0809326,-0.384552,0.608856,-0.689026,60823,2165,62113,6380,-30511
1716,167975,7.36436,-2.06719,-7.29736,-94.801,-26.499,-139.883,-520.752,15.3809,-216.614,0.0674438,-0.391449,0.619812,-0.676727,60793,2200,62225,6380,-30511
1722,167981,7.71367,-1.54082,-9.65645,-99.6021,-28.2458,-139.708,-515.198,41.9922,-192.627,0.0405579,-0.402954,0.641144,-0.651794,60668,2256,62457,6380,-30511
1728,167987,8.07734,-0.961816,-12.2691,-101.827,-29.0643,-139.79,-501.648,72.2046,-177.124,0.026825,-0.406799,0.651184,-0.640015,60631,2277,62589,6380,-30511
1734,167993,8.56543,-0.406738,-15.0828,-103.854,-29.8608,-140.037,-478.027,105.652,-160.461,0.0129395,-0.40921,0.660553,-0.629242,60556,2296,62729,6380,-30511
1740,167999,9.28799,0.153125,-18.0353,-105.634,-30.6573,-140.427,-444.946,133.362,-145.02,-0.00088501,-0.4104,0.668915,-0.61969,60498,2314,62873,6380,-30511
1746,168005,10.7427,0.669922,-23.5478,-107.166,-31.4813,-140.922,-349.426,148.499,-119.751,-0.014679,-0.410797,0.676025,-0.611481,60453,2331,63018,6380,-30511
1752,168011,11.3743,0.732129,-25.6819,-109.666,-33.2062,-142.158,-287.781,133.301,-111.938,-0.0420227,-0.409698,0.687653,-0.597839,60289,2365,63289,6380,-30511
1758,168017,11.9055,0.976172,-27.151,-110.616,-33.9752,-142.559,-221.68,107.422,-107.3,-0.0528259,-0.409821,0.691376,-0.59256,60227,2379,63419,6380,-30511
1764,168023,12.4845,0.856543,-27.8448,-111.363,-34.6729,-142.756,-153.687,77.5146,-106.995,-0.0614319,-0.410919,0.693451,-0.588531,60177,2394,63544,6380,-30511
1770,168029,12.9008,1.36377,-27.8687,-111.896,-35.321,-142.773,-86.853,49.4995,-108.154,-0.0679321,-0.412964,0.693939,-0.585815,60138,2409,63658,6380,-30511
1776,168035,14.1832,0.253613,-26.7825,-112.209,-35.9198,-142.641,30.0293,10.1318,-107.422,-0.0725708,-0.415771,0.692932,-0.584473,60057,2426,63762,6380,-30511
1782,168041,15.0302,-0.0813477,-25.6245,-112.242,-36.9855,-142.064,80.7495,-5.7373,-104.126,-0.0772095,-0.423096,0.687103,-0.58548,59928,2426,63937,6380,-30511
1788,168047,15.6762,-0.698633,-24.3325,-112.017,-37.4304,-141.674,118.774,-18.0664,-96.4355,-0.0774841,-0.427185,0.682831,-0.587463,59879,2411,64011,6380,-30511
1794,168053,15.9441,-1.46904,-22.9448,-111.632,-37.7985,-141.262,152.832,-26.6724,-82.6416,-0.0765076,-0.431213,0.677979,-0.590302,59839,2405,64074,6380,-30511
1800,168059,15.992,-2.01455,-21.4854,-111.083,-38.0676,-140.878,183.777,-30.2124,-63.7207,-0.0743408,-0.434814,0.672638,-0.593994,59807,2405,64129,6380,-30511
1806,168065,15.7097,-2.67969,-18.4851,-110.358,-38.2324,-140.548,237.366,-25.0854,-10.7422,-0.0709839,-0.437775,0.667023,-0.598541,59733,2370,64172,6380,-30511
1812,168071,15.3125,-2.82324,-17.0543,-108.369,-38.183,-140.191,260.193,-16.9678,19.4702,-0.0611572,-0.440826,0.655334,-0.610199,59616,2320,64231,6380,-30511
1818,168077,14.7,-2.90937,-15.5853,-107.111,-37.9633,-140.18,281.25,-8.30078,51.0254,-0.0547485,-0.440674,0.649414,-0.617218,59569,2304,64251,6380,-30511
1824,168083,13.9296,-2.96201,-14.1641,-105.699,-37.6117,-140.262,300.537,-0.610352,80.5054,-0.0473938,-0.439484,0.643433,-0.624908,59526,2293,64263,6380,-30511
1830,168089,12.9678,-2.89023,-12.6854,-104.167,-37.1448,-140.411,318.604,5.5542,106.262,-0.0391846,-0.437378,0.637329,-0.633148,59486,2244,64266,6371,-30510
1836,168095,10.9054,-2.45479,-9.84785,-102.524,-36.5845,-140.592,335.938,9.46045,126.892,-0.0302124,-0.43454,0.631012,-0.641846,59445,2200,64261,6371,-30510
1842,168101,9.91484,-2.20117,-8.38838,-98.9813,-35.2551,-140.993,370.605,15.1367,153.381,-0.0103455,-0.427307,0.61734,-0.66037,59411,2124,64221,6371,-30510
1848,168107,8.87168,-2.16289,-6.73272,-97.0642,-34.5245,-141.202,391.357,20.6909,161.438,0.000244141,-0.422974,0.60968,-0.670288,59413,2092,64192,6371,-30510
1854,168113,8.15391,-2.0624,-5.19668,-95.0537,-33.7665,-141.416,410.4,25.3296,166.077,0.0112,-0.418274,0.601349,-0.680573,59408,2063,64153,6371,-30510
1860,168119,7.61318,-2.0002,-3.56016,-92.9663,-33.0029,-141.608,429.871,27.71,168.64,0.022522,-0.413269,0.592316,-0.691193,59396,2037,64102,6371,-30510
1866,168125,7.19209,-2.00977,-1.83271,-90.8075,-32.2229,-141.768,448.608,27.71,169.556,0.0341187,-0.408112,0.58255,-0.701996,59427,2054,64040,6371,-30510
1872,168131,6.6418,-2.03369,2.04805,-86.3306,-30.6683,-141.921,483.215,19.043,169.8,0.0460815,-0.402832,0.571991,-0.712952,59507,2084,63884,6371,-30510
1878,168137,6.40254,-2.14854,3.82813,-84.0509,-29.8883,-141.872,498.108,8.60596,171.387,0.0711975,-0.392303,0.548737,-0.734711,59556,2056,63800,6371,-30510
1884,168143,5.98623,-2.39736,5.78047,-81.7767,-29.1083,-141.707,508.423,-6.16455,175.11,0.0845642,-0.387238,0.536194,-0.745178,59591,2037,63701,6371,-30510
1890,168149,5.40244,-2.66055,7.93857,-79.5465,-28.3228,-141.394,513,-26.7334,180.908,0.0985718,-0.382507,0.523285,-0.755005,59614,2025,63488,6371,-30510
1896,168155,4.7373,-3.07207,10.1924,-77.3712,-27.5482,-140.889,521.301,-56.0913,187.927,0.113495,-0.378326,0.509796,-0.764191,59680,2021,63477,6371,-30510
1902,168161,3.11035,-3.0625,14.767,-73.2733,-26.1475,-139.202,521.057,-131.531,193.542,0.129395,-0.374939,0.49585,-0.772461,59728,1985,63360,6371,-30510
1908,168167,1.9332,-3.64629,17.4132,-71.4276,-25.5872,-138.071,504.089,-165.161,190.979,0.162506,-0.371552,0.467224,-0.785583,59796,1942,63129,6371,-30510
1914,168173,0.947461,-3.63193,20.2029,-69.7632,-25.1202,-136.84,472.961,-187.134,187.378,0.178772,-0.371185,0.453461,-0.790283,59870,1892,63016,6371,-30510
1920,168179,0.0382813,-3.98125,22.7965,-68.3075,-24.7192,-135.588,428.528,-194.702,182.922,0.194183,-0.371246,0.440765,-0.793793,59936,1854,62901,6371,-30510
1926,168185,-0.976172,-4.33057,24.9259,-67.0825,-24.3677,-134.396,370.361,-187.195,177.429,0.208191,-0.371429,0.429718,-0.796204,59996,1826,62785,6371,-30510
1932,168191,-2.59355,-5.00527,27.3615,-66.1047,-24.0161,-133.314,299.988,-165.283,172.18,0.220581,-0.37149,0.420685,-0.797638,60049,1765,62675,6371,-30510
1938,168197,-2.73711,-5.1584,27.5051,-64.9622,-23.2416,-131.265,130.371,-109.131,148.071,0.24234,-0.371765,0.409027,-0.797272,60145,1678,62478,6371,-30510
1944,168203,-3.56494,-4.71816,27.3185,-64.9292,-22.8351,-130.397,41.9312,-89.8438,132.568,0.250427,-0.372314,0.407532,-0.795288,60186,1643,62394,6380,-30511
1950,168209,-3.40703,-4.1583,26.7921,-65.2753,-22.4561,-129.661,-46.7529,-71.8994,111.938,0.256165,-0.373383,0.409027,-0.792175,60222,1612,62322,6380,-30511
1956,168215,-3.40225,-3.43096,25.9786,-65.9509,-22.1484,-129.062,-124.023,-57.8613,86.9141,0.259613,-0.375153,0.412933,-0.788177,60251,1581,62261,6380,-30511
1962,168221,-3.38311,-2.69883,24.7201,-66.8793,-21.9067,-128.589,-184.753,-44.4946,61.2793,0.260956,-0.377533,0.418701,-0.783569,60278,1546,62210,6380,-30511
1968,168227,-3.26348,-2.0002,21.8395,-69.1919,-21.6376,-128.007,-261.841,-18.6157,14.2212,0.260498,-0.38031,0.425659,-0.778595,60322,1514,62139,6380,-30511
1974,168233,-3.18691,-1.90928,20.5235,-70.4828,-21.5826,-127.837,-283.081,-11.1084,-0.12207,0.255615,-0.386536,0.441895,-0.768036,60341,1509,62118,6380,-30511
1980,168239,-2.8998,-1.73223,19.155,-71.8451,-21.5662,-127.705,-299.255,-8.78906,-10.9863,0.251984,-0.389954,0.450562,-0.762421,60360,1537,62108,6380,-30511
1986,168245,-2.58398,-1.6126,17.9443,-73.2678,-21.5881,-127.579,-314.026,-10.1318,-21.3013,0.247803,-0.393707,0.459503,-0.756531,60377,1554,62111,6380,-30511
1992,168251,-2.34951,-1.76094,16.815,-74.7675,-21.6705,-127.458,-328.857,-12.6343,-33.1421,0.243011,-0.397858,0.468597,-0.750305,60395,1562,62125,6380,-30511
1998,168257,-1.89014,-1.94277,14.7048,-77.981,-22.0001,-127.255,-362.366,-12.207,-58.8379,0.237549,-0.402374,0.477905,-0.743744,60332,1634,62183,6380,-30511
2004,168263,-1.51211,-1.98584,13.609,-79.7058,-22.2473,-127.194,-380.371,-7.56836,-72.0825,0.224182,-0.412262,0.497314,-0.729645,60307,1654,62225,6380,-30511
2010,168269,-1.0001,-2.01934,12.4079,-81.5021,-22.5549,-127.183,-400.024,1.77002,-86.6089,0.216003,-0.417419,0.507446,-0.722137,60288,1708,62276,6380,-30511
2016,168275,-0.416309,-2.0624,11.1925,-83.3643,-22.934,-127.249,-420.044,16.5405,-102.295,0.206635,-0.422516,0.517944,-0.714417,60274,1748,62343,6380,-30511
2022,168281,0.186621,-2.14854,9.93398,-85.2869,-23.3844,-127.408,-439.087,34.2407,-118.469,0.195984,-0.42749,0.528687,-0.706543,60268,1778,62420,6380,-30511
2028,168287,1.73701,-2.15332,7.00547,-89.2749,-24.4995,-127.903,-469.971,61.4014,-146.79,0.184174,-0.432343,0.539581,-0.698486,60269,1840,62509,6380,-30511
2034,168293,2.77061,-2.08154,5.38809,-91.3513,-25.1697,-128.188,-484.253,69.2139,-159.79,0.157684,-0.441956,0.561523,-0.681458,60184,1936,62688,6380,-30511
2040,168299,3.6415,-2.04326,3.63672,-93.4937,-25.9113,-128.458,-498.352,72.7539,-173.157,0.143188,-0.44693,0.572388,-0.672333,60156,1972,62790,6380,-30511
2046,168305,4.50762,-1.33506,2.10068,-95.7184,-26.7078,-128.677,-511.353,69.7632,-180.847,0.128265,-0.452087,0.58316,-0.662537,60136,2003,62895,6380,-30511
2052,168311,5.62256,-1.59346,-0.114844,-98.0695,-27.5262,-128.804,-530.212,61.3403,-184.753,0.113068,-0.45752,0.594055,-0.651825,60126,2032,63007,6380,-30511
2058,168317,6.8667,-1.46904,-3.84248,-103.189,-29.2072,-128.578,-556.58,20.874,-194.946,0.0978088,-0.46347,0.604797,-0.640106,60076,2060,63129,6380,-30511
2064,168323,7.2543,-1.10059,-5.90967,-105.93,-29.9982,-128.177,-560.608,-4.57764,-192.322,0.0683289,-0.477112,0.625427,-0.613556,59963,2109,63372,6380,-30511
2070,168329,7.75195,-0.775195,-7.84766,-108.765,-30.7343,-127.628,-565.002,-23.1934,-187.439,0.0544128,-0.484344,0.635284,-0.598938,59904,2133,63506,6380,-30511
2076,168335,8.13477,-0.641211,-10.135,-111.643,-31.4044,-126.985,-563.049,-33.2642,-179.932,0.0409851,-0.491486,0.644806,-0.583862,59861,2157,63650,6380,-30511
2082,168341,8.14434,-0.272754,-12.3648,-114.489,-32.0087,-126.31,-553.833,-32.2876,-169.067,0.0279236,-0.498108,0.65387,-0.568726,59780,2183,63799,6380,-30511
2088,168347,8.32139,1.0001,-17.0878,-119.773,-33.0963,-125.134,-509.46,-0.854492,-138.916,0.00283813,-0.50882,0.670105,-0.540314,59663,2161,64110,6380,-30511
2094,168353,8.57979,1.89014,-19.6191,-122.058,-33.6346,-124.717,-469.482,26.7334,-122.803,-0.00918579,-0.512634,0.676849,-0.528107,59623,2162,64270,6380,-30511
2100,168359,8.89561,2.53613,-21.983,-124.327,-34.3323,-124.86,-418.152,54.3823,-107.605,-0.0249023,-0.513153,0.68515,-0.516235,59544,2129,64433,6380,-30511
2106,168365,9.36934,3.04336,-24.2847,-126.063,-35.0464,-125.024,-346.924,77.8198,-91.3696,-0.0384827,-0.513367,0.690918,-0.507446,59480,2107,64596,6380,-30511
2112,168371,10.2402,3.3209,-27.3232,-127.43,-35.7056,-125.222,-276.306,87.2803,-77.6978,-0.0502014,-0.513092,0.695282,-0.500671,59429,2094,64752,6380,-30511
2118,168377,10.6661,3.66543,-27.8687,-129.155,-36.7822,-125.579,-136.719,75.6226,-52.2461,-0.0671387,-0.512299,0.700226,-0.492554,59260,2006,65031,6380,-30511
2124,168383,10.8336,3.49795,-27.9022,-129.551,-37.1667,-125.689,-70.3125,60.791,-40.7104,-0.0722046,-0.512146,0.700958,-0.490936,59193,1975,65153,6380,-30511
2130,168389,10.9245,3.53145,-27.4142,-129.694,-37.4524,-125.76,-12.3291,45.166,-30.3345,-0.0751648,-0.512207,0.700775,-0.490723,59137,1954,65263,6380,-30511
2136,168395,11.0106,3.53623,-26.7538,-129.628,-37.6556,-125.782,34.79,30.8228,-22.4609,-0.0764465,-0.512512,0.699799,-0.491577,59089,1896,65360,6380,-30511
2142,168401,10.8336,2.78496,-25.0407,-129.397,-37.804,-125.766,72.876,20.2026,-17.1509,-0.0763855,-0.513062,0.698151,-0.493347,59049,1885,65447,6380,-30511
2148,168407,10.7522,2.47871,-23.9736,-128.397,-38.0292,-125.733,146.851,18.7378,-10.9863,-0.0733948,-0.514343,0.69281,-0.499969,58985,1864,50,6380,-30511
2154,168413,10.7762,2.25381,-23.1027,-127.617,-38.1226,-125.766,178.406,21.9116,-5.37109,-0.0707092,-0.514832,0.689148,-0.504852,58960,1853,107,6380,-30511
2160,168419,10.6948,1.81836,-22.1648,-126.672,-38.1885,-125.837,206.421,22.9492,2.74658,-0.0672607,-0.515137,0.685059,-0.51059,58937,1846,155,6380,-30511
2166,168425,10.4316,1.31113,-21.0164,-125.579,-38.205,-125.947,232.605,23.1323,13.6108,-0.0629578,-0.515137,0.680573,-0.51709,58915,1800,191,6380,-30511
2172,168431,9.37891,0.545508,-18.131,-124.332,-38.172,-126.107,257.629,24.1699,26.9775,-0.0578308,-0.51474,0.675751,-0.524323,58893,1757,218,6380,-30511
2178,168437,8.73291,0.320605,-16.5423,-121.36,-37.9248,-126.617,306.274,30.7007,55.9692,-0.0518494,-0.513916,0.670654,-0.532288,58853,1725,238,6371,-30510
2184,168443,8.04863,0.311035,-14.9919,-119.647,-37.7325,-126.98,328.125,38.5742,69.2139,-0.0378723,-0.510559,0.659454,-0.550385,58834,1728,238,6371,-30510
2190,168449,7.35479,0.339746,-13.5324,-117.784,-37.4963,-127.419,349.548,46.5698,81.7261,-0.0300598,-0.507965,0.65332,-0.560486,58815,1730,225,6371,-30510
2196,168455,6.79492,0.368457,-12.0107,-115.79,-37.2162,-127.892,372.131,50.7813,91.1255,-0.021637,-0.504913,0.646729,-0.571167,58792,1729,199,6371,-30510
2202,168461,6.35469,0.478516,-10.3407,-113.681,-36.9031,-128.364,398.071,50.2319,96.0693,-0.0125427,-0.501648,0.639435,-0.582397,58766,1729,161,6371,-30510
2208,168467,5.98145,0.823047,-6.26855,-109.122,-36.2054,-129.122,462.219,35.0342,92.8345,-0.00268555,-0.498383,0.631226,-0.594147,58788,1725,110,6371,-30510
2214,168473,5.92402,0.521582,-3.36875,-106.655,-35.8539,-129.326,505.066,18.4326,85.6323,0.019989,-0.492676,0.611023,-0.619202,58810,1709,65519,6371,-30510
2220,168479,5.98145,0.0478516,-0.468945,-104.063,-35.5188,-129.397,546.692,0.854492,76.7212,0.032959,-0.490479,0.598541,-0.632416,58815,1700,65449,6371,-30510
2226,168485,6.12021,-0.492871,2.29209,-101.354,-35.2112,-129.331,587.952,-16.7236,66.1621,0.046936,-0.488708,0.584412,-0.645996,58815,1691,65370,6371,-30510
2232,168491,6.32119,-0.923535,5.53643,-98.5199,-34.942,-129.122,630.371,-36.9263,56.3354,0.0619202,-0.487335,0.568481,-0.659821,58861,1686,65280,6371,-30510
2238,168497,6.6083,-1.90449,11.4365,-95.6195,-34.7113,-128.754,688.171,-89.4775,41.4429,0.0778503,-0.48642,0.550995,-0.673523,58899,1687,65179,6371,-30510
2244,168503,6.95283,-1.5791,14.8866,-89.7638,-34.4257,-127.469,714.783,-122.314,28.5034,0.112213,-0.486298,0.511627,-0.69931,58958,1663,64946,6371,-30510
2250,168509,6.67529,-2.58877,17.7721,-86.8524,-34.4092,-126.584,725.769,-148.132,20.4468,0.130096,-0.487,0.490051,-0.71109,58982,1642,64829,6371,-30510
2256,168515,6.48867,-3.96211,21.1456,-84.0179,-34.4861,-125.645,718.506,-162.048,11.8408,0.147583,-0.487854,0.467987,-0.721863,59005,1636,64707,6371,-30510
2262,168521,5.85703,-4.70859,24.6579,-81.2769,-34.6179,-124.75,693.787,-160.278,10.2539,0.164154,-0.488312,0.446228,-0.731689,59029,1600,64585,6371,-30510
2268,168527,5.16318,-5.18232,27.0505,-78.728,-34.7498,-124.036,636.536,-138,14.7095,0.178894,-0.487885,0.426178,-0.740417,59054,1539,64463,6371,-30510
2274,168533,3.38311,-7.56055,30.1321,-74.6411,-34.8157,-122.86,406.189,-76.4771,30.1514,0.190796,-0.486542,0.409515,-0.747711,59008,1430,64225,6371,-30510
2280,168539,2.73232,-8.55586,30.8021,-73.4821,-34.7168,-122.3,251.221,-58.5327,41.8701,0.212677,-0.484863,0.384705,-0.756012,58990,1382,64107,6371,-30510
2286,168545,2.19639,-8.98174,30.8786,-73.1525,-34.5245,-121.761,84.2896,-53.4058,55.542,0.218628,-0.485077,0.381134,-0.755981,58975,1300,63998,6371,-30510
2292,168551,2.14375,-8.61328,30.1896,-73.6633,-34.2828,-121.196,-80.6274,-58.7769,64.1479,0.221497,-0.486725,0.38324,-0.753021,58962,1232,63894,6371,-30510
