TimeSinceCollection,Timestamp,AccX,AccY,AccZ,AngleRoll,AnglePitch,AngleYaw,AngularVelX,AngularVelY,             AngularVelZ,Q1,Q2,Q3,Q4,MagX,MagY,MagZ,Height,Airpressure
0,18129,-0.090918,-1.44512,10.0153,-9.97559,0.692139,95.0317,-1.46484,0.183105,0.366211,0.672394,-0.0631714,-0.0600586,0.734985,7438,657,57018,6053,-30472
6,18135,-0.0957031,-1.46426,10.0297,-9.98108,0.692139,95.0317,-1.70898,-0.0610352,0.366211,0.672394,-0.0631714,-0.0600586,0.734985,7439,660,57019,6053,-30472
12,18141,-0.0861328,-1.45469,9.99141,-9.98108,0.692139,95.0317,-1.40381,-0.0610352,0.488281,0.672394,-0.0632019,-0.0600891,0.734985,7438,661,57023,6053,-30472
18,18147,-0.0861328,-1.47861,9.99141,-9.98657,0.692139,95.0317,-0.732422,0.0610352,0.488281,0.672363,-0.0632019,-0.0600891,0.734985,7437,662,57023,6053,-30472
24,18153,-0.100488,-1.45469,9.97705,-9.98108,0.692139,95.0317,-0.366211,-0.0610352,0.488281,0.672363,-0.0632019,-0.0600891,0.734985,7434,661,57022,6053,-30472
30,18159,-0.0765625,-1.44033,9.99141,-9.97559,0.686646,95.0317,-1.15967,-0.0610352,0.488281,0.672363,-0.0631714,-0.0600586,0.734985,7436,659,57024,6053,-30472
36,18165,-0.090918,-1.44512,9.98662,-9.98108,0.686646,95.0317,-1.15967,0,0.732422,0.672363,-0.0631714,-0.0600891,0.734985,7437,657,57025,6053,-30472
42,18171,-0.0861328,-1.45947,10.001,-9.98108,0.686646,95.0372,-0.976563,-0.0610352,0.610352,0.672363,-0.0631714,-0.0600891,0.735016,7437,656,57027,6053,-30472
48,18177,-0.0813477,-1.46904,9.99141,-9.98108,0.686646,95.0372,-0.854492,0.12207,0.549316,0.672333,-0.0631714,-0.0600891,0.735016,7437,656,57028,6053,-30472
54,18183,-0.110059,-1.4499,9.9627,-9.97559,0.686646,95.0372,-0.793457,0,0.488281,0.672333,-0.0631714,-0.0600586,0.735016,7433,657,57025,6053,-30472
60,18189,-0.105273,-1.44512,9.99141,-9.97559,0.692139,95.0372,-0.793457,0,0.305176,0.672333,-0.0631409,-0.0600586,0.735046,7432,657,57025,6053,-30472
66,18195,-0.0813477,-1.4499,10.0058,-9.97559,0.686646,95.0372,-0.976563,0.244141,0.427246,0.672333,-0.0631409,-0.0600586,0.735016,7432,658,57026,6053,-30472
72,18201,-0.0765625,-1.44512,9.99141,-9.97559,0.692139,95.0372,-1.2207,0,0.549316,0.672333,-0.0631409,-0.0600281,0.735046,7432,658,57027,6053,-30472
78,18207,-0.0765625,-1.44512,10.0105,-9.97559,0.692139,95.0372,-1.34277,0.12207,0.488281,0.672333,-0.0631409,-0.0600586,0.735046,7431,659,57026,6053,-30472
84,18213,-0.100488,-1.4499,10.0153,-9.97559,0.692139,95.0427,-1.34277,-0.0610352,0.610352,0.672333,-0.0631714,-0.0600586,0.735046,7431,659,57020,6053,-30472
90,18219,-0.100488,-1.44033,9.99619,-9.98108,0.692139,95.0427,-1.34277,0.12207,0.549316,0.672302,-0.0631714,-0.0600586,0.735046,7431,658,57015,6053,-30472
96,18225,-0.105273,-1.4499,9.98662,-9.98108,0.692139,95.0427,-1.09863,0.0610352,0.488281,0.672302,-0.0632019,-0.0600891,0.735046,7430,656,57014,6053,-30472
102,18231,-0.110059,-1.45469,9.99141,-9.98108,0.692139,95.0427,-0.976563,0,0.610352,0.672302,-0.0632019,-0.0600891,0.735046,7430,654,57012,6053,-30472
108,18237,-0.100488,-1.44033,9.99141,-9.98108,0.692139,95.0427,-1.0376,0,0.488281,0.672272,-0.0632019,-0.0600891,0.735077,7431,653,57012,6053,-30472
114,18243,-0.0813477,-1.45469,9.98662,-9.98108,0.692139,95.0482,-0.915527,0.0610352,0.671387,0.672272,-0.0632019,-0.0600891,0.735077,7434,654,57012,6053,-30472
120,18249,-0.105273,-1.46426,9.98662,-9.98108,0.692139,95.0482,-0.610352,0.0610352,0.366211,0.672272,-0.0631714,-0.0600586,0.735077,7435,656,57014,6053,-30472
126,18255,-0.105273,-1.4499,9.99141,-9.97559,0.692139,95.0482,-0.549316,0,0.366211,0.672272,-0.0631714,-0.0600586,0.735077,7437,657,57013,6053,-30472
132,18261,-0.110059,-1.44512,10.0058,-9.97559,0.692139,95.0482,-0.732422,0,0.549316,0.672272,-0.0631409,-0.0600281,0.735077,7438,658,57015,6053,-30472
138,18267,-0.090918,-1.42598,10.0297,-9.97009,0.692139,95.0482,-1.2207,0,0.427246,0.672272,-0.0631409,-0.0600281,0.735077,7439,658,57016,6053,-30472
144,18273,-0.0957031,-1.44033,9.99619,-9.97559,0.692139,95.0482,-1.58691,0,0.549316,0.672272,-0.0631409,-0.0600281,0.735077,7441,659,57015,6053,-30472
150,18279,-0.0813477,-1.46426,9.95791,-9.97559,0.692139,95.0482,-0.915527,0.366211,0.549316,0.672241,-0.0631714,-0.0600586,0.735107,7441,659,57015,6053,-30472
156,18285,-0.0957031,-1.44033,9.97705,-9.97559,0.692139,95.0482,-0.427246,0.0610352,0.549316,0.672241,-0.0631714,-0.0600586,0.735107,7443,658,57013,6053,-30472
162,18291,-0.090918,-1.44033,10.0201,-9.97559,0.692139,95.0537,-0.976563,0,0.488281,0.672241,-0.0631714,-0.0600281,0.735107,7445,657,57012,6053,-30472
168,18297,-0.105273,-1.44033,10.0632,-9.97559,0.692139,95.0537,-1.46484,0,0.427246,0.672241,-0.0631714,-0.0600281,0.735107,7444,657,57015,6053,-30472
174,18303,-0.0813477,-1.45469,10.0058,-9.98108,0.692139,95.0537,-1.89209,0,0.488281,0.672241,-0.0631714,-0.0600281,0.735107,7440,657,57019,6053,-30472
180,18309,-0.100488,-1.46904,9.98662,-9.98108,0.692139,95.0537,-0.854492,-0.0610352,0.549316,0.672241,-0.0632019,-0.0600891,0.735107,7438,658,57020,6053,-30472
186,18315,-0.110059,-1.42598,9.92441,-9.98108,0.692139,95.0537,-0.854492,-0.0610352,0.427246,0.672211,-0.0632019,-0.0600891,0.735138,7435,658,57019,6053,-30472
192,18321,-0.0861328,-1.45469,10.0345,-9.98108,0.692139,95.0537,-0.549316,0,0.488281,0.672211,-0.0632019,-0.0600891,0.735138,7433,659,57020,6053,-30472
198,18327,-0.100488,-1.43076,10.001,-9.97559,0.692139,95.0537,-1.0376,0.0610352,0.488281,0.672211,-0.0631714,-0.0600586,0.735138,7432,660,57019,6053,-30472
204,18333,-0.100488,-1.43555,10.0153,-9.98108,0.692139,95.0537,-1.64795,0.0610352,0.427246,0.672211,-0.0631714,-0.0600586,0.735138,7432,661,57014,6053,-30472
210,18339,-0.0861328,-1.46426,9.96748,-9.98108,0.697632,95.0592,-1.2207,-0.0610352,0.488281,0.672211,-0.0632324,-0.0600891,0.735138,7434,660,57011,6053,-30472
216,18345,-0.110059,-1.46904,9.99619,-9.98657,0.692139,95.0592,-0.549316,0.12207,0.610352,0.672211,-0.0632324,-0.0600891,0.735138,7436,659,57010,6053,-30472
222,18351,-0.0813477,-1.44033,9.99141,-9.98108,0.697632,95.0592,-0.488281,0,0.610352,0.67218,-0.0632019,-0.0600891,0.735138,7436,658,57011,6053,-30472
228,18357,-0.119629,-1.42598,10.0153,-9.98108,0.697632,95.0592,-1.2207,-0.0610352,0.610352,0.67218,-0.0632019,-0.0600586,0.735168,7436,659,57012,6053,-30472
234,18363,-0.090918,-1.46426,10.0249,-9.98657,0.697632,95.0647,-1.83105,0.0610352,0.488281,0.67218,-0.0632019,-0.0600586,0.735168,7436,660,57019,6053,-30472
240,18369,-0.0957031,-1.45469,9.95791,-9.98657,0.697632,95.0647,-1.77002,0.12207,0.610352,0.67215,-0.0632629,-0.0601196,0.735168,7439,661,57020,6053,-30472
246,18375,-0.100488,-1.44512,9.9627,-9.99207,0.697632,95.0647,-1.34277,0.0610352,0.549316,0.67215,-0.0632935,-0.0601501,0.735168,7441,663,57022,6053,-30472
252,18381,-0.090918,-1.44512,9.99619,-9.99207,0.697632,95.0647,-0.854492,0,0.732422,0.67215,-0.0632935,-0.0601501,0.735168,7442,664,57026,6053,-30472
258,18387,-0.110059,-1.47861,9.99619,-9.99207,0.697632,95.0647,-0.915527,0.12207,0.549316,0.672119,-0.0632935,-0.0601501,0.735199,7442,666,57028,6053,-30472
264,18393,-0.0957031,-1.43076,10.001,-9.99207,0.697632,95.0647,-1.34277,0.0610352,0.427246,0.672119,-0.0632935,-0.0601196,0.735199,7445,668,57035,6053,-30472
270,18399,-0.0861328,-1.45469,9.98184,-9.99756,0.697632,95.0702,-1.40381,-0.0610352,0.427246,0.672119,-0.0632935,-0.0601501,0.735199,7445,668,57036,6053,-30472
276,18405,-0.100488,-1.47861,10.0153,-9.99756,0.697632,95.0702,-0.793457,0.0610352,0.366211,0.672119,-0.063324,-0.0601501,0.735199,7445,668,57034,6053,-30472
282,18411,-0.0957031,-1.46426,10.0058,-9.99756,0.697632,95.0647,-0.305176,0,0.549316,0.672119,-0.063324,-0.0601501,0.735199,7444,668,57031,6053,-30472
288,18417,-0.090918,-1.45947,10.0201,-9.99207,0.697632,95.0702,-0.305176,0.12207,0.427246,0.672119,-0.0632935,-0.0601196,0.735199,7441,667,57029,6053,-30472
294,18423,-0.0717773,-1.4499,10.0105,-9.98657,0.697632,95.0702,-0.488281,0.0610352,0.488281,0.672119,-0.0632629,-0.0600891,0.735199,7437,665,57028,6053,-30472
300,18429,-0.0957031,-1.45947,9.96748,-9.98108,0.697632,95.0702,-0.610352,-0.0610352,0.488281,0.672119,-0.0632324,-0.0600586,0.735199,7435,666,57029,6053,-30472
306,18435,-0.0861328,-1.44512,10.0201,-9.98108,0.697632,95.0702,-0.854492,-0.12207,0.366211,0.672119,-0.0632324,-0.0600586,0.735199,7433,666,57030,6053,-30472
312,18441,-0.100488,-1.4499,10.0345,-9.98108,0.697632,95.0702,-1.28174,-0.0610352,0.427246,0.672119,-0.0632019,-0.0600586,0.735199,7432,667,57028,6053,-30472
318,18447,-0.0574219,-1.27285,9.93877,-9.98108,0.697632,95.0702,-1.34277,-0.305176,0.488281,0.672119,-0.0632019,-0.0600586,0.735199,7430,669,57027,6053,-30472
324,18453,-0.325391,-1.51689,9.80479,-9.98657,0.697632,95.0702,-1.89209,0.183105,0.854492,0.672119,-0.0632019,-0.0600891,0.735199,7429,668,57024,6053,-30472
330,18459,-0.0669922,-1.52646,9.86699,-9.98657,0.697632,95.0757,0.183105,0.0610352,1.40381,0.672089,-0.0632629,-0.0601196,0.735229,7431,668,57024,6053,-30472
336,18465,-0.0239258,-1.30156,9.83828,-9.98108,0.697632,95.0812,-1.83105,-0.549316,-0.0610352,0.672058,-0.0632324,-0.0600586,0.73526,7433,666,57028,6053,-30472
342,18471,-0.100488,-1.64131,10.1254,-9.98657,0.697632,95.0757,0.305176,0.427246,0.976563,0.672058,-0.0632324,-0.0601196,0.73526,7435,665,57034,6053,-30472
348,18477,-0.129199,-1.36377,9.95791,-9.98108,0.697632,95.0812,-1.28174,0.244141,0.549316,0.672058,-0.0632019,-0.0600586,0.73526,7436,665,57039,6053,-30472
354,18483,-0.129199,-1.20586,9.90527,-9.98657,0.697632,95.0812,-2.92969,-0.427246,0.244141,0.672058,-0.0632019,-0.0600586,0.735291,7436,665,57046,6053,-30472
360,18489,-0.0717773,-1.50732,9.99141,-9.99756,0.692139,95.0812,0.427246,0.610352,0.976563,0.672058,-0.0632935,-0.0601807,0.73526,7435,666,57046,6053,-30472
366,18495,-0.15791,-1.41641,9.88613,-9.99207,0.697632,95.0812,-1.15967,-0.305176,0.427246,0.672028,-0.0632629,-0.0601196,0.735291,7435,667,57046,6053,-30472
372,18501,-0.0334961,-1.37813,9.95313,-9.99207,0.697632,95.0812,-0.488281,0.0610352,0.366211,0.672028,-0.0632629,-0.0601501,0.735291,7436,668,57045,6053,-30472
378,18507,-0.0669922,-1.48818,10.068,-9.98657,0.697632,95.0812,-0.244141,0.427246,0.793457,0.672058,-0.0632324,-0.0601196,0.735291,7436,669,57042,6053,-30472
384,18513,-0.0861328,-1.41641,10.0393,-9.98657,0.697632,95.0812,-1.2207,0.427246,0.183105,0.672028,-0.0632324,-0.0600891,0.735291,7435,670,57036,6053,-30472
390,18519,-0.0430664,-1.45947,10.0201,-9.99207,0.697632,95.0812,-1.28174,0,0.488281,0.672058,-0.0632935,-0.0601196,0.73526,7435,671,57033,6053,-30472
396,18525,-0.143555,-1.48818,9.92441,-9.99207,0.697632,95.0812,-0.793457,0.244141,0.671387,0.672058,-0.0632935,-0.0601196,0.73526,7435,671,57033,6053,-30472
402,18531,-0.0717773,-1.46426,9.97227,-9.99207,0.703125,95.0812,-0.488281,-0.0610352,0.305176,0.672028,-0.0632935,-0.0601196,0.735291,7434,671,57034,6053,-30472
408,18537,-0.0957031,-1.42119,10.0728,-9.98657,0.703125,95.0812,-0.671387,0.305176,0.610352,0.672058,-0.0632629,-0.0600891,0.73526,7434,671,57034,6053,-30472
414,18543,-0.153125,-1.44033,10.001,-9.98657,0.703125,95.0812,-1.58691,0,0.366211,0.672058,-0.0632629,-0.0600891,0.735291,7431,669,57029,6053,-30472
420,18549,-0.129199,-1.5791,10.0058,-9.99756,0.703125,95.0812,-1.70898,-0.12207,0.366211,0.672058,-0.063324,-0.0601501,0.73526,7430,668,57024,6053,-30472
426,18555,0,-1.51689,10.068,-9.99756,0.703125,95.0812,-0.732422,0,0.427246,0.672058,-0.0633545,-0.0601807,0.73526,7429,666,57020,6053,-30472
432,18561,-0.133984,-1.45469,10.0058,-9.99756,0.703125,95.0812,-1.34277,0.244141,0.488281,0.672058,-0.063324,-0.0601501,0.73526,7429,663,57020,6053,-30472
438,18567,-0.0239258,-1.50732,10.0201,-9.99756,0.703125,95.0812,-2.38037,-0.366211,0.244141,0.672028,-0.0633545,-0.0601501,0.73526,7430,661,57023,6053,-30472
444,18573,-0.0765625,-1.60303,10.1397,-10.0085,0.697632,95.0812,-1.34277,0.0610352,0.488281,0.672028,-0.063385,-0.0602112,0.73526,7432,656,57033,6053,-30472
450,18579,-0.100488,-1.51211,9.99141,-10.0031,0.703125,95.0812,-1.46484,0.366211,0.366211,0.672028,-0.063385,-0.0602112,0.73526,7434,655,57035,6053,-30472
456,18585,-0.0957031,-1.45469,9.8957,-10.0085,0.703125,95.0812,-1.46484,0.244141,0.488281,0.672028,-0.063385,-0.0602112,0.73526,7434,655,57033,6053,-30472
462,18591,-0.0765625,-1.45469,10.0584,-10.0085,0.703125,95.0812,-0.12207,0.12207,0.366211,0.672028,-0.0634155,-0.0602112,0.73526,7435,654,57031,6053,-30472
468,18597,-0.119629,-1.41162,9.95791,-10.0031,0.703125,95.0812,-0.366211,0.427246,0.610352,0.672028,-0.063385,-0.0601807,0.73526,7435,655,57030,6053,-30472
474,18603,-0.110059,-1.50732,10.135,-9.99756,0.708618,95.0812,-0.427246,0.12207,0.549316,0.672028,-0.063385,-0.0601501,0.735291,7432,656,57031,6053,-30472
480,18609,-0.16748,-1.41162,9.94834,-9.99756,0.708618,95.0812,-1.83105,-0.244141,0.427246,0.672028,-0.063385,-0.0601501,0.735291,7432,658,57033,6053,-30472
486,18615,-0.0526367,-1.39248,9.91963,-10.0031,0.708618,95.0867,-1.83105,-0.12207,0.549316,0.672028,-0.0634155,-0.0601807,0.735291,7434,659,57031,6053,-30472
492,18621,-0.129199,-1.42598,10.001,-10.0085,0.703125,95.0867,-0.671387,0.244141,0.366211,0.671997,-0.0634155,-0.0602112,0.735291,7434,659,57028,6053,-30472
498,18627,-0.0334961,-1.41162,9.97705,-10.0085,0.708618,95.0867,-1.46484,-0.0610352,0.427246,0.671997,-0.0634155,-0.0601807,0.735291,7434,658,57027,6053,-30472
504,18633,-0.119629,-1.40684,9.9627,-10.014,0.703125,95.0867,-2.0752,-0.183105,0.366211,0.671997,-0.0634155,-0.0602112,0.735291,7434,658,57024,6053,-30472
510,18639,-0.0669922,-1.43076,9.97705,-10.014,0.703125,95.0867,-1.0376,0.183105,0.427246,0.671997,-0.063446,-0.0602722,0.735291,7434,657,57028,6053,-30472
516,18645,-0.0861328,-1.44512,9.94355,-10.014,0.703125,95.0867,-1.34277,-0.0610352,0.366211,0.671997,-0.0634766,-0.0602722,0.735291,7435,656,57030,6053,-30472
522,18651,-0.0526367,-1.44033,9.9627,-10.0195,0.703125,95.0867,-1.0376,0.12207,0.183105,0.671997,-0.0634766,-0.0602722,0.735291,7436,655,57032,6053,-30472
528,18657,-0.124414,-1.45469,10.0201,-10.0195,0.703125,95.0867,-1.09863,0.0610352,0.244141,0.671997,-0.0634766,-0.0602722,0.735291,7437,653,57035,6053,-30472
534,18663,-0.0717773,-1.45469,10.0058,-10.0195,0.703125,95.0867,-1.2207,0,0.427246,0.671997,-0.0634766,-0.0602722,0.735291,7439,648,57036,6053,-30472
540,18669,-0.100488,-1.47861,9.97227,-10.0195,0.703125,95.0867,-1.15967,0.0610352,0.366211,0.671997,-0.0634766,-0.0602722,0.735291,7439,647,57037,6053,-30472
546,18675,-0.124414,-1.46904,9.9627,-10.0195,0.703125,95.0867,-1.28174,0.0610352,0.366211,0.671997,-0.0634766,-0.0602722,0.735291,7439,646,57035,6053,-30472
552,18681,-0.114844,-1.45947,9.97227,-10.0195,0.703125,95.0867,-0.305176,0.0610352,0.366211,0.671997,-0.0634766,-0.0603027,0.735291,7439,646,57035,6053,-30472
558,18687,-0.100488,-1.45469,10.0201,-10.0195,0.703125,95.0867,-0.427246,0.12207,0.366211,0.671997,-0.0634766,-0.0602722,0.735291,7440,646,57035,6053,-30472
564,18693,-0.0574219,-1.42598,10.0345,-10.014,0.703125,95.0867,-1.28174,0.0610352,0.305176,0.671997,-0.063446,-0.0602417,0.735291,7440,648,57033,6053,-30472
570,18699,-0.105273,-1.48818,9.97227,-10.0195,0.703125,95.0867,-1.52588,-0.0610352,0.366211,0.671997,-0.0634766,-0.0602722,0.735291,7439,648,57032,6053,-30472
576,18705,-0.0861328,-1.46904,9.98184,-10.0195,0.703125,95.0867,-0.793457,0.183105,0.366211,0.671997,-0.0634766,-0.0603027,0.735291,7436,649,57031,6053,-30472
582,18711,-0.114844,-1.45947,9.99619,-10.0195,0.703125,95.0867,-0.793457,0.0610352,0.427246,0.671997,-0.0634766,-0.0602722,0.735291,7435,649,57029,6053,-30472
588,18717,-0.105273,-1.44512,9.96748,-10.0195,0.703125,95.0867,-1.09863,0.183105,0.427246,0.671997,-0.0634766,-0.0602722,0.735291,7436,650,57029,6053,-30472
594,18723,-0.110059,-1.43555,9.96748,-10.0195,0.708618,95.0867,-1.40381,0.244141,0.427246,0.671997,-0.0634766,-0.0602722,0.735291,7438,650,57032,6053,-30472
600,18729,-0.0957031,-1.46426,9.99141,-10.025,0.708618,95.0867,-1.34277,-0.0610352,0.366211,0.671967,-0.0635071,-0.0603027,0.735321,7438,650,57033,6053,-30472
606,18735,-0.105273,-1.46426,9.9627,-10.025,0.708618,95.0867,-1.52588,0,0.427246,0.671967,-0.0635376,-0.0603027,0.735321,7438,649,57033,6053,-30472
612,18741,-0.0861328,-1.46426,10.001,-10.025,0.708618,95.0867,-1.34277,-0.12207,0.427246,0.671967,-0.0635376,-0.0603027,0.735321,7438,647,57035,6053,-30472
618,18747,-0.0526367,-1.45947,10.0345,-10.0305,0.708618,95.0922,-0.915527,0.12207,0.427246,0.671967,-0.0635376,-0.0603333,0.735321,7438,645,57035,6053,-30472
624,18753,-0.090918,-1.46426,10.001,-10.025,0.708618,95.0922,-0.793457,0.0610352,0.366211,0.671967,-0.0635376,-0.0603333,0.735321,7438,645,57032,6053,-30472
630,18759,-0.0717773,-1.4834,9.99619,-10.025,0.708618,95.0922,-0.915527,0.0610352,0.488281,0.671967,-0.0635376,-0.0603027,0.735321,7438,646,57032,6053,-30472
636,18765,-0.114844,-1.46904,9.98662,-10.025,0.708618,95.0922,-1.09863,-0.0610352,0.366211,0.671936,-0.0635376,-0.0603027,0.735321,7438,647,57031,6053,-30472
642,18771,-0.090918,-1.44512,9.98662,-10.025,0.703125,95.0922,-0.915527,0.0610352,0.366211,0.671936,-0.0635376,-0.0603333,0.735321,7438,648,57033,6053,-30472
648,18777,-0.0765625,-1.45469,9.99619,-10.025,0.703125,95.0922,-0.915527,-0.0610352,0.488281,0.671936,-0.0635071,-0.0603027,0.735321,7437,648,57035,6053,-30472
654,18783,-0.105273,-1.4499,10.0249,-10.025,0.708618,95.0922,-1.0376,0.183105,0.305176,0.671936,-0.0635071,-0.0603027,0.735321,7430,649,57034,6053,-30472
660,18789,-0.090918,-1.47383,10.001,-10.025,0.703125,95.0922,-1.40381,0,0.427246,0.671936,-0.0635376,-0.0603333,0.735352,7428,651,57034,6053,-30472
666,18795,-0.0669922,-1.45947,9.9627,-10.0305,0.703125,95.0922,-1.09863,0,0.183105,0.671936,-0.0635376,-0.0603333,0.735352,7427,652,57033,6053,-30472
672,18801,-0.0765625,-1.4834,9.97705,-10.0305,0.703125,95.0922,-0.915527,0.0610352,0.427246,0.671936,-0.0635376,-0.0603333,0.735321,7427,654,57033,6053,-30472
678,18807,-0.0813477,-1.45469,9.99141,-10.0305,0.703125,95.0922,-0.854492,0.0610352,0.671387,0.671936,-0.0635376,-0.0603333,0.735352,7427,654,57034,6053,-30472
684,18813,-0.0957031,-1.45947,10.0058,-10.025,0.703125,95.0977,-0.732422,0,0.427246,0.671936,-0.0635376,-0.0603333,0.735352,7426,653,57032,6053,-30472
690,18819,-0.0813477,-1.43555,10.0058,-10.025,0.703125,95.0977,-0.793457,0.0610352,0.366211,0.671936,-0.0635071,-0.0603027,0.735352,7427,653,57030,6053,-30472
696,18825,-0.0861328,-1.45469,9.98184,-10.025,0.703125,95.0977,-1.0376,0.12207,0.305176,0.671936,-0.0635071,-0.0603027,0.735352,7427,652,57026,6053,-30472
702,18831,-0.0957031,-1.45947,9.99141,-10.025,0.703125,95.0977,-0.854492,0.12207,0.366211,0.671936,-0.0635071,-0.0603027,0.735352,7428,653,57021,6053,-30472
708,18837,-0.0717773,-1.46904,10.001,-10.025,0.708618,95.0977,-0.793457,0.12207,0.610352,0.671936,-0.0635071,-0.0603027,0.735352,7428,653,57015,6053,-30472
714,18843,-0.114844,-1.47861,9.98184,-10.0195,0.708618,95.0977,-0.610352,0.0610352,0.366211,0.671906,-0.0635071,-0.0602722,0.735352,7429,653,57008,6053,-30472
720,18849,-0.105273,-1.45469,10.001,-10.0195,0.708618,95.0977,-1.09863,0.0610352,0.488281,0.671906,-0.0634766,-0.0602722,0.735352,7428,652,57008,6053,-30472
726,18855,-0.090918,-1.44033,9.99141,-10.0195,0.708618,95.0977,-1.09863,-0.0610352,0.488281,0.671906,-0.0634766,-0.0602722,0.735352,7428,653,57011,6053,-30472
732,18861,-0.100488,-1.46426,9.98184,-10.0195,0.708618,95.0977,-1.15967,0.0610352,0.488281,0.671906,-0.0634766,-0.0602722,0.735382,7429,654,57014,6053,-30472
738,18867,-0.100488,-1.43555,10.001,-10.0195,0.708618,95.0977,-1.0376,0,0.366211,0.671906,-0.0634766,-0.0602722,0.735382,7430,655,57016,6053,-30472
744,18873,-0.090918,-1.44033,10.001,-10.0195,0.708618,95.1031,-1.09863,0,0.488281,0.671906,-0.0634766,-0.0602722,0.735382,7434,654,57016,6053,-30472
750,18879,-0.0717773,-1.46426,10.0058,-10.0195,0.703125,95.1031,-1.15967,0.0610352,0.488281,0.671906,-0.0634766,-0.0603027,0.735382,7437,652,57016,6053,-30472
756,18885,-0.0957031,-1.4834,9.98662,-10.0195,0.703125,95.1031,-0.549316,-0.12207,0.427246,0.671875,-0.0635071,-0.0603027,0.735382,7439,652,57015,6053,-30472
762,18891,-0.090918,-1.49297,9.9627,-10.0195,0.703125,95.1031,0.0610352,-0.0610352,0.366211,0.671875,-0.0634766,-0.0602722,0.735382,7440,652,57014,6053,-30472
768,18897,-0.0813477,-1.4499,9.95313,-10.014,0.703125,95.1031,1.0376,-0.12207,0.671387,0.671875,-0.063446,-0.0602417,0.735382,7442,652,57013,6053,-30472
774,18903,-0.0813477,-1.43076,9.97705,-9.99207,0.703125,95.1086,1.58691,-0.12207,0.610352,0.671875,-0.063385,-0.0601807,0.735413,7444,650,57010,6053,-30472
780,18909,-0.090918,-1.45947,9.98662,-9.97559,0.703125,95.1086,1.83105,-0.0610352,0.549316,0.671875,-0.0632019,-0.0600281,0.735443,7444,650,57006,6053,-30472
786,18915,-0.105273,-1.44033,10.0153,-9.9646,0.703125,95.1086,1.34277,0.12207,0.610352,0.671875,-0.0631104,-0.0599365,0.735443,7443,651,57004,6053,-30472
792,18921,-0.090918,-1.43076,10.001,-9.95361,0.703125,95.1086,0.915527,0.183105,0.366211,0.671875,-0.0630493,-0.059845,0.735474,7442,652,57001,6053,-30472
798,18927,-0.0861328,-1.42119,10.0345,-9.94263,0.703125,95.1086,0.549316,0.488281,0.488281,0.671875,-0.0630188,-0.0597839,0.735474,7441,653,56998,6053,-30472
804,18933,-0.090918,-1.31113,10.1493,-9.93713,0.708618,95.1141,-1.95313,0.244141,0.976563,0.671875,-0.0629883,-0.0597229,0.735474,7443,654,56998,6053,-30472
810,18939,0,-0.698633,9.89092,-9.94263,0.714111,95.1306,1.34277,0.488281,4.57764,0.671722,-0.0630493,-0.0597534,0.735626,7443,656,57000,6053,-30472
816,18945,0.282324,0.985742,10.2833,-9.92615,0.719604,95.1526,3.23486,0.488281,3.60107,0.6716,-0.0629883,-0.0596619,0.735718,7444,658,57003,6053,-30472
822,18951,-0.0191406,-0.244043,10.2354,-9.90417,0.719604,95.1636,5.06592,0,8.48389,0.671539,-0.0628662,-0.0594788,0.735809,7443,661,57005,6053,-30472
828,18957,1.33506,1.65088,9.73779,-9.86572,0.730591,95.1965,8.78906,-3.54004,31.0059,0.671356,-0.0626831,-0.0592346,0.736023,7442,662,57007,6053,-30472
834,18963,1.21064,-1.67959,9.45068,-9.73938,0.758057,95.4712,11.5967,1.09863,28.0762,0.670441,-0.0623169,-0.0588989,0.736908,7438,665,57006,6053,-30472
840,18969,1.0623,-2.11025,9.59424,-9.65149,0.769043,95.647,17.7612,-3.90625,47.3633,0.668549,-0.0614624,-0.0578613,0.73877,7438,670,57005,6053,-30472
846,18975,0.177051,-2.89502,9.62773,-9.55261,0.785522,95.8722,18.4326,-7.01904,54.1382,0.667145,-0.0608521,-0.0572205,0.740143,7437,676,57002,6053,-30472
852,18981,-0.0191406,-3.06729,9.91484,-9.44824,0.791016,96.1359,19.8364,-6.16455,62.9883,0.665497,-0.0601501,-0.0566711,0.74173,7437,642,57000,6053,-30472
858,18987,-0.425879,-3.04814,10.0775,-9.33838,0.802002,96.4435,16.5405,-8.54492,67.9321,0.663544,-0.0594788,-0.0560303,0.743591,7434,616,57000,6053,-30472
864,18993,-0.669922,-3.10078,9.90527,-9.17358,0.823975,97.1191,13.6719,-8.17871,69.3359,0.661407,-0.0588379,-0.0555725,0.745575,7427,587,56995,6053,-30472
870,18999,-0.913965,-2.07676,9.69473,-9.09668,0.834961,97.4542,20.3857,-8.78906,63.6597,0.657043,-0.0577698,-0.0547791,0.749573,7422,541,56989,6053,-30472
876,19005,-0.842188,-2.23467,9.67559,-8.98682,0.840454,97.7728,27.2217,-5.98145,60.73,0.655029,-0.0570374,-0.0541992,0.751434,7416,506,56979,6053,-30472
882,19011,-0.569434,-1.49775,9.70908,-8.84949,0.856934,98.075,32.2266,-8.05664,56.4575,0.653107,-0.0562134,-0.0533447,0.753235,7411,478,56969,6053,-30472
888,19017,-0.416309,-1.53125,9.80479,-8.68469,0.856934,98.3551,36.8652,-5.18799,53.5278,0.651337,-0.0551758,-0.0523987,0.754913,7404,457,56958,6053,-30472
894,19023,-0.291895,-1.35898,10.0728,-8.30566,0.878906,98.877,38.5742,-5.79834,51.3916,0.649658,-0.0540771,-0.0512085,0.7565,7389,363,56939,6053,-30472
900,19029,-0.325391,-1.77529,10.0105,-8.10791,0.895386,99.1241,37.5366,-4.82178,47.7295,0.646515,-0.0517883,-0.0487366,0.759521,7383,333,56928,6053,-30472
906,19035,-0.16748,-1.46426,10.0584,-7.91565,0.900879,99.3604,36.6821,-4.45557,45.8374,0.64502,-0.0506897,-0.0475464,0.760925,7378,270,56915,6053,-30472
912,19041,-0.119629,-0.555078,10.0967,-7.73438,0.911865,99.5911,35.1563,-4.94385,41.5039,0.643585,-0.0496216,-0.0463562,0.762299,7374,217,56900,6053,-30472
918,19047,-0.373242,-0.923535,10.7857,-7.55859,0.911865,99.7943,24.5972,-4.02832,39.0625,0.642273,-0.0485535,-0.0452881,0.763519,7370,175,56887,6053,-30472
924,19053,-0.0382813,-0.966602,10.6613,-7.38831,0.922852,100.179,9.76563,-4.5166,38.5742,0.641052,-0.047821,-0.0444946,0.764648,7409,82,56867,6053,-30472
930,19059,-0.105273,-1.13887,10.3551,-7.38281,0.922852,100.377,-5.5542,-4.63867,40.5884,0.638458,-0.0474243,-0.044281,0.766846,7448,29,56863,6053,-30472
936,19065,-0.0191406,-1.49775,10.2737,-7.41028,0.928345,100.58,-14.7705,-5.61523,43.396,0.637115,-0.0474854,-0.0445557,0.767944,7483,65521,56857,6053,-30472
942,19071,0,-1.8375,10.3024,-7.48169,0.922852,100.794,-24.6582,-5.00488,49.4995,0.63562,-0.047821,-0.0451355,0.769135,7514,65482,56852,6053,-30472
948,19077,0.349316,-2.08633,10.2833,-7.60254,0.933838,101.041,-35.2173,-5.31006,57.7393,0.633911,-0.0484314,-0.04599,0.770447,7544,65447,56843,6053,-30472
954,19083,0.531152,-2.40215,10.3503,-8.02002,0.944824,101.646,-49.2554,-8.05664,63.6597,0.631897,-0.0493469,-0.0472412,0.771942,7596,65391,56821,6053,-30472
960,19089,-0.0143555,-2.0959,10.3359,-8.32214,0.955811,101.981,-69.7021,-12.3291,72.7539,0.627258,-0.0521545,-0.0511169,0.775299,7567,65366,56810,6053,-30472
966,19095,0.712988,-1.78486,10.1397,-8.66272,0.950317,102.343,-78.2471,-9.15527,83.9844,0.624634,-0.0538025,-0.0536499,0.777161,7591,65344,56799,6053,-30472
972,19101,0.756055,-1.00488,9.46504,-9.04724,0.966797,102.766,-71.6553,-10.5591,81.665,0.621582,-0.0557861,-0.056366,0.779266,7612,65323,56790,6053,-30472
978,19107,-0.0574219,-1.53125,8.99131,-9.3988,0.97229,103.173,-50.5981,-11.7188,85.144,0.618622,-0.0575562,-0.0588989,0.781281,7631,65303,56783,6053,-30472
984,19113,0.239258,-1.21543,9.49854,-9.77234,0.994263,104.019,-28.0762,-11.4746,85.083,0.615601,-0.0586853,-0.06073,0.783447,7663,65265,56778,6053,-30472
990,19119,-0.641211,-1.75615,9.7665,-9.81628,1.01074,104.409,-4.08936,-13.0005,73.1201,0.609924,-0.0593872,-0.0621948,0.78772,7676,65246,56778,6053,-30472
996,19125,-0.598145,-1.51211,10.2498,-9.82727,1.01074,104.771,-5.5542,-7.14111,69.519,0.607422,-0.0592346,-0.0624695,0.789642,7688,65230,56778,6053,-30472
1002,19131,-0.952246,-2.18203,10.178,-9.84375,1.03271,105.112,-9.8877,-13.9771,70.9839,0.605042,-0.0592957,-0.0626526,0.791443,7698,65217,56779,6053,-30472
1008,19137,-1.05752,-1.99541,9.46025,-9.8822,1.02173,105.463,-6.10352,-19.7144,81.4209,0.6026,-0.0592346,-0.0631714,0.793274,7707,65208,56779,6053,-30472
1014,19143,-1.68916,-2.0002,9.67559,-9.87671,0.983276,106.298,3.60107,-16.9067,85.6934,0.599762,-0.0589294,-0.0636597,0.79538,7723,65202,56781,6053,-30472
1020,19149,-0.224902,-0.531152,10.3168,-9.82178,0.977783,106.749,9.21631,-9.76563,73.6084,0.593719,-0.0579224,-0.0636292,0.799988,7731,65205,56779,6053,-30472
1026,19155,-0.722559,-0.512012,10.5513,-9.76685,0.994263,107.106,2.50244,-10.437,62.7441,0.591248,-0.0575562,-0.063324,0.80188,7738,65168,56775,6053,-30472
1032,19161,-0.732129,-0.77041,10.3646,-9.74487,0.999756,107.413,-10.1929,-7.8125,53.1616,0.589111,-0.0572815,-0.063324,0.803436,7745,65138,56769,6053,-30472
1038,19167,-0.799121,-0.492871,10.4699,-9.78882,1.00525,107.666,-22.522,-9.21631,44.6167,0.587311,-0.0574036,-0.0636902,0.804718,7750,65113,56762,6053,-30472
1044,19173,-0.358887,-0.535937,10.4173,-10.0305,0.999756,108.045,-30.0293,-6.22559,36.438,0.585785,-0.0578003,-0.0645447,0.805756,7757,65078,56753,6053,-30472
1050,19179,-0.569434,-1.4499,9.92441,-10.1624,1.01074,108.171,-22.0947,-3.35693,22.3999,0.583588,-0.0591125,-0.0665588,0.807098,7760,65064,56750,6053,-30472
1056,19185,-0.818262,-2.42607,9.63252,-10.2667,1.01624,108.265,-13.7939,-3.35693,21.1182,0.582855,-0.0596008,-0.0672913,0.807526,7764,65052,56750,6053,-30472
1062,19191,-0.344531,-2.61748,9.9292,-10.3271,1.02173,108.358,-8.78906,-0.488281,24.7192,0.582184,-0.0598755,-0.067749,0.807953,7767,65040,56751,6053,-30472
1068,19197,-0.698633,-1.85186,9.9627,-10.3601,1.0437,108.463,-9.58252,-2.74658,21.9727,0.58139,-0.0601501,-0.0679321,0.808502,7770,65028,56750,6053,-30472
1074,19203,-0.119629,-1.23457,10.6709,-10.4645,1.07117,108.677,-14.4043,-2.13623,26.4893,0.580688,-0.0603638,-0.0682373,0.80896,7775,65007,56748,6053,-30472
1080,19209,0.14834,-0.880469,9.9627,-10.5579,1.07666,108.77,-23.1323,0.488281,16.6626,0.579071,-0.0611877,-0.0693054,0.809937,7778,64997,56746,6053,-30472
1086,19215,0.334961,-0.488086,10.0871,-10.6622,1.09863,108.836,-23.3154,0.793457,9.0332,0.578552,-0.0618286,-0.0700073,0.810211,7780,64988,56745,6053,-30472
1092,19221,0.521582,0.181836,10.2642,-10.7666,1.10962,108.864,-18.6157,2.31934,-0.610352,0.578308,-0.062439,-0.0707092,0.810303,7782,64979,56745,6053,-30472
1098,19227,1.03359,1.04316,10.2115,-10.8545,1.12061,108.836,-11.5356,3.90625,-6.28662,0.5784,-0.0629578,-0.071228,0.81012,7784,64971,56743,6053,-30472
1104,19233,0.933105,0.30625,10.0823,-10.9149,1.14258,108.715,-6.22559,3.72314,-8.60596,0.578766,-0.063324,-0.0714417,0.809814,7788,64957,56744,6053,-30472
1110,19239,0.272754,-1.67959,10.2115,-10.9204,1.15356,108.66,-2.44141,3.84521,-0.915527,0.57962,-0.0635986,-0.0714417,0.809174,7791,64949,56749,6053,-30472
1116,19245,-0.291895,-1.49775,9.85742,-10.9149,1.16455,108.627,-1.89209,5.12695,0.0610352,0.579834,-0.0637207,-0.0713501,0.809052,7791,64940,56754,6053,-30472
1122,19251,-0.196191,-1.62217,9.93398,-10.9149,1.18652,108.6,1.09863,2.50244,-2.31934,0.579987,-0.0638733,-0.0711975,0.808929,7792,64932,56760,6053,-30472
1128,19257,-0.258398,-1.5791,9.81914,-10.8929,1.19751,108.567,3.35693,3.78418,-6.22559,0.580231,-0.0638733,-0.0710144,0.808777,7792,64924,56766,6053,-30472
1134,19263,-0.263184,-1.49297,10.0249,-10.8325,1.2085,108.441,4.15039,3.17383,-10.6812,0.580627,-0.0638123,-0.0707092,0.808502,7791,64910,56775,6053,-30472
1140,19269,-0.090918,-1.58389,10.3312,-10.8105,1.2085,108.358,-0.427246,3.479,-12.207,0.581757,-0.0636292,-0.0702209,0.807739,7791,64904,56780,6053,-30472
1146,19275,-0.110059,-1.5791,10.0728,-10.7996,1.2085,108.276,-4.21143,2.50244,-11.3525,0.582336,-0.0636597,-0.0700989,0.807343,7791,64898,56783,6053,-30472
1152,19281,-0.0861328,-1.70352,10.0058,-10.8105,1.2085,108.199,-5.92041,2.44141,-11.1694,0.582855,-0.0637512,-0.0701294,0.806946,7791,64891,56786,6053,-30472
1158,19287,-0.062207,-1.48818,9.86221,-10.8325,1.2085,108.127,-6.65283,2.38037,-11.2305,0.583374,-0.0639038,-0.0702515,0.80658,7792,64884,56788,6053,-30472
1164,19293,-0.129199,-1.45469,10.1015,-10.882,1.203,107.985,-7.01904,1.46484,-11.3525,0.583862,-0.0640564,-0.0703735,0.806183,7791,64873,56791,6053,-30472
1170,19299,0.114844,-1.08623,10.1015,-10.9149,1.19751,107.902,-10.0708,2.38037,-16.8457,0.58493,-0.0643921,-0.0707703,0.805359,7791,64868,56793,6053,-30472
1176,19305,0.0861328,-1.05752,10.135,-10.9534,1.19202,107.803,-10.6812,2.01416,-21.8506,0.585602,-0.0646057,-0.0710144,0.80481,7791,64863,56792,6053,-30472
1182,19311,0.181836,-1.39727,10.0488,-10.9973,1.17554,107.677,-9.76563,1.52588,-21.4233,0.586456,-0.0648193,-0.0713501,0.804138,7791,64899,56791,6053,-30472
1188,19317,0.334961,-1.17715,9.93877,-11.0413,1.15906,107.556,-5.5542,1.28174,-21.6064,0.587311,-0.0649719,-0.0716248,0.803497,7793,64930,56790,6053,-30472
1194,19323,0.913965,-1.21543,9.9292,-11.0468,1.1261,107.336,-0.0610352,0.183105,-15.8691,0.588165,-0.065033,-0.0717773,0.802856,7797,64976,56790,6053,-30472
1200,19329,2.15811,-0.765625,9.60859,-11.0028,1.11511,107.281,15.0757,-6.95801,1.40381,0.589294,-0.0646362,-0.0714417,0.802094,7798,64994,56791,6053,-30472
1206,19335,1.53125,-2.43086,9.97705,-10.9149,1.07117,107.276,23.1934,-11.1084,21.9727,0.589386,-0.0639038,-0.0710449,0.802094,7797,65009,56797,6053,-30472
1212,19341,0.808691,-2.75625,9.38848,-10.7831,1.03271,107.375,26.062,-15.0146,40.9546,0.588806,-0.0628967,-0.0704041,0.802673,7797,65022,56801,6053,-30472
1218,19347,0.92832,-2.37822,10.0728,-10.6403,0.98877,107.573,26.062,-13.1836,57.0068,0.587524,-0.0617065,-0.0697632,0.803772,7799,65035,56803,6053,-30472
1224,19353,0.29668,-1.77529,9.78564,-10.3711,0.933838,108.171,23.8647,-16.6626,66.5894,0.585693,-0.0606689,-0.0690002,0.805237,7707,65026,56798,6053,-30472
1230,19359,-0.177051,1.13408,10.3742,-10.2338,0.900879,108.523,27.0996,-15.2588,68.0542,0.581116,-0.0584717,-0.0678101,0.808807,7669,65009,56794,6053,-30472
1236,19365,-0.77998,-0.77041,9.91963,-10.0854,0.878906,108.847,31.4331,-15.5029,62.2559,0.578918,-0.0573425,-0.0670471,0.810547,7634,65000,56791,6053,-30472
1242,19371,-0.569434,-0.698633,10.2642,-9.91516,0.845947,109.149,33.8135,-13.9771,56.7017,0.576904,-0.0561218,-0.0661316,0.812134,7603,64994,56789,6053,-30472
1248,19377,-0.904395,-0.387598,10.4699,-9.73389,0.823975,109.413,34.1797,-13.7329,48.5229,0.575104,-0.0548706,-0.0651245,0.813568,7625,64993,56783,6053,-30472
1254,19383,-0.712988,0.0957031,10.4077,-9.36035,0.758057,109.819,35.8887,-11.8408,39.3677,0.573608,-0.0535889,-0.0640869,0.814789,7661,64929,56759,6053,-30472
1260,19389,-0.334961,-0.129199,10.8432,-9.17358,0.692139,109.951,32.6538,-24.0479,18.7988,0.571655,-0.0508423,-0.0620117,0.816498,7677,64908,56742,6053,-30472
1266,19395,-0.0526367,-0.301465,10.9389,-8.9978,0.587769,110.034,26.3062,-25.9399,12.0239,0.571167,-0.0491638,-0.0613403,0.816986,7643,64894,56723,6053,-30472
1272,19401,0.224902,-0.512012,10.8575,-8.85498,0.461426,110.089,17.6392,-30.3345,7.44629,0.570923,-0.0475464,-0.0609436,0.817291,7613,64883,56707,6053,-30472
1278,19407,0.00478516,-1.09102,11.2595,-8.7561,0.318604,110.121,13.0005,-29.6631,4.82178,0.570801,-0.04599,-0.0609741,0.817444,7587,64835,56690,6053,-30472
1284,19413,-0.272754,-1.69873,11.6279,-8.60779,0.0878906,110.16,12.3291,-18.1885,6.04248,0.57077,-0.0445862,-0.0611877,0.817535,7547,64760,56648,6053,-30472
1290,19419,-0.119629,-1.72266,12.2309,-8.53088,0.0878906,110.187,15.564,13.855,12.3901,0.570557,-0.0432129,-0.0605774,0.81781,7534,64734,56628,6053,-30472
1296,19425,-0.062207,-1.75137,12.2835,-8.44849,0.164795,110.215,14.0991,23.8037,14.9536,0.570343,-0.0433044,-0.0595703,0.818024,7523,64712,56608,6053,-30472
1302,19431,-0.0574219,-2.05283,12.3648,-8.36609,0.291138,110.248,9.27734,27.5269,17.2119,0.570068,-0.0438232,-0.0584106,0.818298,7514,64695,56589,6053,-30472
1308,19437,-0.0334961,-2.44521,12.3648,-8.31665,0.439453,110.292,2.13623,25.5737,19.7754,0.569672,-0.0445862,-0.057312,0.818573,7506,64683,56572,6053,-30472
1314,19443,0.0382813,-2.78496,12.4749,-8.31665,0.686646,110.44,-5.12695,19.4702,22.8271,0.569183,-0.0454407,-0.0565186,0.818939,7487,64590,56546,6053,-30472
1320,19449,-0.0526367,-3.34004,12.7812,-8.36609,0.752563,110.544,-15.2588,-0.305176,29.8462,0.567688,-0.0469666,-0.0562134,0.819916,7479,64554,56538,6053,-30472
1326,19455,-0.100488,-3.47402,12.8146,-8.4375,0.769043,110.682,-20.0806,-11.9019,33.7524,0.566681,-0.0473633,-0.0566711,0.820557,7472,64521,56531,6053,-30472
1332,19461,0.0765625,-3.29219,12.8912,-8.53638,0.736084,110.847,-23.9258,-25.2686,36.6211,0.565491,-0.0475159,-0.0576172,0.821289,7466,64494,56529,6053,-30472
1338,19467,0.258398,-3.02422,13.0108,-8.65173,0.637207,111.033,-24.6582,-40.2832,37.9028,0.564148,-0.0472717,-0.059021,0.822144,7462,64470,56528,6053,-30472
1344,19473,0.406738,-2.85674,13.3123,-8.88245,0.214233,111.462,-22.3999,-56.1523,37.2314,0.562683,-0.0465393,-0.0608215,0.823059,7468,64432,56527,6053,-30472
1350,19479,0.521582,-4.254,29.1607,-8.97583,-0.0823975,111.676,-12.9395,-65.6128,33.6304,0.559814,-0.0433044,-0.065155,0.82486,7428,64416,56526,6053,-30472
1356,19485,-0.220117,-5.18232,29.9264,-9.03625,-0.379028,111.885,-10.5591,-51.6968,32.959,0.558441,-0.0413513,-0.0671387,0.825714,7396,64402,56522,6053,-30472
1362,19491,-0.488086,-2.88066,15.2359,-9.09119,-0.609741,112.077,-11.1694,-26.6113,34.1797,0.557159,-0.039856,-0.0687256,0.826538,7377,64391,56517,6053,-30472
1368,19497,-0.913965,-3.25391,15.3077,-9.15161,-0.708618,112.258,-14.8315,4.76074,37.1704,0.555908,-0.0393066,-0.0697021,0.827332,7370,64382,56512,6053,-30472
1374,19503,-1.45469,-3.99561,14.9345,-9.34387,-0.439453,112.599,-22.7661,36.5601,41.687,0.554596,-0.039978,-0.0700378,0.828125,7289,64370,56506,6053,-30472
1380,19509,-2.55049,-4.39277,13.9966,-9.51965,-0.0714111,112.764,-45.166,93.75,47.3633,0.551727,-0.0453796,-0.069458,0.829803,7215,64367,56512,6053,-30472
1386,19515,-2.95723,-4.74688,13.2549,-9.74487,0.422974,112.917,-51.2085,108.337,47.1191,0.550232,-0.0500183,-0.0687561,0.830597,7150,64364,56520,6053,-30472
1392,19521,-3.39268,-5.09141,12.8146,-10.0031,0.999756,113.055,-57.7393,108.704,41.9312,0.548737,-0.0553589,-0.0679016,0.831329,7094,64362,56535,6053,-30472
1398,19527,-3.61279,-4.6751,12.5993,-10.2887,1.57654,113.165,-63.4766,104.065,34.1187,0.547363,-0.0608215,-0.0672913,0.831879,7043,64361,56556,6053,-30472
1404,19533,-3.85684,-4.57939,12.2931,-10.9534,2.63672,113.28,-68.6035,99.3652,24.6582,0.546234,-0.0662537,-0.0670471,0.832245,6955,64363,56631,6053,-30472
1410,19539,-3.93818,-3.71807,12.8146,-11.3269,3.14209,113.264,-75.4395,113.525,6.16455,0.5448,-0.0770874,-0.0673828,0.832214,6917,64364,56684,6053,-30472
1416,19545,-4.0291,-3.79941,13.1018,-11.7169,3.70789,113.192,-75.3174,144.104,1.52588,0.544586,-0.0830383,-0.0674133,0.831787,6883,64364,56739,6053,-30472
1422,19551,-3.99561,-3.96211,13.0922,-12.1014,4.4165,113.06,-75.8057,186.096,-0.183105,0.544556,-0.0900879,-0.0667419,0.831116,6851,64361,56801,6053,-30472
1428,19557,-3.99561,-4.0291,12.9056,-12.5024,5.32837,112.874,-77.2705,228.577,-1.95313,0.544678,-0.0986633,-0.0650635,0.8302,6870,64357,56868,6053,-30472
1434,19563,-4.14873,-4.35928,12.4605,-13.3539,7.72339,112.324,-79.0405,264.16,-3.84521,0.544922,-0.108765,-0.0624695,0.828979,6886,64350,56949,6053,-30472
1440,19569,-4.98613,-4.75645,11.36,-13.7823,9.12415,111.967,-74.7681,310.486,-11.1694,0.545654,-0.132385,-0.0549622,0.825592,6896,64335,57149,6053,-30472
1446,19575,-5.36416,-4.77559,10.3216,-14.2328,10.6073,111.555,-73.2422,320.129,-16.5405,0.546143,-0.145233,-0.0503845,0.823395,6893,64328,57257,6053,-30472
1452,19581,-5.41201,-4.79951,9.50332,-14.6942,12.1289,111.094,-70.3735,323.73,-23.1934,0.546753,-0.158356,-0.0455627,0.820862,6932,64322,57378,6053,-30472
1458,19587,-5.61777,-5.17754,8.51758,-15.1666,13.6505,110.583,-67.9321,322.693,-29.2969,0.547485,-0.171478,-0.0406189,0.817993,6953,64320,57507,6053,-30472
1464,19593,-5.62256,-5.00527,7.82852,-16.1609,16.6333,109.435,-67.688,319.946,-34.2407,0.548309,-0.184448,-0.035675,0.814819,7049,64314,57802,6053,-30472
1470,19599,-5.78525,-4.89043,6.27813,-16.6882,18.0835,108.814,-63.9648,314.148,-41.0767,0.550079,-0.209839,-0.0260315,0.807831,7123,64312,57961,6061,-30473
1476,19605,-6.06758,-4.62246,6.11543,-17.2266,19.5062,108.166,-58.7769,312.622,-45.5322,0.550995,-0.22226,-0.0213013,0.804016,7184,64310,58117,6061,-30473
1482,19611,-6.59395,-4.29707,5.65605,-17.7759,20.907,107.479,-51.1475,313.171,-50.9644,0.551971,-0.234436,-0.0164795,0.799988,7227,64308,58282,6061,-30473
1488,19617,-6.62266,-4.1248,5.90488,-18.3197,22.2968,106.749,-40.6494,319.702,-61.3403,0.553101,-0.246368,-0.0114441,0.795685,7306,64308,58452,6061,-30473
1494,19623,-7.20645,-4.10566,6.00537,-19.4073,25.1477,104.996,-28.1372,337.769,-73.1201,0.554596,-0.25824,-0.00601196,0.790955,7458,64313,58813,6061,-30473
1500,19629,-7.85244,-4.46455,6.93848,-19.9841,26.7242,103.92,-4.94385,408.386,-96.6797,0.558777,-0.283264,0.00726318,0.779327,7531,64317,58999,6061,-30473
1506,19635,-6.68965,-4.50762,7.17773,-20.6104,28.4436,102.673,9.94873,457.092,-92.6514,0.561432,-0.297089,0.015564,0.772125,7589,64322,59178,6061,-30473
1512,19641,-6.58916,-4.78037,6.46475,-21.264,30.3882,101.305,22.2168,496.521,-94.4824,0.563904,-0.312073,0.0256042,0.764099,7680,64326,59365,6061,-30473
1518,19647,-6.18721,-4.44063,5.93359,-21.9727,32.4866,99.7888,35.0952,522.644,-94.9097,0.566315,-0.327911,0.0369568,0.755188,7750,64331,59562,6061,-30473
1524,19653,-5.41201,-4.14395,4.66074,-23.5657,36.8481,96.394,44.9219,520.508,-99.6704,0.568573,-0.344086,0.0492859,0.745483,7973,64338,59994,6061,-30473
1530,19659,-4.50283,-2.66055,1.50732,-24.494,38.7927,94.5648,35.8887,421.265,-138.062,0.573486,-0.374207,0.0731201,0.725006,8071,64340,60230,6061,-30473
1536,19665,-3.74678,-0.468945,1.03359,-25.5542,40.3693,92.6862,24.231,319.58,-170.959,0.57663,-0.386749,0.0820923,0.714905,8150,64342,60459,6061,-30473
1542,19671,-3.36396,-0.717773,-0.378027,-26.6803,41.38,90.8295,62.6831,210.266,-170.044,0.580841,-0.396393,0.0875549,0.705505,8258,64342,60703,6061,-30473
1548,19677,-3.41182,-3.00029,-2.65098,-27.4438,41.8854,89.2694,104.187,118.225,-167.664,0.585968,-0.401611,0.0914307,0.697754,8345,64339,60953,6061,-30473
1554,19683,-2.07676,-4.36885,-3.62715,-27.9108,41.748,86.9568,129.578,44.7388,-167.786,0.592041,-0.402954,0.0942383,0.691437,8568,64315,61444,6061,-30473
1560,19689,-1.31113,-4.30664,-1.93799,-27.7899,41.2262,86.1493,154.785,-91.98,-152.161,0.605865,-0.397614,0.0960999,0.682251,8657,64337,61669,6061,-30473
1566,19695,-1.26328,-4.36885,-0.775195,-27.4164,40.4297,85.6329,169.189,-162.231,-133.362,0.613007,-0.391296,0.0950928,0.679657,8736,64353,61874,6061,-30473
1572,19701,-1.69873,-4.33057,0.894824,-26.7737,39.375,85.4297,181.03,-230.713,-108.459,0.620026,-0.382477,0.0928955,0.678619,8807,64362,62058,6061,-30473
1578,19707,-2.3208,-3.90469,2.68447,-25.8673,38.0676,85.545,192.261,-275.146,-80.5664,0.626678,-0.371155,0.0896301,0.67923,8871,64365,62217,6061,-30473
1584,19713,-2.99551,-3.69893,4.02432,-23.5272,35.1837,86.413,202.026,-287.964,-51.5137,0.632721,-0.358093,0.085907,0.681122,8993,64439,62455,6061,-30473
1590,19719,-3.94775,-3.26826,5.79482,-22.2253,33.8434,87.0007,214.966,-254.883,-2.44141,0.642273,-0.330353,0.0802002,0.68689,9051,64468,62530,6061,-30473
1596,19725,-4.0626,-2.7084,6.20156,-20.8905,32.6349,87.6105,215.698,-233.765,15.4419,0.645813,-0.316833,0.0789185,0.690063,9106,64496,62588,6061,-30473
1602,19731,-3.73721,-2.24902,6.39297,-19.5612,31.5527,88.2367,209.534,-220.032,27.4658,0.648621,-0.303864,0.0785217,0.693329,9109,64524,62621,6061,-30473
1608,19737,-3.40703,-2.17246,6.40732,-18.2648,30.5475,88.8629,194.824,-216.919,35.8887,0.650787,-0.291412,0.0784912,0.696625,9114,64512,62631,6061,-30473
1614,19743,-2.75146,-2.98115,6.01494,-16.0126,28.526,90.1318,161.804,-225.159,38.3911,0.652405,-0.279419,0.0782471,0.700043,9133,64508,62598,6061,-30473
1620,19749,-1.80879,-3.57451,6.64658,-15.2051,27.3669,90.791,67.8711,-296.448,42.7246,0.653931,-0.257233,0.0730896,0.707642,9146,64516,62559,6061,-30473
1626,19755,-2.13418,-4.08174,6.07236,-14.6228,25.9882,91.4996,18.9209,-353.455,39.917,0.653839,-0.246307,0.0667419,0.71225,9161,64484,62516,6061,-30473
1632,19761,-2.08154,-3.88076,6.04844,-14.2877,24.3292,92.2522,-20.0806,-415.894,35.7666,0.65329,-0.234985,0.057251,0.717346,9180,64459,62463,6061,-30473
1638,19767,-1.69395,-3.87119,6.66572,-14.1504,22.3572,93.0487,-51.5137,-466.431,40.8325,0.652466,-0.222778,0.0447083,0.72287,9155,64440,62396,6061,-30473
1644,19773,-1.77051,-3.99561,7.14424,-14.2822,17.8363,94.8944,-72.937,-496.338,54.6875,0.651001,-0.209778,0.0297852,0.728821,9095,64410,62213,6061,-30473
1650,19779,-2.33994,-3.45967,7.73281,-14.4525,15.5017,95.9821,-81.8481,-494.69,99.2432,0.645203,-0.182861,-0.00305176,0.74173,9020,64397,62096,6061,-30473
1656,19785,-2.7084,-2.44043,7.53184,-14.6338,13.2605,97.1631,-71.106,-474.854,116.577,0.640686,-0.169556,-0.019104,0.748505,8962,64385,61978,6061,-30473
1662,19791,-2.84238,-0.933105,7.26387,-14.7876,11.1401,98.399,-49.0723,-455.322,123.23,0.635406,-0.156586,-0.0340271,0.75528,8884,64372,61848,6061,-30473
1668,19797,-2.5792,-0.0382813,6.89541,-14.87,9.13513,99.6405,-21.3623,-441.467,120.483,0.629822,-0.143585,-0.0475769,0.76181,8787,64362,61706,6061,-30473
1674,19803,-2.25859,0.636426,6.42168,-14.7711,5.28442,101.97,1.40381,-436.035,108.582,0.624237,-0.130219,-0.0597534,0.767914,8553,64343,61393,6061,-30473
1680,19809,-1.03838,1.76094,5.68955,-14.6283,3.31238,103.002,32.0435,-459.839,61.7065,0.614227,-0.101654,-0.0817566,0.778198,8420,64335,61228,6061,-30473
1686,19815,-0.29668,2.23467,5.72783,-14.4635,1.22498,103.914,41.3818,-485.718,28.7476,0.610199,-0.0859375,-0.0925903,0.782043,8263,64329,61070,6061,-30473
1692,19821,0.46416,2.44521,5.546,-14.2822,-1.01624,104.694,49.1333,-517.883,-7.20215,0.606934,-0.0689392,-0.103821,0.784851,8101,64327,60915,6061,-30473
1698,19827,0.976172,2.3208,5.66563,-14.0845,-3.46069,105.326,55.4199,-552.246,-45.4102,0.604553,-0.0504456,-0.115631,0.786438,7935,64329,60762,6061,-30473
1704,19833,2.28252,3.27305,8.01035,-13.6176,-8.97034,106.095,58.7158,-582.703,-88.0127,0.603027,-0.0303955,-0.128082,0.786713,7548,64269,60456,6061,-30473
1710,19839,2.8376,2.52656,7.39307,-13.3813,-11.9257,106.276,55.8472,-593.079,-132.813,0.602203,0.0130005,-0.154633,0.783051,7323,64245,60310,6061,-30473
1716,19845,3.38789,2.0624,8.42188,-13.1067,-14.8755,106.326,62.0728,-565.552,-148.804,0.602386,0.0350647,-0.167694,0.779541,7108,64226,60164,6061,-30473
1722,19851,3.15342,2.88066,8.97695,-12.7661,-17.71,106.243,81.1768,-518.738,-171.509,0.602905,0.056427,-0.179657,0.775177,6858,64209,60019,6061,-30473
1728,19857,3.27305,4.00518,9.92441,-12.2498,-20.3357,105.963,102.417,-452.942,-197.815,0.604218,0.0769043,-0.189545,0.77005,6575,64196,59877,6061,-30473
1734,19863,3.49795,4.80908,10.4651,-10.6018,-24.6204,104.639,116.272,-373.901,-221.497,0.606598,0.0958862,-0.196747,0.764191,6016,64180,59601,6061,-30473
1740,19869,5.58428,3.61279,10.8145,-9.54712,-26.153,103.629,111.938,-204.346,-241.455,0.614868,0.127075,-0.203125,0.751282,5718,64176,59474,6061,-30473
1746,19875,6.55566,3.62236,10.9006,-8.4375,-27.2681,102.469,100.403,-129.15,-246.216,0.620331,0.138489,-0.202942,0.744781,5432,64175,59359,6061,-30473
1752,19881,6.36904,3.10078,10.7188,-7.31689,-27.9987,101.184,82.1533,-64.6973,-234.802,0.626587,0.147217,-0.20108,0.738373,5152,64137,59253,6061,-30473
1758,19887,6.81885,1.871,10.3407,-6.2677,-28.3832,99.9042,59.2651,-7.20215,-212.341,0.633057,0.153259,-0.19809,0.732391,4870,64107,59159,6061,-30473
1764,19893,7.36914,1.50732,10.5082,-4.64722,-28.2678,97.6575,39.4287,42.3584,-182.861,0.639374,0.156677,-0.194427,0.727142,4323,64069,59008,6061,-30473
1770,19899,7.89551,1.06709,10.3072,-4.10339,-27.8558,96.7896,9.39941,116.272,-116.638,0.650452,0.156769,-0.185699,0.719543,4094,64057,58946,6061,-30473
1776,19905,7.75674,1.21543,10.0249,-3.70789,-27.2681,96.1029,2.99072,140.991,-88.562,0.654938,0.154175,-0.180878,0.717255,3890,64007,58895,6061,-30473
1782,19911,7.43613,1.49775,9.77129,-3.42224,-26.554,95.5701,-0.0610352,156.738,-67.1997,0.658691,0.150482,-0.175781,0.715881,3706,63962,58851,6061,-30473
1788,19917,7.01025,1.75615,9.61816,-3.2135,-25.7574,95.1636,-0.854492,162.598,-52.8564,0.661865,0.146057,-0.170502,0.715149,3533,63924,58817,6061,-30473
1794,19923,6.6418,1.98105,9.56074,-2.8949,-24.1315,94.5648,1.0376,160.034,-45.166,0.664612,0.141327,-0.165161,0.714783,3305,63862,58769,6061,-30473
1800,19929,6.30684,2.68926,9.08223,-2.74109,-23.3679,94.3066,4.3335,137.695,-44.6167,0.66925,0.132507,-0.154877,0.714447,3194,63838,58754,6061,-30473
1806,19935,6.20156,2.93809,8.81426,-2.58728,-22.6813,94.0485,5.61523,116.394,-50.9033,0.671387,0.128754,-0.150238,0.714111,3131,63820,58745,6061,-30473
1812,19941,6.10586,3.20605,8.43623,-2.41699,-22.11,93.7628,6.28662,87.9517,-60.791,0.673584,0.125793,-0.146118,0.71344,3064,63805,58741,6061,-30473
1818,19947,5.95752,3.69414,8.37881,-2.22473,-21.6815,93.4332,8.8501,55.7251,-73.9746,0.675873,0.12381,-0.142792,0.712311,3042,63793,58743,6061,-30473
1824,19953,5.93838,3.89033,8.05342,-1.75781,-21.297,92.5928,7.75146,27.5879,-84.3506,0.678345,0.123016,-0.140289,0.710602,3031,63775,58754,6061,-30473
1830,19959,5.88574,3.47881,7.79502,-1.50513,-21.297,92.1094,9.94873,-12.6953,-95.2148,0.683655,0.124084,-0.137512,0.705811,3046,63766,58761,6061,-30473
1836,19965,6.0293,3.68457,7.7998,-1.23047,-21.3794,91.6095,15.4419,-23.6206,-96.1304,0.68634,0.12561,-0.136902,0.703064,3055,63759,58766,6061,-30473
1842,19971,6.19199,3.89512,7.69932,-0.928345,-21.5167,91.1041,25.3296,-31.6772,-95.8252,0.688965,0.127686,-0.136414,0.700226,3064,63752,58772,6061,-30473
1848,19977,6.44082,4.12002,7.70889,-0.571289,-21.6925,90.5988,36.499,-39.7339,-94.7266,0.691437,0.13028,-0.135864,0.697388,3073,63746,58778,6061,-30473
1854,19983,6.63223,3.91426,7.55098,0.296631,-22.1814,89.6045,47.6685,-51.4526,-93.0786,0.693756,0.133484,-0.135254,0.694611,3092,63738,58794,6061,-30473
1860,19989,6.96719,3.32568,7.37393,0.802002,-22.5385,89.1211,58.1665,-94.5435,-85.5713,0.697723,0.141998,-0.134399,0.689087,3101,63735,58800,6061,-30473
1866,19995,6.84756,2.89502,7.5749,1.31287,-23.0164,88.6542,54.0161,-119.08,-77.9419,0.69928,0.147461,-0.134857,0.686279,3112,63733,58808,6061,-30473
1872,20001,6.85234,2.33516,8.16826,1.79626,-23.6206,88.2202,49.8047,-138.367,-66.6504,0.700409,0.153473,-0.1362,0.683502,3074,63735,58814,6061,-30473
1878,20007,6.84756,2.17725,8.68984,2.2467,-24.3127,87.8357,48.1567,-151.672,-53.4058,0.701111,0.159851,-0.138367,0.680908,3047,63697,58816,6061,-30473
1884,20013,6.87148,2.52656,9.57031,3.06519,-25.8783,87.2534,49.4995,-160.645,-41.8091,0.701294,0.166473,-0.141052,0.678589,2984,63643,58809,6061,-30473
1890,20019,6.81406,2.56963,9.95313,3.4552,-26.7242,87.0337,45.7764,-170.166,-22.0947,0.700348,0.180359,-0.147278,0.674683,2946,63621,58803,6061,-30473
1896,20025,6.36426,2.05283,10.1637,3.80127,-27.5757,86.8634,41.8701,-166.687,-12.146,0.699371,0.187164,-0.150787,0.673035,2872,63604,58795,6061,-30473
1902,20031,6.125,1.9332,10.4412,4.10889,-28.4106,86.7426,38.6353,-158.752,-3.2959,0.69812,0.193665,-0.154388,0.671692,2819,63590,58786,6061,-30473
1908,20037,5.76611,2.32559,10.623,4.37256,-29.2017,86.6766,38.4521,-149.597,0.244141,0.696655,0.199768,-0.157867,0.670624,2777,63579,58780,6061,-30473
1914,20043,5.479,2.54092,10.5991,4.87793,-30.6464,86.5723,37.3535,-139.832,-0.12207,0.695129,0.205505,-0.161072,0.669708,2637,63529,58752,6061,-30473
1920,20049,5.18711,2.65576,10.6087,5.12512,-31.2891,86.5009,30.1514,-122.009,-10.1929,0.692352,0.215973,-0.166718,0.667908,2588,63491,58740,6061,-30473
1926,20055,5.12969,2.7084,10.4508,5.36682,-31.8878,86.3965,27.1606,-112.488,-18.5547,0.691315,0.220642,-0.169189,0.66684,2503,63461,58624,6061,-30473
1932,20061,5.10576,2.87109,10.3934,5.61951,-32.4261,86.2427,23.4375,-101.44,-27.3438,0.690582,0.225006,-0.171356,0.665558,2438,63436,58718,6061,-30473
1938,20067,5.08184,2.78496,10.4221,5.88318,-32.9095,86.0449,17.0898,-86.4868,-34.668,0.690247,0.229004,-0.173187,0.664093,2336,63415,58714,6061,-30473
1944,20073,5.23496,2.64141,10.4938,6.35559,-33.6017,85.556,8.91113,-66.5283,-39.3677,0.690247,0.232391,-0.174683,0.662506,2189,63385,58702,6061,-30473
1950,20079,5.62734,2.25381,10.6422,6.53687,-33.761,85.3088,-3.90625,-10.498,-40.5273,0.691345,0.236603,-0.176208,0.659485,2133,63371,58697,6061,-30473
1956,20085,5.79961,1.98584,10.5656,6.67969,-33.7775,85.0836,-7.14111,20.9961,-36.6211,0.692291,0.237183,-0.175934,0.658325,2087,63361,58690,6061,-30473
1962,20091,5.89531,1.63174,10.3934,6.77856,-33.6346,84.9133,-9.94873,49.3164,-30.0903,0.69342,0.236725,-0.174866,0.657623,1999,63351,58683,6061,-30473
1968,20097,5.93359,1.27764,10.068,6.828,-33.3545,84.798,-13.6108,70.1904,-21.2402,0.69455,0.235321,-0.173065,0.657379,1920,63341,58672,6061,-30473
1974,20103,5.9958,1.13887,9.75215,6.75659,-32.5525,84.7815,-17.5781,82.5195,-11.8408,0.695618,0.233124,-0.170837,0.657593,1784,63326,58651,6061,-30473
1980,20109,5.95273,1.55518,9.3502,6.65222,-32.1075,84.8529,-24.7803,86.792,1.15967,0.697296,0.227417,-0.166168,0.659058,1725,63320,58641,6061,-30473
1986,20115,5.76611,1.54561,9.16357,6.5094,-31.6681,84.9518,-26.6113,86.5479,5.00488,0.697906,0.224274,-0.164001,0.660034,1671,63312,58634,6061,-30473
1992,20121,5.59385,1.63652,8.90518,6.3501,-31.2341,85.0781,-28.0151,84.4727,7.75146,0.698395,0.221039,-0.161987,0.661102,1667,63305,58634,6061,-30473
1998,20127,5.46465,1.68916,8.7042,6.17981,-30.8167,85.2155,-28.9307,80.0781,9.21631,0.698792,0.217834,-0.160065,0.662201,1657,63296,58635,6061,-30473
2004,20133,5.40244,1.59346,8.4458,5.81726,-30.0531,85.5011,-29.6021,74.0967,10.7422,0.699097,0.214722,-0.158356,0.6633,1663,63275,58643,6061,-30473
2010,20139,5.21104,1.34941,8.07734,5.63599,-29.7235,85.6494,-27.771,59.9976,14.4653,0.699402,0.208984,-0.155548,0.665466,1680,63267,58647,6061,-30473
2016,20145,5.13926,1.42598,7.9625,5.46021,-29.4324,85.8032,-25.4517,51.7578,15.7471,0.699402,0.206482,-0.15448,0.666504,1689,63257,58650,6061,-30473
2022,20151,5.12969,1.58867,7.87637,5.29541,-29.1797,85.9625,-22.0337,42.0532,15.3809,0.699249,0.204254,-0.153595,0.667542,1690,63248,58654,6061,-30473
2028,20157,5.05312,1.73701,7.89072,5.15259,-28.9819,86.1108,-17.9443,32.4097,13.0005,0.699005,0.202454,-0.152924,0.668518,1738,63238,58659,6061,-30473
2034,20163,4.91914,1.79922,7.99121,4.96033,-28.7128,86.347,-13.3057,24.353,9.70459,0.69873,0.20105,-0.152374,0.669342,1806,63218,58675,6061,-30473
2040,20169,4.74688,1.7083,8.24961,4.91638,-28.6249,86.424,-4.69971,14.9536,2.13623,0.698212,0.199432,-0.151489,0.670563,1830,63210,58684,6061,-30473
2046,20175,4.75166,1.65566,8.35967,4.9054,-28.5535,86.4844,-1.2207,11.1694,-1.40381,0.698029,0.199036,-0.151031,0.67099,1848,63243,58691,6061,-30473
2052,20181,4.74688,1.39248,8.38838,4.92188,-28.4985,86.5173,1.15967,6.53076,-3.96729,0.697906,0.198853,-0.150543,0.671265,1863,63272,58697,6061,-30473
2058,20187,4.77559,1.22979,8.38838,4.96033,-28.4711,86.5338,2.19727,0.183105,-5.61523,0.697784,0.198944,-0.150116,0.671448,1874,63298,58701,6061,-30473
2064,20193,4.8043,1.27764,8.38838,5.0647,-28.504,86.5283,3.11279,-7.62939,-7.56836,0.697693,0.199219,-0.149811,0.671539,1893,63339,58712,6061,-30473
2070,20199,4.9335,1.42598,8.40273,5.13062,-28.5864,86.5009,3.11279,-24.5361,-11.4136,0.697479,0.200592,-0.149902,0.671356,1901,63358,58718,6061,-30473
2076,20205,4.98613,1.34941,8.53672,5.20203,-28.7073,86.4569,4.08936,-29.0527,-12.3901,0.697388,0.20166,-0.150299,0.671051,1909,63374,58722,6061,-30473
2082,20211,4.96699,1.29678,8.80947,5.27893,-28.8446,86.4075,6.10352,-27.2827,-11.4136,0.697266,0.202881,-0.150787,0.670685,1920,63390,58723,6061,-30473
2088,20217,4.94785,1.17715,9.01523,5.36682,-28.9764,86.369,7.62939,-20.5688,-9.15527,0.697113,0.204102,-0.151184,0.67038,1937,63404,58721,6061,-30473
2094,20223,4.99092,1.04316,9.16357,5.52063,-29.1357,86.3361,6.83594,-12.2681,-5.92041,0.69693,0.205139,-0.151337,0.670197,1968,63429,58718,6061,-30473
2100,20229,5.0627,1.02881,9.34062,5.56458,-29.1632,86.358,-0.976563,-0.305176,-0.976563,0.696472,0.206329,-0.151184,0.670349,1982,63399,58720,6061,-30473
2106,20235,5.01006,1.07187,9.33584,5.57556,-29.1632,86.391,-5.5542,4.21143,0.549316,0.696259,0.206451,-0.151062,0.670563,1993,63374,58726,6061,-30473
2112,20241,4.97178,1.12451,9.2832,5.55908,-29.1412,86.4404,-9.76563,7.69043,1.77002,0.696045,0.206299,-0.15097,0.670868,2001,63352,58735,6061,-30473
2118,20247,4.9335,1.225,9.19229,5.51514,-29.1083,86.4954,-13.3057,10.6201,2.68555,0.695862,0.205902,-0.150879,0.671204,2010,63332,58742,6061,-30473
2124,20253,4.97656,1.37813,9.05352,5.37231,-28.9929,86.6327,-16.1133,13.0005,3.23486,0.695679,0.205322,-0.150818,0.67157,2022,63296,58752,6061,-30473
2130,20259,5.17275,1.78486,8.60371,5.27893,-28.9215,86.7041,-20.6299,13.1226,2.86865,0.695404,0.203705,-0.150757,0.672363,2025,63280,58755,6061,-30473
2136,20265,5.37852,2.0002,8.31182,5.18005,-28.8611,86.77,-21.6675,9.76563,2.19727,0.695313,0.20282,-0.150818,0.672699,2025,63265,58755,6061,-30473
2142,20271,5.48379,2.08154,8.14434,5.08118,-28.8116,86.8304,-20.9961,6.46973,2.19727,0.695221,0.202026,-0.151031,0.673004,2027,63293,58756,6061,-30473
2148,20277,5.45986,2.18203,8.13477,4.9823,-28.7842,86.8854,-18.5547,6.10352,3.11279,0.695129,0.201324,-0.151306,0.673248,2026,63317,58757,6061,-30473
2154,20283,5.44551,2.16289,8.12998,4.82849,-28.7128,87.0172,-14.0991,9.39941,5.49316,0.694977,0.200745,-0.15155,0.673523,2026,63355,58759,6061,-30473
2160,20289,5.30674,2.2251,8.21133,4.77356,-28.6414,87.1106,-6.7749,21.4233,9.70459,0.694427,0.199554,-0.151306,0.6745,2025,63372,58759,6061,-30473
2166,20295,5.2541,2.20596,8.24961,4.72412,-28.5425,87.2095,-4.82178,26.123,9.82666,0.694092,0.198822,-0.150787,0.675171,2023,63385,58764,6061,-30473
2172,20301,5.2541,2.19639,8.24004,4.69116,-28.4216,87.3083,-3.84521,28.5034,8.97217,0.693787,0.198029,-0.150085,0.675873,2021,63396,58767,6061,-30473
2178,20307,5.23496,2.12461,8.15391,4.6582,-28.2898,87.4072,-3.2959,28.8696,7.8125,0.693512,0.197205,-0.149261,0.676575,2017,63404,58774,6061,-30473
2184,20313,5.23496,2.01455,8.08691,4.61975,-28.0261,87.5775,-2.38037,27.0386,7.08008,0.693268,0.196411,-0.148407,0.677246,2016,63415,58782,6061,-30473
2190,20319,5.32588,2.03848,7.929,4.61426,-27.9163,87.6544,0.0610352,19.8364,6.83594,0.69278,0.195129,-0.14679,0.678497,2018,63419,58783,6061,-30473
2196,20325,5.39766,2.10547,7.84766,4.61426,-27.8284,87.7313,2.13623,13.6719,6.83594,0.692474,0.194702,-0.146118,0.679047,2016,63422,58779,6061,-30473
2202,20331,5.55078,2.25859,7.79023,4.63074,-27.7734,87.8027,4.69971,4.69971,6.83594,0.692108,0.194519,-0.145569,0.679565,2011,63426,58776,6061,-30473
2208,20337,5.65127,2.28252,7.76152,4.6582,-27.757,87.8687,6.65283,-6.10352,6.10352,0.691711,0.194702,-0.145203,0.680023,2054,63430,58776,6061,-30473
2214,20343,5.76133,2.25859,7.85244,4.75159,-27.8998,87.9785,7.99561,-17.0288,6.04248,0.691223,0.195282,-0.145111,0.680389,2119,63439,58775,6061,-30473
2220,20349,5.81875,2.24424,8.37881,4.80652,-28.0426,88.028,10.6201,-31.3721,8.91113,0.690002,0.197479,-0.145782,0.680847,2145,63443,58773,6061,-30473
2226,20355,5.82832,2.24902,8.6707,4.86694,-28.2129,88.0884,11.2915,-32.2876,11.3525,0.68924,0.198883,-0.146362,0.681061,2170,63448,58770,6061,-30473
2232,20361,5.88574,2.25859,8.91953,4.92737,-28.3832,88.1598,11.0474,-30.0293,13.6719,0.688416,0.200348,-0.146973,0.681335,2193,63453,58766,6061,-30473
2238,20367,5.95273,2.37822,9.16836,4.97681,-28.548,88.2422,10.2539,-26.3672,15.4419,0.687531,0.201721,-0.147522,0.681702,2217,63457,58763,6061,-30473
2244,20373,6.07715,2.54092,9.33105,5.04272,-28.8171,88.4399,8.30078,-21.5454,16.3574,0.686646,0.202911,-0.14801,0.682129,2169,63463,58760,6061,-30473
2250,20379,6.24941,2.73711,9.46025,5.04822,-28.9105,88.5443,2.2583,-7.32422,17.4561,0.684937,0.20462,-0.148743,0.683167,2152,63466,58760,6061,-30473
2256,20385,6.27334,2.78496,9.37412,5.04272,-28.96,88.6597,-0.610352,1.2207,17.9443,0.684204,0.205017,-0.148926,0.683777,2139,63472,58760,6061,-30473
2262,20391,6.3499,2.91416,9.28799,5.01526,-28.9709,88.775,-2.92969,9.94873,18.9209,0.683502,0.205078,-0.148926,0.684448,2128,63478,58756,6061,-30473
2268,20397,6.38818,2.98115,9.06309,4.97131,-28.938,88.9069,-3.78418,19.165,20.3857,0.682892,0.204803,-0.148743,0.685181,2118,63484,58754,6061,-30473
2274,20403,6.40732,2.91895,8.7042,4.86694,-28.7402,89.198,-3.17383,27.2217,22.583,0.682281,0.204224,-0.148315,0.686035,2100,63493,58743,6061,-30473
2280,20409,6.45039,2.66533,7.94814,4.81201,-28.6029,89.3683,3.60107,31.8604,28.8086,0.681,0.202515,-0.146851,0.688141,2097,63494,58737,6061,-30473
2286,20415,6.45039,2.66533,7.60361,4.77356,-28.4711,89.5551,9.09424,26.4893,32.6538,0.680176,0.201752,-0.145935,0.689392,2099,63494,58727,6061,-30473
2292,20421,6.38818,2.79932,7.3165,4.75708,-28.3667,89.7638,14.7095,17.6392,35.7666,0.679138,0.201263,-0.14505,0.690735,2102,63494,58720,6061,-30473
2298,20427,6.3499,2.8998,7.13467,4.76257,-28.3063,89.978,20.874,4.88281,37.9639,0.677917,0.201233,-0.144287,0.692108,2103,63493,58718,6061,-30473
2304,20433,6.34033,3.01465,7.04854,4.86694,-28.3997,90.4175,28.0151,-10.6201,37.7808,0.676514,0.201752,-0.143738,0.693451,2090,63497,58718,6061,-30473
2310,20439,6.29727,3.12471,7.02461,4.97681,-28.5754,90.6042,36.6211,-45.0439,33.3862,0.673279,0.204895,-0.143463,0.69574,2081,63501,58719,6061,-30473
2316,20445,6.40732,3.23477,6.94326,5.11414,-28.8336,90.7745,37.3535,-58.1665,29.9072,0.67157,0.207397,-0.14389,0.696533,2073,63505,58717,6061,-30473
2322,20451,6.0915,3.2874,7.34521,5.26794,-29.1522,90.9119,38.6963,-63.9648,25.8789,0.669861,0.210388,-0.144623,0.697144,2068,63470,58713,6061,-30473
