TimeSinceCollection,Timestamp,AccX,AccY,AccZ,AngleRoll,AnglePitch,AngleYaw,AngularVelX,AngularVelY,AngularVelZ,Q1,Q2,Q3,Q4,MagX,MagY,MagZ,Height,Airpressure
0,121542,-9.78564,-0.368457,0,-95.7404,87.4017,-142.086,0,0.183105,1.40381,0.64212,0.264038,0.657623,-0.292175,-6.85,11.3667,-109.467,-1489,-29568
6,121548,-9.78086,-0.358887,-0.0191406,-95.7843,87.4072,-142.136,0,0.305176,1.52588,0.64212,0.26413,0.657623,-0.292175,-6.85,11.375,-109.475,-1489,-29568
12,121554,-9.77129,-0.358887,-0.0287109,-95.8008,87.4072,-142.158,0.0610352,0.12207,0.610352,0.64212,0.264191,0.657593,-0.292175,-6.83333,11.3667,-109.5,-1489,-29568
18,121560,-9.78086,-0.363672,-0.0478516,-95.8392,87.4127,-142.202,0,0.305176,0,0.64209,0.264313,0.657562,-0.292206,-6.8,11.3667,-109.508,-1489,-29568
24,121566,-9.79521,-0.382813,-0.0382813,-95.8997,87.4072,-142.273,0,0.366211,-0.610352,0.642059,0.264343,0.657562,-0.292236,-6.78333,11.3667,-109.5,-1489,-29568
30,121572,-9.77607,-0.378027,-0.0191406,-95.9216,87.4017,-142.3,0.12207,0.366211,-0.915527,0.642029,0.264343,0.657562,-0.292267,-6.76667,11.375,-109.5,-1489,-29568
36,121578,-9.79521,-0.406738,-0.0478516,-95.9491,87.3962,-142.333,0,0.427246,-1.2207,0.641998,0.264374,0.657562,-0.292328,-6.76667,11.375,-109.508,-1489,-29568
42,121584,-9.77129,-0.392383,-0.0430664,-95.9601,87.3907,-142.35,-0.12207,0.305176,-1.77002,0.641968,0.264374,0.657562,-0.292389,-6.775,11.35,-109.517,-1489,-29568
48,121590,-9.79521,-0.401953,-0.0430664,-95.9381,87.3743,-142.339,0,0.12207,-1.95313,0.641876,0.264343,0.657593,-0.292511,-6.75,11.325,-109.525,-1489,-29568
54,121596,-9.79521,-0.449805,-0.0382813,-95.9106,87.3633,-142.311,0,-0.0610352,-1.77002,0.641846,0.264313,0.657623,-0.292603,-6.75833,11.3167,-109.542,-1489,-29568
60,121602,-9.81436,-0.440234,-0.0143555,-95.9052,87.3578,-142.311,0,0.183105,-1.83105,0.641815,0.264282,0.657623,-0.292664,-6.75833,11.3,-109.567,-1489,-29568
66,121608,-9.80479,-0.46416,-0.0334961,-95.8832,87.3468,-142.295,-0.12207,0,-1.58691,0.641785,0.264252,0.657623,-0.292755,-6.74167,11.3083,-109.583,-1489,-29568
72,121614,-9.79521,-0.459375,-0.0526367,-95.8557,87.3413,-142.267,0,-0.0610352,-1.70898,0.641754,0.264252,0.657623,-0.292816,-6.73333,11.3417,-109.617,-1489,-29568
78,121620,-9.80479,-0.478516,-0.0191406,-95.8228,87.3303,-142.245,-0.0610352,0,-0.854492,0.641693,0.264191,0.657654,-0.292938,-6.74167,11.375,-109.583,-1489,-29568
84,121626,-9.80479,-0.483301,-0.0574219,-95.8118,87.3303,-142.24,0,0,-0.549316,0.641663,0.264221,0.657654,-0.292969,-6.75,11.4,-109.55,-1489,-29568
90,121632,-9.80479,-0.488086,-0.0526367,-95.8008,87.3248,-142.229,-0.12207,-0.0610352,-0.427246,0.641663,0.264221,0.657654,-0.29303,-6.75833,11.425,-109.517,-1489,-29568
96,121638,-9.8335,-0.478516,-0.062207,-95.7898,87.3248,-142.224,0.183105,-0.0610352,-0.0610352,0.641632,0.264221,0.657623,-0.29303,-6.775,11.45,-109.5,-1489,-29568
102,121644,-9.8,-0.46416,-0.0478516,-95.7733,87.3248,-142.213,0,-0.12207,0,0.641632,0.264252,0.657623,-0.29306,-6.80833,11.4667,-109.483,-1489,-29568
108,121650,-9.77607,-0.468945,-0.0430664,-95.7074,87.3303,-142.152,0.0610352,-0.366211,0.488281,0.641632,0.264282,0.657593,-0.293091,-6.84167,11.475,-109.492,-1489,-29568
114,121656,-9.82871,-0.468945,-0.0574219,-95.6525,87.3358,-142.097,0.0610352,-0.549316,0.488281,0.641663,0.264313,0.657562,-0.293091,-6.88333,11.475,-109.492,-1489,-29568
120,121662,-9.81436,-0.459375,-0.0382813,-95.5975,87.3413,-142.042,0,-0.610352,1.15967,0.641663,0.264313,0.657532,-0.293091,-6.90833,11.4833,-109.5,-1489,-29568
126,121668,-9.80957,-0.44502,-0.0191406,-95.5371,87.3468,-141.982,0,-0.671387,1.0376,0.641693,0.264343,0.657501,-0.293091,-6.94167,11.4833,-109.483,-1489,-29568
132,121674,-9.80957,-0.44502,-0.0526367,-95.4767,87.3523,-141.927,0.0610352,-0.610352,0.915527,0.641724,0.264374,0.657471,-0.29306,-6.96667,11.4917,-109.35,-1489,-29568
138,121680,-9.80479,-0.421094,-0.00957031,-95.3888,87.3633,-141.839,0.12207,-0.427246,0.976563,0.641785,0.264465,0.65741,-0.29306,-6.99167,11.5,-109.292,-1489,-29568
144,121686,-9.79043,-0.421094,-0.0334961,-95.3668,87.3688,-141.817,0,-0.305176,1.0376,0.641815,0.264496,0.657379,-0.29303,-6.98333,11.5,-109.242,-1489,-29568
150,121692,-9.77607,-0.430664,-0.0478516,-95.3394,87.3688,-141.795,0.12207,-0.244141,0.366211,0.641815,0.264526,0.657349,-0.29303,-7,11.5167,-109.2,-1489,-29568
156,121698,-9.78564,-0.406738,-0.0191406,-95.3284,87.3743,-141.784,-0.0610352,-0.183105,0.671387,0.641815,0.264557,0.657349,-0.29303,-7.01667,11.5333,-109.208,-1489,-29568
162,121704,-9.8,-0.401953,-0.0143555,-95.3339,87.3743,-141.79,0,0,0.549316,0.641846,0.264557,0.657318,-0.292999,-7.00833,11.5333,-109.233,-1489,-29568
168,121710,-9.79043,-0.411523,-0.0239258,-95.3778,87.3798,-141.844,-0.12207,0.12207,0,0.641846,0.264618,0.657318,-0.292999,-6.975,11.5417,-109.25,-1489,-29568
174,121716,-9.75693,-0.425879,-0.0239258,-95.4108,87.3798,-141.877,-0.0610352,0.305176,-0.12207,0.641815,0.264648,0.657318,-0.292999,-6.95,11.5333,-109.275,-1489,-29568
180,121722,-9.81436,-0.430664,-0.0287109,-95.4712,87.3798,-141.943,0,0.610352,0,0.641815,0.264648,0.657318,-0.29303,-6.925,11.55,-109.325,-1489,-29568
186,121728,-9.76172,-0.425879,-0.0239258,-95.5261,87.3743,-142.004,-0.12207,0.549316,-0.183105,0.641785,0.264679,0.657318,-0.29303,-6.9,11.5583,-109.333,-1489,-29568
192,121734,-9.80957,-0.397168,-0.0382813,-95.5865,87.3743,-142.064,0,0.610352,-0.305176,0.641754,0.264709,0.657318,-0.29306,-6.875,11.5417,-109.358,-1489,-29568
198,121740,-9.76172,-0.45459,-0.0334961,-95.7184,87.3688,-142.202,-0.0610352,0.732422,-0.427246,0.641693,0.26474,0.657349,-0.293091,-6.85833,11.525,-109.392,-1489,-29568
204,121746,-9.8,-0.435449,-0.0382813,-95.7843,87.3688,-142.278,0.0610352,0.732422,-0.610352,0.641663,0.264771,0.657349,-0.293121,-6.83333,11.5083,-109.417,-1489,-29568
210,121752,-9.8335,-0.421094,-0.0334961,-95.8502,87.3633,-142.344,0.12207,0.671387,-0.488281,0.641632,0.264771,0.657379,-0.293152,-6.80833,11.4833,-109.425,-1489,-29568
216,121758,-9.77607,-0.440234,-0.0478516,-95.9052,87.3633,-142.405,0,0.610352,-0.488281,0.641602,0.264801,0.657379,-0.293182,-6.8,11.4667,-109.408,-1489,-29568
222,121764,-9.82871,-0.421094,-0.0526367,-95.9546,87.3633,-142.454,0.0610352,0.488281,-0.244141,0.641571,0.264832,0.65741,-0.293213,-6.80833,11.475,-109.342,-1489,-29568
228,121770,-9.78086,-0.449805,-0.0239258,-95.9875,87.3578,-142.498,0,0.244141,-0.0610352,0.64151,0.264862,0.65741,-0.293274,-6.83333,11.5,-109.358,-1489,-29568
234,121776,-9.84307,-0.440234,-0.0526367,-95.9875,87.3578,-142.504,0,0,0,0.64151,0.264893,0.65741,-0.293304,-6.84167,11.5417,-109.375,-1489,-29568
240,121782,-9.77607,-0.44502,-0.0239258,-95.9821,87.3633,-142.504,0,0,0.0610352,0.641479,0.264923,0.657379,-0.293304,-6.85,11.575,-109.367,-1489,-29568
246,121788,-9.85742,-0.44502,-0.062207,-95.9546,87.3633,-142.476,-0.0610352,-0.305176,0.427246,0.641479,0.264954,0.657379,-0.293335,-6.875,11.5833,-109.367,-1489,-29568
252,121794,-9.77129,-0.459375,-0.0430664,-95.9052,87.3633,-142.432,0,-0.427246,0.0610352,0.641479,0.264984,0.657349,-0.293335,-6.91667,11.575,-109.375,-1489,-29568
258,121800,-9.79521,-0.44502,-0.0191406,-95.8063,87.3688,-142.339,-0.0610352,-0.488281,0.549316,0.64151,0.265015,0.657318,-0.293365,-6.93333,11.575,-109.392,-1489,-29568
264,121806,-9.80957,-0.45459,-0.0382813,-95.7404,87.3743,-142.278,0,-0.610352,0.244141,0.641541,0.265045,0.657288,-0.293365,-6.94167,11.5667,-109.4,-1489,-29568
270,121812,-9.8,-0.411523,-0.0239258,-95.6744,87.3743,-142.213,0.12207,-0.671387,0.610352,0.641541,0.265076,0.657257,-0.293396,-6.95833,11.5667,-109.375,-1489,-29568
276,121818,-9.7665,-0.425879,-0.0526367,-95.614,87.3743,-142.152,0,-0.549316,0.12207,0.641571,0.265106,0.657227,-0.293396,-6.95833,11.5583,-109.333,-1489,-29568
282,121824,-9.78564,-0.44502,-0.0334961,-95.5426,87.3798,-142.086,0.12207,-0.610352,0.12207,0.641571,0.265106,0.657166,-0.293427,-6.93333,11.525,-109.333,-1489,-29568
288,121830,-9.8,-0.430664,-0.00478516,-95.4218,87.3798,-141.971,0,-0.671387,0.0610352,0.641602,0.265137,0.657135,-0.293457,-6.90833,11.525,-109.358,-1489,-29568
294,121836,-9.8,-0.449805,-0.0239258,-95.3723,87.3853,-141.927,0,-0.427246,0.183105,0.641602,0.265167,0.657104,-0.293457,-6.9,11.525,-109.383,-1489,-29568
300,121842,-9.7665,-0.416309,-0.0143555,-95.3394,87.3853,-141.894,0,-0.305176,0,0.641602,0.265167,0.657074,-0.293488,-6.90833,11.5417,-109.35,-1489,-29568
306,121848,-9.7665,-0.435449,-0.0334961,-95.3119,87.3853,-141.872,0,-0.183105,-0.0610352,0.641632,0.265198,0.657074,-0.293518,-6.90833,11.5583,-109.325,-1489,-29568
312,121854,-9.77607,-0.416309,0.0287109,-95.2789,87.3853,-141.839,-0.0610352,-0.305176,-0.0610352,0.641602,0.265228,0.657043,-0.293549,-6.88333,11.575,-109.325,-1489,-29568
318,121860,-9.78086,-0.440234,0.00478516,-95.2679,87.3798,-141.839,0,0.244141,-0.671387,0.641602,0.265228,0.657013,-0.293579,-6.88333,11.5917,-109.333,-1489,-29568
324,121866,-9.79043,-0.435449,-0.0287109,-95.2789,87.3743,-141.855,-0.0610352,0.244141,-0.793457,0.641571,0.265259,0.657013,-0.29364,-6.89167,11.5833,-109.35,-1489,-29568
330,121872,-9.78086,-0.430664,-0.0430664,-95.3064,87.3688,-141.888,0,0.366211,-0.732422,0.641541,0.265259,0.657043,-0.293671,-6.90833,11.5833,-109.358,-1489,-29568
336,121878,-9.81914,-0.425879,-0.00957031,-95.3503,87.3688,-141.938,-0.0610352,0.488281,-0.793457,0.64151,0.265259,0.657043,-0.293732,-6.91667,11.6,-109.383,-1489,-29568
342,121884,-9.77129,-0.430664,-0.0478516,-95.4163,87.3633,-142.009,0,0.732422,-0.854492,0.641449,0.265289,0.657074,-0.293793,-6.925,11.6167,-109.392,-1489,-29568
348,121890,-9.80957,-0.440234,-0.0334961,-95.5151,87.3578,-142.119,0,0.488281,-0.549316,0.641418,0.26532,0.657074,-0.293854,-6.925,11.6167,-109.375,-1489,-29568
354,121896,-9.81436,-0.440234,-0.0191406,-95.5646,87.3578,-142.174,0,0.549316,-0.549316,0.641388,0.26535,0.657074,-0.293884,-6.91667,11.6083,-109.383,-1489,-29568
360,121902,-9.79521,-0.440234,-0.0334961,-95.5756,87.3523,-142.196,0.0610352,0.244141,-0.610352,0.641327,0.265381,0.657074,-0.293915,-6.875,11.6,-109.4,-1489,-29568
366,121908,-9.80479,-0.440234,-0.0574219,-95.603,87.3523,-142.224,0,0.305176,-0.366211,0.641296,0.265381,0.657074,-0.293976,-6.84167,11.575,-109.383,-1489,-29568
372,121914,-9.79043,-0.46416,-0.0191406,-95.603,87.3523,-142.229,0.0610352,0.0610352,-0.183105,0.641266,0.265442,0.657074,-0.294037,-6.79167,11.525,-109.4,-1489,-29568
378,121920,-9.82871,-0.459375,-0.0239258,-95.6085,87.3523,-142.245,0,0.0610352,0.12207,0.641266,0.265472,0.657043,-0.294067,-6.78333,11.5167,-109.4,-1489,-29568
384,121926,-9.80957,-0.459375,-0.0430664,-95.603,87.3523,-142.245,-0.0610352,0,0.183105,0.641235,0.265503,0.657043,-0.294098,-6.8,11.5,-109.4,-1489,-29568
390,121932,-9.8,-0.468945,-0.0239258,-95.603,87.3578,-142.251,0.183105,-0.0610352,0.732422,0.641235,0.265533,0.657013,-0.294128,-6.80833,11.5,-109.4,-1489,-29568
396,121938,-9.8335,-0.46416,-0.0287109,-95.603,87.3578,-142.256,0.0610352,0,0.793457,0.641235,0.265594,0.657013,-0.294128,-6.8,11.5,-109.375,-1489,-29568
402,121944,-9.80479,-0.46416,-0.00478516,-95.6085,87.3633,-142.267,0,0,0.976563,0.641235,0.265717,0.656952,-0.294159,-6.80833,11.4583,-109.35,-1489,-29568
408,121950,-9.81436,-0.425879,-0.0382813,-95.636,87.3743,-142.306,0,0.12207,1.15967,0.641235,0.265778,0.656921,-0.294159,-6.80833,11.45,-109.342,-1489,-29568
414,121956,-9.77607,-0.435449,-0.0191406,-95.6525,87.3798,-142.328,0,0.0610352,1.28174,0.641235,0.265839,0.656891,-0.294159,-6.81667,11.4417,-109.342,-1489,-29568
420,121962,-9.79521,-0.430664,-0.0382813,-95.6525,87.3907,-142.339,0.0610352,-0.0610352,1.40381,0.641235,0.2659,0.65686,-0.294159,-6.80833,11.4333,-109.358,-1489,-29568
426,121968,-9.77129,-0.416309,-0.0191406,-95.6635,87.3962,-142.35,0,0,1.09863,0.641235,0.265991,0.65683,-0.294159,-6.79167,11.4167,-109.367,-1489,-29568
432,121974,-9.80479,-0.435449,-0.0382813,-95.658,87.3962,-142.355,0,-0.0610352,0.976563,0.641235,0.266113,0.656799,-0.294159,-6.74167,11.3583,-109.417,-1489,-29568
438,121980,-9.79521,-0.387598,-0.0239258,-95.6689,87.4072,-142.377,0.0610352,0.183105,0.610352,0.641235,0.266144,0.656769,-0.294159,-6.725,11.325,-109.467,-1489,-29568
444,121986,-9.77607,-0.411523,-0.0239258,-95.6689,87.4072,-142.377,0.0610352,0,0.305176,0.641235,0.266205,0.656738,-0.294189,-6.71667,11.3,-109.517,-1489,-29568
450,121992,-9.78564,-0.416309,-0.0430664,-95.6799,87.4072,-142.394,0,0.12207,0.0610352,0.641205,0.266235,0.656738,-0.294189,-6.74167,11.3,-109.55,-1489,-29568
456,121998,-9.79043,-0.392383,-0.00478516,-95.658,87.4072,-142.383,0.0610352,-0.12207,0.0610352,0.641205,0.266266,0.656708,-0.29422,-6.76667,11.2917,-109.533,-1489,-29568
462,122004,-9.77607,-0.411523,-0.0143555,-95.658,87.4072,-142.388,-0.0610352,0.0610352,-0.244141,0.641174,0.266327,0.656677,-0.294312,-6.825,11.3,-109.475,-1489,-29568
468,122010,-9.77129,-0.401953,-0.0334961,-95.636,87.4017,-142.372,-0.12207,0,-0.549316,0.641144,0.266357,0.656677,-0.294342,-6.84167,11.2833,-109.458,-1489,-29568
474,122016,-9.80479,-0.401953,-0.0334961,-95.5975,87.3962,-142.344,0,-0.183105,-0.915527,0.641144,0.266388,0.656677,-0.294373,-6.86667,11.2833,-109.458,-1489,-29568
480,122022,-9.77129,-0.421094,-0.0574219,-95.5811,87.3962,-142.328,0,-0.0610352,-0.854492,0.641113,0.266388,0.656647,-0.294434,-6.86667,11.2917,-109.458,-1489,-29568
486,122028,-9.79521,-0.425879,-0.0287109,-95.5646,87.3907,-142.317,0.12207,0,-0.976563,0.641113,0.266388,0.656647,-0.294495,-6.88333,11.2917,-109.45,-1489,-29568
492,122034,-9.80479,-0.425879,-0.0239258,-95.5426,87.3853,-142.3,-0.0610352,-0.0610352,-1.15967,0.641052,0.266388,0.656647,-0.294617,-6.86667,11.325,-109.525,-1489,-29568
498,122040,-9.8,-0.45459,-0.0287109,-95.4932,87.3743,-142.262,-0.0610352,-0.0610352,-1.2207,0.641022,0.266388,0.656647,-0.294678,-6.86667,11.3417,-109.575,-1489,-29568
504,122046,-9.79521,-0.459375,-0.0143555,-95.4822,87.3688,-142.256,0,0,-0.793457,0.640991,0.266357,0.656647,-0.294708,-6.86667,11.35,-109.608,-1489,-29568
510,122052,-9.79043,-0.478516,-0.0191406,-95.4657,87.3688,-142.24,0,-0.0610352,-0.732422,0.640991,0.266388,0.656647,-0.294769,-6.84167,11.3417,-109.625,-1489,-29568
516,122058,-9.80479,-0.44502,-0.0334961,-95.4163,87.3633,-142.196,0,-0.366211,-0.610352,0.640961,0.266388,0.656647,-0.29483,-6.84167,11.325,-109.633,-1489,-29568
522,122064,-9.80479,-0.45459,-0.0239258,-95.4053,87.3633,-142.191,0,0,-0.610352,0.64093,0.266418,0.656616,-0.294922,-6.83333,11.3083,-109.65,-1489,-29568
528,122070,-9.80957,-0.46416,-0.00957031,-95.4053,87.3578,-142.202,0.0610352,0.0610352,0.12207,0.64093,0.266418,0.656616,-0.294952,-6.825,11.3083,-109.683,-1489,-29568
534,122076,-9.79521,-0.46416,-0.0287109,-95.4163,87.3633,-142.218,0.0610352,0.12207,0.0610352,0.6409,0.266449,0.656586,-0.294983,-6.81667,11.3083,-109.692,-1489,-29568
540,122082,-9.81436,-0.459375,0,-95.4327,87.3633,-142.245,-0.0610352,0.183105,0.549316,0.6409,0.26651,0.656586,-0.295013,-6.80833,11.3167,-109.692,-1489,-29568
546,122088,-9.81436,-0.430664,-0.0478516,-95.4382,87.3633,-142.251,0,0.0610352,0.183105,0.640869,0.266541,0.656555,-0.295013,-6.78333,11.325,-109.667,-1489,-29568
552,122094,-9.81436,-0.459375,-0.0191406,-95.4712,87.3688,-142.295,0,0.305176,0.671387,0.640869,0.266632,0.656525,-0.295044,-6.75833,11.3333,-109.558,-1489,-29568
558,122100,-9.79043,-0.46416,-0.0574219,-95.5042,87.3743,-142.339,0,0.0610352,0.915527,0.640839,0.266693,0.656525,-0.295074,-6.75833,11.3417,-109.492,-1489,-29568
564,122106,-9.79521,-0.430664,-0.0334961,-95.5096,87.3798,-142.35,0,0,0.854492,0.640839,0.266754,0.656494,-0.295074,-6.76667,11.3417,-109.45,-1489,-29568
570,122112,-9.79521,-0.45459,-0.0287109,-95.5151,87.3853,-142.361,0,0,0.976563,0.640839,0.266815,0.656464,-0.295074,-6.79167,11.3417,-109.425,-1489,-29568
576,122118,-9.81914,-0.435449,-0.0191406,-95.5206,87.3907,-142.372,0,0,0.976563,0.640839,0.266876,0.656433,-0.295074,-6.80833,11.3333,-109.4,-1489,-29568
582,122124,-9.78086,-0.435449,-0.0382813,-95.5096,87.3962,-142.361,0,-0.0610352,1.0376,0.640839,0.266998,0.656372,-0.295074,-6.83333,11.3083,-109.392,-1489,-29568
588,122130,-9.79521,-0.421094,-0.0239258,-95.5042,87.4017,-142.366,-0.0610352,-0.0610352,0.549316,0.640839,0.267059,0.656342,-0.295105,-6.85833,11.275,-109.375,-1489,-29568
594,122136,-9.79043,-0.430664,0,-95.4932,87.4072,-142.366,0.12207,-0.0610352,0.488281,0.640839,0.26709,0.656342,-0.295105,-6.875,11.25,-109.35,-1489,-29568
600,122142,-9.78086,-0.401953,-0.0430664,-95.4932,87.4072,-142.372,0,0,0.427246,0.640839,0.267151,0.656311,-0.295135,-6.875,11.225,-109.308,-1489,-29568
606,122148,-9.77607,-0.425879,-0.0191406,-95.5096,87.4127,-142.388,0,0.12207,0.488281,0.640839,0.267181,0.656281,-0.295135,-6.89167,11.2,-109.3,-1489,-29568
612,122154,-9.79043,-0.411523,-0.00478516,-95.4987,87.4127,-142.383,0.183105,0.12207,0.0610352,0.640808,0.267273,0.65625,-0.295197,-6.9,11.2083,-109.317,-1489,-29568
618,122160,-9.78564,-0.425879,-0.0191406,-95.5206,87.4072,-142.421,-0.0610352,0.244141,-0.488281,0.640778,0.267303,0.65625,-0.295227,-6.9,11.2167,-109.367,-1489,-29568
624,122166,-9.79521,-0.416309,-0.0239258,-95.5261,87.4072,-142.438,0,0.12207,0,0.640778,0.267334,0.65625,-0.295288,-6.90833,11.2333,-109.4,-1489,-29568
630,122172,-9.81436,-0.440234,-0.0191406,-95.5536,87.4072,-142.471,0,0.305176,-0.183105,0.640747,0.267365,0.656219,-0.295319,-6.90833,11.2583,-109.408,-1489,-29568
636,122178,-9.80479,-0.411523,-0.0143555,-95.5646,87.4072,-142.482,0,0.183105,-0.488281,0.640717,0.267426,0.656219,-0.295349,-6.91667,11.275,-109.367,-1489,-29568
642,122184,-9.78564,-0.44502,-0.0526367,-95.5701,87.4017,-142.504,0,0.183105,-0.427246,0.640656,0.267456,0.656189,-0.295441,-6.93333,11.3,-109.267,-1489,-29568
648,122190,-9.77607,-0.435449,-0.0287109,-95.5975,87.4017,-142.542,0,0.244141,-0.488281,0.640656,0.267487,0.656189,-0.295502,-6.94167,11.3,-109.192,-1489,-29568
654,122196,-9.81436,-0.406738,-0.00478516,-95.592,87.3962,-142.542,0.0610352,0.0610352,-0.488281,0.640625,0.267517,0.656189,-0.295532,-6.95,11.3,-109.183,-1489,-29568
660,122202,-9.79521,-0.440234,-0.0382813,-95.5756,87.3962,-142.531,0,-0.0610352,-0.366211,0.640594,0.267548,0.656189,-0.295593,-6.95,11.3,-109.208,-1489,-29568
666,122208,-9.80479,-0.430664,-0.0478516,-95.5701,87.3907,-142.526,-0.0610352,0,-0.427246,0.640564,0.267578,0.656158,-0.295624,-6.95,11.3167,-109.258,-1489,-29568
672,122214,-9.79521,-0.435449,-0.0382813,-95.5536,87.3907,-142.515,0,0.0610352,-0.427246,0.640533,0.267609,0.656158,-0.295715,-6.95,11.3333,-109.333,-1489,-29568
678,122220,-9.8,-0.425879,-0.0334961,-95.5151,87.3907,-142.493,0,-0.244141,-0.305176,0.640533,0.267609,0.656128,-0.295746,-6.95833,11.35,-109.342,-1489,-29568
684,122226,-9.78564,-0.459375,-0.0478516,-95.4987,87.3853,-142.476,-0.12207,-0.12207,-0.244141,0.640503,0.267639,0.656128,-0.295807,-6.95,11.3417,-109.358,-1489,-29568
690,122232,-9.82393,-0.449805,-0.0478516,-95.4602,87.3853,-142.443,0.12207,-0.305176,-0.12207,0.640503,0.267639,0.656128,-0.295837,-6.93333,11.3333,-109.392,-1489,-29568
696,122238,-9.78086,-0.449805,-0.0334961,-95.4218,87.3853,-142.41,0.0610352,-0.244141,-0.366211,0.640503,0.26767,0.656097,-0.295868,-6.9,11.325,-109.408,-1489,-29568
702,122244,-9.80479,-0.425879,-0.0143555,-95.3558,87.3853,-142.35,-0.12207,-0.488281,-0.183105,0.640503,0.2677,0.656067,-0.295929,-6.83333,11.3,-109.408,-1489,-29568
708,122250,-9.78564,-0.440234,-0.0382813,-95.2625,87.3853,-142.262,0.0610352,-0.305176,0.0610352,0.640503,0.2677,0.656036,-0.295959,-6.81667,11.3083,-109.433,-1489,-29568
714,122256,-9.80479,-0.44502,-0.0382813,-95.2185,87.3853,-142.224,0,-0.366211,0.12207,0.640503,0.267731,0.656006,-0.29599,-6.81667,11.325,-109.433,-1489,-29568
720,122262,-9.79043,-0.425879,-0.0239258,-95.1965,87.3853,-142.202,0,-0.183105,-0.0610352,0.640503,0.267731,0.656006,-0.296021,-6.825,11.35,-109.475,-1489,-29568
726,122268,-9.78564,-0.440234,-0.0382813,-95.1746,87.3853,-142.185,0,-0.183105,0.183105,0.640503,0.267761,0.655975,-0.296021,-6.83333,11.35,-109.508,-1489,-29568
732,122274,-9.79043,-0.44502,-0.00478516,-95.1581,87.3907,-142.169,0.0610352,-0.183105,0.0610352,0.640503,0.267822,0.655945,-0.296051,-6.81667,11.3333,-109.492,-1489,-29568
738,122280,-9.79043,-0.45459,-0.0287109,-95.1361,87.3907,-142.152,0,0,0.12207,0.640503,0.267822,0.655945,-0.296082,-6.80833,11.3167,-109.508,-1489,-29568
744,122286,-9.79043,-0.430664,-0.0143555,-95.1141,87.3907,-142.141,0,-0.12207,0,0.640503,0.267853,0.655914,-0.296082,-6.80833,11.3167,-109.508,-1489,-29568
750,122292,-9.81436,-0.421094,-0.0191406,-95.1196,87.3907,-142.152,0,0.0610352,0.183105,0.640503,0.267883,0.655914,-0.296112,-6.81667,11.325,-109.55,-1489,-29568
756,122298,-9.79521,-0.430664,-0.0287109,-95.1196,87.3907,-142.152,-0.0610352,0,0.305176,0.640472,0.267914,0.655884,-0.296143,-6.825,11.325,-109.583,-1489,-29568
762,122304,-9.79043,-0.44502,-0.0239258,-95.1361,87.3907,-142.174,0,0.183105,0.183105,0.640472,0.267944,0.655884,-0.296173,-6.83333,11.325,-109.592,-1489,-29568
768,122310,-9.81436,-0.425879,-0.0382813,-95.1581,87.3962,-142.202,0,0.0610352,0.183105,0.640442,0.267975,0.655884,-0.296173,-6.83333,11.325,-109.608,-1489,-29568
774,122316,-9.79521,-0.430664,-0.0239258,-95.1636,87.3962,-142.213,0.12207,0.0610352,0.183105,0.640442,0.268005,0.655853,-0.296204,-6.83333,11.3083,-109.608,-1489,-29568
780,122322,-9.8,-0.435449,-0.0382813,-95.191,87.3962,-142.24,0.183105,0.244141,0.183105,0.640442,0.268036,0.655853,-0.296234,-6.83333,11.2833,-109.608,-1489,-29568
786,122328,-9.80479,-0.421094,-0.0382813,-95.235,87.3962,-142.289,0,0.427246,0.12207,0.640411,0.268097,0.655853,-0.296234,-6.81667,11.25,-109.575,-1489,-29568
792,122334,-9.80957,-0.430664,-0.0574219,-95.2679,87.3962,-142.333,0,0.183105,-0.12207,0.640381,0.268127,0.655823,-0.296265,-6.81667,11.2583,-109.55,-1489,-29568
798,122340,-9.79043,-0.45459,-0.0287109,-95.2679,87.3962,-142.333,0,0,0.0610352,0.640381,0.268158,0.655823,-0.296295,-6.8,11.2583,-109.508,-1489,-29568
804,122346,-9.79043,-0.440234,-0.0239258,-95.3064,87.3962,-142.372,0,0.366211,0.0610352,0.64035,0.268188,0.655823,-0.296295,-6.79167,11.2667,-109.458,-1489,-29568
810,122352,-9.8,-0.421094,-0.0239258,-95.3119,87.3962,-142.388,0,0.12207,0,0.64035,0.268188,0.655823,-0.296326,-6.775,11.2667,-109.408,-1489,-29568
816,122358,-9.79043,-0.430664,-0.0430664,-95.3064,87.3962,-142.383,0,-0.0610352,0,0.64032,0.268219,0.655823,-0.296326,-6.76667,11.2833,-109.292,-1489,-29568
822,122364,-9.78086,-0.425879,-0.0143555,-95.3064,87.3962,-142.394,0.12207,0,0.183105,0.64032,0.26825,0.655792,-0.296356,-6.75833,11.3167,-109.292,-1489,-29568
828,122370,-9.80479,-0.45459,-0.0717773,-95.3064,87.3962,-142.394,0,0,-0.12207,0.64032,0.26828,0.655792,-0.296387,-6.76667,11.35,-109.308,-1489,-29568
834,122376,-9.77607,-0.435449,-0.0334961,-95.2844,87.3962,-142.372,0,-0.183105,0.0610352,0.640289,0.268311,0.655792,-0.296417,-6.76667,11.3667,-109.358,-1489,-29568
840,122382,-9.79521,-0.44502,-0.0430664,-95.2899,87.3962,-142.383,0.0610352,0.12207,-0.305176,0.640289,0.268311,0.655762,-0.296417,-6.76667,11.3833,-109.408,-1489,-29568
846,122388,-9.80479,-0.430664,-0.0287109,-95.2844,87.3962,-142.377,0,-0.0610352,0.12207,0.640289,0.268341,0.655762,-0.296448,-6.74167,11.3833,-109.375,-1489,-29568
852,122394,-9.78086,-0.421094,-0.0143555,-95.2405,87.3962,-142.339,0.183105,-0.183105,-0.0610352,0.640289,0.268372,0.655762,-0.296448,-6.74167,11.3917,-109.333,-1489,-29568
858,122400,-9.8,-0.421094,-0.0287109,-95.235,87.3962,-142.333,0,-0.0610352,0,0.640289,0.268372,0.655731,-0.296478,-6.75,11.4083,-109.292,-1489,-29568
864,122406,-9.80479,-0.425879,0,-95.224,87.4017,-142.328,0.12207,-0.0610352,0,0.640289,0.268402,0.655731,-0.296509,-6.76667,11.425,-109.283,-1489,-29568
870,122412,-9.80957,-0.435449,-0.00957031,-95.191,87.4017,-142.3,0,-0.244141,0,0.640289,0.268402,0.655701,-0.296509,-6.76667,11.425,-109.3,-1489,-29568
876,122418,-9.77607,-0.421094,-0.00957031,-95.1746,87.4017,-142.289,0,-0.12207,0.0610352,0.640289,0.268433,0.655701,-0.296539,-6.75833,11.4083,-109.325,-1489,-29568
882,122424,-9.77607,-0.430664,-0.0287109,-95.1526,87.4017,-142.273,-0.183105,-0.12207,0,0.640259,0.268463,0.65567,-0.29657,-6.73333,11.4,-109.325,-1489,-29568
888,122430,-9.77607,-0.421094,0,-95.1361,87.4017,-142.256,0,-0.12207,0.0610352,0.640259,0.268494,0.65567,-0.2966,-6.725,11.3917,-109.283,-1489,-29568
894,122436,-9.79521,-0.440234,-0.0191406,-95.1196,87.3962,-142.251,0,-0.0610352,-0.305176,0.640259,0.268494,0.65564,-0.296631,-6.71667,11.3833,-109.25,-1489,-29568
900,122442,-9.78086,-0.411523,-0.0287109,-95.1196,87.3962,-142.251,0,0.0610352,-0.427246,0.640259,0.268524,0.65564,-0.296661,-6.725,11.3667,-109.225,-1489,-29568
906,122448,-9.8,-0.45459,-0.0526367,-95.1086,87.3962,-142.245,0,-0.0610352,-0.0610352,0.640228,0.268524,0.65564,-0.296692,-6.75,11.35,-109.292,-1489,-29568
912,122454,-9.79521,-0.401953,-0.0239258,-95.0977,87.3962,-142.24,0.0610352,0,-0.305176,0.640198,0.268585,0.655609,-0.296753,-6.75833,11.35,-109.342,-1489,-29568
918,122460,-9.79521,-0.440234,-0.0382813,-95.0922,87.3907,-142.234,0,0,-0.427246,0.640198,0.268585,0.655609,-0.296783,-6.74167,11.3583,-109.375,-1489,-29568
924,122466,-9.77607,-0.440234,-0.0287109,-95.0702,87.3907,-142.224,0,-0.12207,-0.244141,0.640198,0.268585,0.655609,-0.296783,-6.725,11.35,-109.375,-1489,-29568
930,122472,-9.80957,-0.44502,-0.0334961,-95.0592,87.3907,-142.213,0,-0.0610352,-0.183105,0.640167,0.268585,0.655609,-0.296814,-6.70833,11.35,-109.35,-1489,-29568
936,122478,-9.79043,-0.440234,-0.00957031,-95.0427,87.3907,-142.202,0.0610352,-0.12207,-0.12207,0.640167,0.268616,0.655579,-0.296844,-6.7,11.3333,-109.325,-1489,-29568
942,122484,-9.79043,-0.449805,-0.0334961,-95.0427,87.3907,-142.207,0.12207,0,-0.12207,0.640137,0.268646,0.655579,-0.296906,-6.7,11.3333,-109.3,-1489,-29568
948,122490,-9.79521,-0.44502,-0.0430664,-95.0262,87.3853,-142.196,0.0610352,-0.12207,-0.12207,0.640137,0.268646,0.655579,-0.296906,-6.71667,11.3333,-109.267,-1489,-29568
954,122496,-9.78564,-0.440234,-0.0334961,-95.0153,87.3853,-142.185,0,-0.0610352,-0.12207,0.640137,0.268677,0.655548,-0.296936,-6.74167,11.3167,-109.217,-1489,-29568
960,122502,-9.8,-0.44502,-0.0191406,-95.0153,87.3907,-142.191,0,0,0.305176,0.640137,0.268677,0.655548,-0.296967,-6.75833,11.325,-109.2,-1489,-29568
966,122508,-9.8,-0.425879,-0.0287109,-95.0262,87.3907,-142.207,0,0.12207,0.0610352,0.640137,0.268707,0.655548,-0.296967,-6.725,11.2917,-109.242,-1489,-29568
972,122514,-9.8,-0.449805,-0.0334961,-95.0757,87.3907,-142.256,0,0.244141,0.549316,0.640106,0.268738,0.655518,-0.296997,-6.725,11.2917,-109.258,-1489,-29568
978,122520,-9.80957,-0.45459,-0.0287109,-95.0757,87.3962,-142.262,0,0,0.488281,0.640106,0.268799,0.655518,-0.296997,-6.71667,11.275,-109.292,-1489,-29568
984,122526,-9.79521,-0.45459,-0.0287109,-95.0922,87.3962,-142.278,0,0.12207,0.366211,0.640106,0.268829,0.655518,-0.296997,-6.725,11.2583,-109.308,-1489,-29568
990,122532,-9.78086,-0.435449,-0.0478516,-95.1251,87.3962,-142.317,0,0.305176,0.244141,0.640076,0.26886,0.655487,-0.296997,-6.74167,11.2583,-109.317,-1489,-29568
996,122538,-9.81914,-0.44502,-0.0239258,-95.1636,87.4017,-142.355,0.0610352,0.305176,0.610352,0.640076,0.26889,0.655487,-0.296997,-6.74167,11.2333,-109.35,-1489,-29568
1002,122544,-9.77129,-0.430664,-0.0478516,-95.2075,87.4072,-142.41,0,0.0610352,0.366211,0.640045,0.268951,0.655487,-0.296997,-6.725,11.225,-109.383,-1489,-29568
1008,122550,-9.8,-0.416309,-0.0382813,-95.213,87.4072,-142.421,0.0610352,0.0610352,0.427246,0.640045,0.268982,0.655457,-0.297028,-6.70833,11.2083,-109.45,-1489,-29568
1014,122556,-9.78086,-0.421094,-0.0526367,-95.2185,87.4072,-142.427,0.0610352,0.0610352,0.12207,0.640045,0.269012,0.655457,-0.297028,-6.7,11.2167,-109.467,-1489,-29568
1020,122562,-9.80957,-0.425879,-0.0526367,-95.224,87.4072,-142.432,-0.0610352,0,0.305176,0.640045,0.269043,0.655457,-0.297028,-6.70833,11.2083,-109.425,-1489,-29568
1026,122568,-9.80479,-0.430664,-0.0287109,-95.202,87.4127,-142.416,-0.0610352,-0.183105,0.244141,0.640045,0.269073,0.655426,-0.297028,-6.75833,11.2083,-109.242,-1480,-29569
1032,122574,-9.77607,-0.397168,-0.0287109,-95.1581,87.4127,-142.372,0,-0.305176,0.0610352,0.640045,0.269104,0.655426,-0.297058,-6.78333,11.2167,-109.2,-1489,-29568
1038,122580,-9.79043,-0.425879,-0.00957031,-95.1526,87.4127,-142.372,0,0,-0.12207,0.640045,0.269104,0.655396,-0.297058,-6.80833,11.225,-109.183,-1489,-29568
1044,122586,-9.79521,-0.416309,-0.0430664,-95.1471,87.4127,-142.366,0,0,-0.366211,0.640045,0.269104,0.655396,-0.297089,-6.83333,11.225,-109.2,-1489,-29568
1050,122592,-9.80479,-0.421094,-0.0191406,-95.1251,87.4127,-142.344,0,-0.183105,-0.183105,0.640045,0.269135,0.655396,-0.297089,-6.84167,11.2583,-109.217,-1489,-29568
1056,122598,-9.8,-0.416309,-0.0430664,-95.1196,87.4127,-142.344,0,0,0,0.640045,0.269135,0.655396,-0.297119,-6.85,11.3083,-109.192,-1489,-29568
1062,122604,-9.79521,-0.416309,-0.0239258,-95.1031,87.4072,-142.333,-0.0610352,-0.0610352,-0.427246,0.640015,0.269135,0.655365,-0.29715,-6.83333,11.3333,-109.142,-1489,-29568
1068,122610,-9.78564,-0.416309,-0.0287109,-95.0977,87.4072,-142.328,0,0,-0.305176,0.640015,0.269135,0.655365,-0.29718,-6.83333,11.3583,-109.117,-1489,-29568
1074,122616,-9.80479,-0.430664,-0.0382813,-95.0922,87.4017,-142.328,0.0610352,0,-0.366211,0.640015,0.269165,0.655365,-0.297211,-6.825,11.3583,-109.067,-1489,-29568
1080,122622,-9.80957,-0.44502,-0.00957031,-95.0977,87.4017,-142.339,-0.0610352,0.12207,-0.305176,0.639984,0.269165,0.655365,-0.297241,-6.825,11.3417,-109.033,-1489,-29568
1086,122628,-9.77607,-0.430664,-0.062207,-95.0867,87.4017,-142.328,0,-0.0610352,-0.610352,0.639954,0.269165,0.655365,-0.297272,-6.84167,11.325,-108.942,-1489,-29568
1092,122634,-9.80479,-0.430664,-0.0478516,-95.0977,87.3962,-142.344,0,0.0610352,-0.732422,0.639954,0.269165,0.655365,-0.297302,-6.84167,11.325,-108.983,-1489,-29568
1098,122640,-9.80479,-0.435449,-0.0334961,-95.0922,87.3962,-142.339,0,0,-0.366211,0.639923,0.269165,0.655365,-0.297333,-6.85833,11.325,-109.05,-1489,-29568
1104,122646,-9.79043,-0.459375,-0.0430664,-95.0867,87.3907,-142.333,0.0610352,0,-0.549316,0.639923,0.269165,0.655365,-0.297333,-6.85833,11.3167,-109.117,-1489,-29568
1110,122652,-9.80479,-0.449805,-0.0526367,-95.0812,87.3907,-142.333,0,0,-0.244141,0.639923,0.269165,0.655365,-0.297363,-6.85,11.3,-109.142,-1489,-29568
1116,122658,-9.78086,-0.425879,-0.00478516,-95.0812,87.3907,-142.333,0.0610352,0,0,0.639923,0.269196,0.655365,-0.297394,-6.81667,11.2833,-109.15,-1489,-29568
1122,122664,-9.77607,-0.430664,-0.0382813,-95.0592,87.3907,-142.311,0,-0.0610352,-0.0610352,0.639923,0.269196,0.655365,-0.297394,-6.79167,11.275,-109.117,-1489,-29568
1128,122670,-9.8,-0.449805,-0.0334961,-95.0317,87.3907,-142.289,0.183105,-0.183105,-0.244141,0.639893,0.269196,0.655365,-0.297424,-6.76667,11.2667,-109.092,-1489,-29568
1134,122676,-9.80957,-0.440234,-0.0239258,-95.0208,87.3907,-142.278,-0.0610352,-0.12207,0,0.639893,0.269196,0.655334,-0.297424,-6.75,11.275,-109.058,-1489,-29568
1140,122682,-9.79521,-0.45459,-0.0239258,-95.0153,87.3907,-142.278,0,0,-0.0610352,0.639893,0.269196,0.655334,-0.297455,-6.73333,11.275,-109.033,-1480,-29569
1146,122688,-9.77607,-0.449805,-0.00957031,-95.0153,87.3907,-142.284,0.183105,0,0.305176,0.639893,0.269226,0.655304,-0.297455,-6.74167,11.3,-109.033,-1480,-29569
1152,122694,-9.8,-0.440234,-0.0239258,-95.0262,87.3962,-142.295,0.0610352,0.12207,0.366211,0.639893,0.269257,0.655304,-0.297485,-6.73333,11.3083,-109.092,-1480,-29569
1158,122700,-9.79521,-0.430664,-0.00478516,-95.0262,87.3962,-142.3,0.0610352,0,0.366211,0.639893,0.269287,0.655304,-0.297485,-6.74167,11.3083,-109.125,-1480,-29569
1164,122706,-9.77607,-0.449805,-0.00478516,-95.0262,87.4017,-142.306,-0.12207,0,0.549316,0.639893,0.269318,0.655273,-0.297485,-6.73333,11.325,-109.175,-1480,-29569
1170,122712,-9.8,-0.440234,-0.00957031,-95.0208,87.4017,-142.3,0,-0.0610352,0.12207,0.639893,0.269348,0.655273,-0.297485,-6.725,11.325,-109.217,-1480,-29569
1176,122718,-9.8,-0.421094,-0.0382813,-95.0208,87.4017,-142.306,0.0610352,0,0.549316,0.639862,0.26944,0.655243,-0.297516,-6.74167,11.35,-109.283,-1480,-29569
1182,122724,-9.8,-0.435449,-0.00957031,-95.0427,87.4072,-142.339,0,0,0.12207,0.639862,0.26947,0.655212,-0.297546,-6.75833,11.3583,-109.342,-1480,-29569
1188,122730,-9.8,-0.421094,-0.0239258,-95.0482,87.4072,-142.35,0.12207,0.0610352,0.427246,0.639862,0.269501,0.655212,-0.297577,-6.75833,11.35,-109.367,-1480,-29569
1194,122736,-9.80479,-0.45459,-0.0526367,-95.0647,87.4072,-142.366,-0.12207,0.12207,0.366211,0.639832,0.269531,0.655182,-0.297577,-6.76667,11.35,-109.425,-1480,-29569
1200,122742,-9.79521,-0.421094,-0.0334961,-95.0537,87.4072,-142.361,0,-0.0610352,0.0610352,0.639832,0.269562,0.655182,-0.297577,-6.76667,11.3667,-109.45,-1480,-29569
1206,122748,-9.80957,-0.416309,-0.0478516,-95.0537,87.4127,-142.366,0,0,0.366211,0.639832,0.269623,0.655151,-0.297607,-6.79167,11.4083,-109.475,-1480,-29569
1212,122754,-9.80479,-0.435449,-0.0526367,-95.0757,87.4127,-142.394,0.12207,0.12207,0.0610352,0.639832,0.269653,0.655151,-0.297638,-6.80833,11.4417,-109.492,-1480,-29569
1218,122760,-9.79043,-0.44502,-0.0239258,-95.0757,87.4127,-142.394,0.0610352,0,0.0610352,0.639801,0.269653,0.655151,-0.297638,-6.80833,11.4667,-109.483,-1480,-29569
1224,122766,-9.81436,-0.449805,-0.0191406,-95.0702,87.4127,-142.388,0,0,-0.305176,0.639801,0.269684,0.655151,-0.297668,-6.80833,11.4917,-109.458,-1480,-29569
1230,122772,-9.80479,-0.406738,-0.0382813,-95.0647,87.4127,-142.388,0.0610352,0,-0.0610352,0.639801,0.269684,0.655151,-0.297668,-6.78333,11.4917,-109.442,-1480,-29569
1236,122778,-9.8,-0.430664,-0.0334961,-95.0647,87.4127,-142.388,0.0610352,0,-0.0610352,0.639771,0.269714,0.655121,-0.297699,-6.775,11.45,-109.333,-1480,-29569
1242,122784,-9.81914,-0.45459,-0.0478516,-95.0592,87.4072,-142.388,0.0610352,0,-0.183105,0.639771,0.269714,0.655121,-0.297729,-6.75833,11.4167,-109.283,-1480,-29569
1248,122790,-9.79043,-0.440234,-0.0287109,-95.0537,87.4072,-142.388,0.12207,0,-0.305176,0.639771,0.269745,0.655121,-0.297729,-6.76667,11.3833,-109.225,-1480,-29569
1254,122796,-9.79043,-0.425879,-0.0574219,-95.0647,87.4072,-142.399,0,0.12207,-0.0610352,0.639771,0.269745,0.655121,-0.29776,-6.75,11.375,-109.175,-1472,-29570
1260,122802,-9.80957,-0.430664,-0.0239258,-95.0537,87.4072,-142.388,0,-0.0610352,-0.549316,0.63974,0.269745,0.655121,-0.29776,-6.75,11.3833,-109.183,-1472,-29570
1266,122808,-9.78086,-0.430664,-0.0478516,-95.0647,87.4072,-142.399,-0.0610352,0.12207,-0.12207,0.63974,0.269745,0.655121,-0.297791,-6.75833,11.4,-109.175,-1472,-29570
1272,122814,-9.81436,-0.425879,-0.0334961,-95.0208,87.4017,-142.361,0,-0.183105,-0.0610352,0.63974,0.269745,0.655121,-0.297821,-6.75833,11.3833,-109.175,-1472,-29570
1278,122820,-9.80479,-0.44502,-0.0191406,-95.0043,87.4017,-142.344,0,-0.12207,-0.305176,0.63974,0.269745,0.655121,-0.297821,-6.775,11.3417,-109.167,-1472,-29570
1284,122826,-9.80479,-0.449805,-0.0143555,-94.9933,87.4017,-142.339,0,-0.0610352,-0.0610352,0.63974,0.269745,0.65509,-0.297852,-6.79167,11.3083,-109.175,-1472,-29570
1290,122832,-9.8,-0.45459,-0.0191406,-94.9713,87.4017,-142.317,0.12207,-0.183105,-0.0610352,0.639709,0.269745,0.65509,-0.297852,-6.79167,11.2833,-109.167,-1472,-29570
1296,122838,-9.79521,-0.449805,-0.0287109,-94.9493,87.4017,-142.295,0,-0.183105,-0.244141,0.639709,0.269775,0.65509,-0.297913,-6.76667,11.2917,-109.192,-1472,-29570
1302,122844,-9.79521,-0.44502,-0.0191406,-94.9054,87.3962,-142.262,0,-0.12207,-0.183105,0.639709,0.269775,0.65506,-0.297913,-6.75,11.2917,-109.142,-1472,-29570
1308,122850,-9.8,-0.45459,-0.0143555,-94.9054,87.3962,-142.262,0.0610352,0,0,0.639709,0.269775,0.65506,-0.297943,-6.725,11.275,-109.108,-1472,-29570
1314,122856,-9.8,-0.440234,-0.0191406,-94.8834,87.3962,-142.245,0,-0.12207,-0.183105,0.639709,0.269806,0.65506,-0.297974,-6.725,11.275,-109.125,-1472,-29570
1320,122862,-9.80479,-0.440234,0.00478516,-94.8724,87.3962,-142.24,0,-0.0610352,-0.183105,0.639709,0.269806,0.655029,-0.298004,-6.71667,11.275,-109.108,-1472,-29570
1326,122868,-9.8,-0.44502,-0.0334961,-94.8615,87.3962,-142.234,0.12207,-0.0610352,0,0.639679,0.269867,0.655029,-0.298035,-6.675,11.2667,-109.175,-1472,-29570
1332,122874,-9.79043,-0.449805,-0.0191406,-94.8285,87.3962,-142.207,0.0610352,-0.183105,0.0610352,0.639679,0.269867,0.654999,-0.298065,-6.65833,11.2667,-109.208,-1472,-29570
1338,122880,-9.80479,-0.440234,-0.0382813,-94.8175,87.3962,-142.202,0,-0.0610352,0.0610352,0.639679,0.269897,0.654999,-0.298096,-6.65,11.275,-109.217,-1472,-29570
1344,122886,-9.78086,-0.459375,-0.0334961,-94.845,87.3962,-142.229,0.0610352,0.244141,0.0610352,0.639648,0.269928,0.654968,-0.298096,-6.65,11.2917,-109.225,-1472,-29570
1350,122892,-9.78086,-0.430664,-0.00957031,-94.8615,87.3962,-142.251,-0.0610352,0.183105,0.183105,0.639648,0.269928,0.654968,-0.298126,-6.675,11.325,-109.225,-1472,-29570
1356,122898,-9.79043,-0.45459,-0.0382813,-94.8724,87.4017,-142.267,0.0610352,0.12207,0.183105,0.639618,0.269989,0.654968,-0.298157,-6.775,11.4167,-109.175,-1472,-29570
1362,122904,-9.78086,-0.425879,-0.0239258,-94.8944,87.4017,-142.295,-0.12207,0.183105,0,0.639618,0.27002,0.654938,-0.298157,-6.81667,11.4417,-109.167,-1472,-29570
1368,122910,-9.77607,-0.430664,-0.0143555,-94.9164,87.4017,-142.317,0,0.183105,0.305176,0.639618,0.27005,0.654938,-0.298187,-6.84167,11.45,-109.15,-1472,-29570
1374,122916,-9.79521,-0.449805,-0.0574219,-94.9219,87.4017,-142.328,0.12207,0.0610352,0.0610352,0.639587,0.270081,0.654938,-0.298187,-6.85,11.4333,-109.108,-1480,-29569
1380,122922,-9.79521,-0.459375,-0.0143555,-94.9164,87.4017,-142.328,0,0,0.0610352,0.639587,0.270111,0.654938,-0.298218,-6.85,11.4083,-109.108,-1480,-29569
1386,122928,-9.78086,-0.435449,-0.0382813,-94.9219,87.4017,-142.333,0.0610352,0,0.0610352,0.639557,0.270142,0.654907,-0.298248,-6.80833,11.3417,-109.175,-1480,-29569
1392,122934,-9.82393,-0.430664,-0.00957031,-94.9274,87.4017,-142.35,-0.0610352,0.12207,0.0610352,0.639557,0.270172,0.654907,-0.298279,-6.8,11.3417,-109.242,-1480,-29569
1398,122940,-9.79043,-0.421094,-0.0287109,-94.9438,87.4072,-142.366,0.0610352,0.12207,0.427246,0.639557,0.270203,0.654877,-0.298279,-6.775,11.3333,-109.258,-1480,-29569
1404,122946,-9.8,-0.449805,-0.0287109,-94.9384,87.4072,-142.372,0.0610352,0,0.183105,0.639526,0.270233,0.654877,-0.298309,-6.74167,11.3417,-109.292,-1480,-29569
1410,122952,-9.77607,-0.440234,-0.0478516,-94.9329,87.4072,-142.366,-0.0610352,-0.0610352,0.0610352,0.639526,0.270264,0.654846,-0.298309,-6.73333,11.3417,-109.283,-1480,-29569
1416,122958,-9.79521,-0.430664,-0.0382813,-94.9438,87.4072,-142.377,0,0.183105,0.0610352,0.639526,0.270325,0.654846,-0.29834,-6.73333,11.3083,-109.267,-1480,-29569
1422,122964,-9.80479,-0.421094,-0.0430664,-94.9878,87.4072,-142.432,0,0.244141,0.244141,0.639496,0.270325,0.654846,-0.29837,-6.74167,11.2917,-109.242,-1480,-29569
1428,122970,-9.79043,-0.435449,-0.0287109,-94.9823,87.4072,-142.432,0.0610352,0,0,0.639496,0.270355,0.654846,-0.29837,-6.73333,11.275,-109.25,-1480,-29569
1434,122976,-9.8,-0.425879,-0.0143555,-94.9823,87.4072,-142.432,0.0610352,0,-0.0610352,0.639496,0.270386,0.654816,-0.298401,-6.73333,11.25,-109.267,-1480,-29569
1440,122982,-9.78086,-0.425879,-0.0382813,-94.9878,87.4072,-142.438,0.183105,0.0610352,0.244141,0.639465,0.270386,0.654816,-0.298401,-6.71667,11.2333,-109.292,-1480,-29569
1446,122988,-9.79043,-0.430664,0,-94.9878,87.4127,-142.443,0,-0.0610352,0,0.639465,0.270447,0.654816,-0.298431,-6.71667,11.2,-109.342,-1480,-29569
1452,122994,-9.79043,-0.430664,-0.00957031,-94.9823,87.4127,-142.443,-0.183105,0.0610352,-0.183105,0.639465,0.270447,0.654785,-0.298431,-6.70833,11.2,-109.358,-1480,-29569
1458,123000,-9.79043,-0.435449,-0.0143555,-94.9713,87.4072,-142.432,0,-0.0610352,-0.0610352,0.639465,0.270477,0.654785,-0.298462,-6.7,11.2083,-109.35,-1480,-29569
1464,123006,-9.77129,-0.435449,-0.0382813,-94.9438,87.4072,-142.41,0,-0.183105,-0.244141,0.639435,0.270477,0.654785,-0.298492,-6.7,11.225,-109.358,-1480,-29569
1470,123012,-9.79521,-0.421094,-0.0382813,-94.9384,87.4072,-142.41,0.12207,0,-0.427246,0.639435,0.270477,0.654785,-0.298523,-6.69167,11.225,-109.367,-1480,-29569
1476,123018,-9.80479,-0.44502,-0.0287109,-94.9329,87.4072,-142.405,0,-0.12207,-0.12207,0.639404,0.270508,0.654755,-0.298584,-6.70833,11.1833,-109.267,-1480,-29569
1482,123024,-9.82393,-0.406738,-0.0430664,-94.8889,87.4017,-142.366,0,-0.183105,-0.305176,0.639404,0.270538,0.654755,-0.298584,-6.73333,11.1583,-109.3,-1480,-29569
1488,123030,-9.79043,-0.430664,-0.0239258,-94.8779,87.4017,-142.361,0.0610352,-0.0610352,-0.366211,0.639404,0.270538,0.654755,-0.298615,-6.74167,11.1417,-109.325,-1480,-29569
1494,123036,-9.79043,-0.425879,-0.0334961,-94.856,87.4017,-142.344,0,-0.12207,-0.244141,0.639404,0.270538,0.654724,-0.298645,-6.725,11.15,-109.375,-1480,-29569
1500,123042,-9.79521,-0.459375,-0.0430664,-94.856,87.4017,-142.344,0,0,-0.0610352,0.639404,0.270538,0.654724,-0.298676,-6.73333,11.1667,-109.417,-1480,-29569
1506,123048,-9.80957,-0.45459,-0.00478516,-94.845,87.4017,-142.339,0.12207,0,-0.183105,0.639374,0.270569,0.654724,-0.298706,-6.74167,11.1917,-109.45,-1480,-29569
1512,123054,-9.78564,-0.430664,-0.0191406,-94.834,87.4017,-142.328,-0.12207,-0.0610352,0,0.639374,0.270599,0.654694,-0.298737,-6.76667,11.1833,-109.433,-1480,-29569
1518,123060,-9.79521,-0.425879,-0.0382813,-94.8285,87.4017,-142.328,0,0,-0.183105,0.639374,0.270599,0.654694,-0.298737,-6.79167,11.1833,-109.408,-1480,-29569
1524,123066,-9.8,-0.440234,-0.0239258,-94.823,87.4017,-142.328,0,0,-0.12207,0.639343,0.270599,0.654694,-0.298767,-6.825,11.1833,-109.367,-1480,-29569
1530,123072,-9.80957,-0.440234,-0.0478516,-94.823,87.3962,-142.328,0,0,-0.12207,0.639343,0.27063,0.654694,-0.298767,-6.85,11.2,-109.325,-1480,-29569
1536,123078,-9.79521,-0.425879,-0.0382813,-94.823,87.4017,-142.333,0,0,-0.12207,0.639343,0.27066,0.654663,-0.298798,-6.85,11.2417,-109.292,-1480,-29569
1542,123084,-9.79521,-0.425879,-0.0334961,-94.8285,87.4017,-142.339,-0.0610352,0.0610352,0.0610352,0.639313,0.27066,0.654663,-0.298828,-6.85,11.275,-109.275,-1480,-29569
1548,123090,-9.8,-0.425879,-0.00478516,-94.8395,87.4017,-142.355,0.0610352,0.12207,0,0.639313,0.270691,0.654663,-0.298828,-6.83333,11.2833,-109.292,-1480,-29569
1554,123096,-9.80957,-0.425879,-0.0191406,-94.834,87.4017,-142.355,0.183105,0,0,0.639313,0.270691,0.654663,-0.298859,-6.85,11.2833,-109.292,-1480,-29569
1560,123102,-9.81914,-0.425879,-0.0191406,-94.8395,87.4017,-142.361,0,0.0610352,0.183105,0.639313,0.270721,0.654633,-0.298859,-6.88333,11.275,-109.292,-1480,-29569
1566,123108,-9.79043,-0.449805,-0.0191406,-94.8669,87.4017,-142.394,0.0610352,0,-0.0610352,0.639282,0.270782,0.654633,-0.298889,-6.89167,11.2667,-109.3,-1480,-29569
1572,123114,-9.80957,-0.440234,-0.0334961,-94.8669,87.4017,-142.405,0,0.0610352,0.427246,0.639282,0.270813,0.654633,-0.29892,-6.89167,11.2667,-109.292,-1480,-29569
1578,123120,-9.8,-0.406738,-0.0191406,-94.8779,87.4072,-142.421,0.183105,0.12207,0.244141,0.639252,0.270844,0.654602,-0.29892,-6.89167,11.2667,-109.242,-1480,-29569
1584,123126,-9.77607,-0.411523,-0.0143555,-94.8834,87.4072,-142.427,0.0610352,0.0610352,0.12207,0.639252,0.270874,0.654602,-0.29895,-6.86667,11.2667,-109.225,-1480,-29569
1590,123132,-9.81436,-0.440234,-0.0239258,-94.8724,87.4072,-142.421,0,-0.0610352,0,0.639252,0.270905,0.654602,-0.29895,-6.85833,11.2583,-109.183,-1480,-29569
1596,123138,-9.79521,-0.45459,-0.0143555,-94.8944,87.4072,-142.449,0,0.183105,0.183105,0.639221,0.270935,0.654572,-0.299011,-6.84167,11.25,-109.183,-1480,-29569
1602,123144,-9.79521,-0.430664,-0.0334961,-94.9109,87.4072,-142.471,0,0.183105,-0.0610352,0.639221,0.270966,0.654541,-0.299011,-6.83333,11.2417,-109.158,-1480,-29569
1608,123150,-9.79043,-0.44502,-0.0143555,-94.9493,87.4072,-142.509,-0.0610352,0.366211,0.0610352,0.639191,0.270996,0.654541,-0.299042,-6.80833,11.2417,-109.142,-1489,-29568
1614,123156,-9.78086,-0.425879,-0.0287109,-94.9603,87.4072,-142.531,0.0610352,0.183105,0.0610352,0.639191,0.271027,0.654541,-0.299072,-6.775,11.2167,-109.125,-1489,-29568
1620,123162,-9.80479,-0.440234,-0.0382813,-94.9548,87.4072,-142.526,0,-0.0610352,0.183105,0.63916,0.271057,0.654541,-0.299103,-6.73333,11.1917,-109.192,-1489,-29568
1626,123168,-9.78086,-0.430664,-0.0191406,-94.9274,87.4072,-142.509,-0.0610352,-0.0610352,0.0610352,0.63916,0.271118,0.65451,-0.299133,-6.73333,11.1833,-109.233,-1489,-29568
1632,123174,-9.79521,-0.416309,-0.0239258,-94.8999,87.4072,-142.487,0,-0.183105,-0.0610352,0.63913,0.271149,0.65448,-0.299164,-6.74167,11.1917,-109.25,-1489,-29568
1638,123180,-9.77129,-0.411523,-0.0334961,-94.8615,87.4072,-142.454,0,-0.305176,-0.12207,0.63913,0.271179,0.65448,-0.299194,-6.76667,11.2167,-109.233,-1489,-29568
1644,123186,-9.79521,-0.425879,-0.0239258,-94.845,87.4072,-142.438,0,-0.12207,-0.183105,0.63913,0.271179,0.654449,-0.299225,-6.775,11.2417,-109.217,-1489,-29568
1650,123192,-9.82871,-0.44502,-0.0191406,-94.823,87.4072,-142.421,0.12207,-0.183105,0.0610352,0.63913,0.27121,0.654449,-0.299255,-6.81667,11.2917,-109.158,-1489,-29568
1656,123198,-9.79043,-0.440234,-0.0143555,-94.7571,87.4072,-142.366,-0.0610352,-0.244141,-0.183105,0.63913,0.27124,0.654419,-0.299286,-6.83333,11.3083,-109.167,-1489,-29568
1662,123204,-9.79521,-0.430664,-0.0430664,-94.7351,87.4072,-142.344,0,-0.183105,0,0.63913,0.27124,0.654388,-0.299316,-6.85,11.3083,-109.167,-1489,-29568
1668,123210,-9.81436,-0.430664,-0.0334961,-94.7241,87.4072,-142.339,0,-0.0610352,0,0.63913,0.271271,0.654388,-0.299347,-6.86667,11.3167,-109.2,-1489,-29568
1674,123216,-9.76172,-0.435449,-0.00478516,-94.7296,87.4072,-142.344,-0.0610352,0.0610352,-0.0610352,0.639099,0.271301,0.654388,-0.299347,-6.875,11.3333,-109.258,-1489,-29568
1680,123222,-9.80957,-0.430664,-0.0143555,-94.7516,87.4072,-142.372,-0.0610352,0.244141,-0.244141,0.639099,0.271301,0.654358,-0.299377,-6.86667,11.375,-109.408,-1489,-29568
1686,123228,-9.78564,-0.430664,-0.0334961,-94.7516,87.4072,-142.383,0.0610352,0.12207,-0.12207,0.639069,0.271332,0.654358,-0.299438,-6.85833,11.3917,-109.4,-1489,-29568
1692,123234,-9.78086,-0.449805,-0.00478516,-94.7461,87.4017,-142.377,0,0,-0.427246,0.639069,0.271362,0.654358,-0.299438,-6.85833,11.4167,-109.392,-1489,-29568
1698,123240,-9.8,-0.435449,-0.0334961,-94.7516,87.4017,-142.388,0.0610352,0.12207,-0.244141,0.639038,0.271362,0.654358,-0.2995,-6.85,11.45,-109.383,-1489,-29568
1704,123246,-9.8,-0.44502,-0.0382813,-94.7461,87.4017,-142.388,0,0,-0.427246,0.639038,0.271393,0.654327,-0.2995,-6.83333,11.4667,-109.342,-1489,-29568
1710,123252,-9.8,-0.440234,-0.0287109,-94.7461,87.4017,-142.388,0,0.0610352,-0.244141,0.639008,0.271393,0.654327,-0.299561,-6.81667,11.4833,-109.308,-1489,-29568
1716,123258,-9.79043,-0.440234,-0.0143555,-94.7241,87.3962,-142.377,-0.0610352,0,-0.244141,0.639008,0.271454,0.654327,-0.299591,-6.81667,11.4917,-109.308,-1489,-29568
1722,123264,-9.80479,-0.44502,-0.0191406,-94.7076,87.4017,-142.361,0,-0.12207,0.0610352,0.638977,0.271454,0.654297,-0.299622,-6.81667,11.4833,-109.3,-1489,-29568
1728,123270,-9.79521,-0.440234,-0.0239258,-94.7076,87.3962,-142.366,-0.0610352,0.0610352,-0.366211,0.638977,0.271484,0.654297,-0.299652,-6.825,11.4667,-109.3,-1489,-29568
1734,123276,-9.80479,-0.440234,-0.0334961,-94.6912,87.3962,-142.355,-0.0610352,-0.12207,0,0.638947,0.271484,0.654297,-0.299683,-6.83333,11.4667,-109.3,-1489,-29568
1740,123282,-9.80479,-0.44502,-0.0382813,-94.6857,87.3962,-142.35,-0.0610352,0,-0.183105,0.638947,0.271515,0.654266,-0.299713,-6.84167,11.4417,-109.3,-1489,-29568
1746,123288,-9.78564,-0.430664,-0.0382813,-94.6802,87.3962,-142.355,0.0610352,0,0.183105,0.638947,0.271545,0.654266,-0.299744,-6.85833,11.4333,-109.325,-1489,-29568
1752,123294,-9.80957,-0.45459,-0.0239258,-94.6857,87.3962,-142.361,0.0610352,0.0610352,0.183105,0.638916,0.271576,0.654236,-0.299774,-6.85,11.4167,-109.35,-1489,-29568
1758,123300,-9.79521,-0.425879,-0.0287109,-94.6802,87.3962,-142.361,0.0610352,0,0,0.638916,0.271606,0.654236,-0.299774,-6.83333,11.3917,-109.375,-1489,-29568
1764,123306,-9.79043,-0.435449,-0.0382813,-94.6802,87.4017,-142.366,-0.0610352,0,0.12207,0.638916,0.271637,0.654236,-0.299805,-6.8,11.3667,-109.375,-1489,-29568
1770,123312,-9.79043,-0.430664,-0.0191406,-94.6747,87.4017,-142.366,0.0610352,0,0.12207,0.638916,0.271667,0.654205,-0.299805,-6.75,11.3167,-109.358,-1489,-29568
1776,123318,-9.78564,-0.449805,-0.0143555,-94.7131,87.4017,-142.41,0.0610352,0.244141,0.244141,0.638885,0.271698,0.654205,-0.299835,-6.73333,11.3083,-109.342,-1489,-29568
1782,123324,-9.80479,-0.397168,0,-94.7351,87.4017,-142.438,-0.0610352,0.244141,0.0610352,0.638885,0.271729,0.654175,-0.299866,-6.725,11.2917,-109.325,-1489,-29568
1788,123330,-9.8,-0.406738,-0.0239258,-94.7351,87.4017,-142.438,0.0610352,0,0.183105,0.638855,0.271759,0.654175,-0.299866,-6.725,11.2833,-109.308,-1489,-29568
1794,123336,-9.78564,-0.430664,0,-94.7461,87.4072,-142.454,0,0.12207,0.183105,0.638855,0.27179,0.654175,-0.299896,-6.71667,11.2667,-109.292,-1489,-29568
1800,123342,-9.8,-0.435449,-0.0526367,-94.7516,87.4072,-142.465,-0.0610352,0.0610352,0.12207,0.638855,0.27182,0.654144,-0.299896,-6.71667,11.2417,-109.25,-1489,-29568
1806,123348,-9.78086,-0.45459,-0.0334961,-94.7406,87.4072,-142.46,0.12207,0,0.0610352,0.638824,0.271881,0.654144,-0.299927,-6.725,11.2667,-109.258,-1489,-29568
1812,123354,-9.79521,-0.425879,-0.0239258,-94.7351,87.4072,-142.46,0,-0.0610352,0.244141,0.638824,0.271912,0.654114,-0.299957,-6.71667,11.2917,-109.258,-1489,-29568
1818,123360,-9.78086,-0.425879,-0.0191406,-94.7241,87.4127,-142.454,0.0610352,-0.0610352,0.12207,0.638824,0.271942,0.654114,-0.299957,-6.71667,11.3417,-109.275,-1489,-29568
1824,123366,-9.78564,-0.449805,-0.0191406,-94.7021,87.4127,-142.432,0,-0.183105,0.0610352,0.638824,0.271973,0.654083,-0.299988,-6.71667,11.3667,-109.267,-1489,-29568
1830,123372,-9.80479,-0.401953,-0.0478516,-94.7021,87.4127,-142.432,0,0,0.12207,0.638824,0.271973,0.654083,-0.300018,-6.73333,11.4333,-109.217,-1489,-29568
1836,123378,-9.79043,-0.440234,-0.0382813,-94.6857,87.4127,-142.427,0,0,0,0.638794,0.272034,0.654053,-0.300049,-6.74167,11.45,-109.225,-1489,-29568
1842,123384,-9.77129,-0.435449,-0.0478516,-94.6857,87.4127,-142.427,-0.0610352,0,-0.0610352,0.638794,0.272034,0.654053,-0.300049,-6.76667,11.475,-109.258,-1489,-29568
1848,123390,-9.78564,-0.421094,-0.0287109,-94.6802,87.4127,-142.427,-0.0610352,0,-0.366211,0.638794,0.272034,0.654053,-0.300079,-6.76667,11.475,-109.333,-1489,-29568
1854,123396,-9.79521,-0.430664,-0.00957031,-94.6802,87.4072,-142.432,0.12207,0.0610352,-0.244141,0.638794,0.272064,0.654053,-0.300079,-6.78333,11.475,-109.425,-1489,-29568
1860,123402,-9.76172,-0.425879,-0.0334961,-94.6857,87.4072,-142.432,0,0.0610352,-0.183105,0.638763,0.272064,0.654022,-0.30014,-6.8,11.475,-109.583,-1489,-29568
1866,123408,-9.79043,-0.401953,-0.0478516,-94.7076,87.4072,-142.46,-0.0610352,0.0610352,0,0.638763,0.272095,0.654022,-0.30014,-6.79167,11.45,-109.608,-1489,-29568
1872,123414,-9.79043,-0.435449,-0.0143555,-94.7021,87.4072,-142.46,0,0,-0.366211,0.638733,0.272095,0.654022,-0.30014,-6.8,11.45,-109.633,-1489,-29568
1878,123420,-9.77129,-0.430664,-0.0287109,-94.6912,87.4072,-142.449,0,-0.0610352,-0.183105,0.638733,0.272095,0.654022,-0.300171,-6.79167,11.45,-109.642,-1489,-29568
1884,123426,-9.80479,-0.440234,-0.0478516,-94.6802,87.4072,-142.443,-0.0610352,-0.0610352,-0.244141,0.638733,0.272095,0.654022,-0.300201,-6.79167,11.4667,-109.642,-1489,-29568
1890,123432,-9.78086,-0.430664,-0.00957031,-94.6802,87.4072,-142.443,0,0,0,0.638733,0.272125,0.654022,-0.300232,-6.83333,11.5333,-109.642,-1489,-29568
1896,123438,-9.8,-0.440234,-0.0239258,-94.6637,87.4017,-142.427,-0.0610352,0,0.0610352,0.638702,0.272125,0.654022,-0.300232,-6.84167,11.5583,-109.625,-1489,-29568
1902,123444,-9.78564,-0.449805,-0.0430664,-94.6582,87.4017,-142.427,0,0,0.0610352,0.638702,0.272125,0.654022,-0.300232,-6.85,11.575,-109.642,-1489,-29568
1908,123450,-9.79521,-0.425879,-0.0287109,-94.6472,87.4017,-142.416,-0.0610352,-0.0610352,-0.366211,0.638702,0.272125,0.653992,-0.300232,-6.85833,11.5833,-109.675,-1489,-29568
1914,123456,-9.78086,-0.440234,-0.0287109,-94.6472,87.4017,-142.416,0.0610352,0,-0.0610352,0.638702,0.272125,0.653992,-0.300262,-6.84167,11.575,-109.675,-1489,-29568
1920,123462,-9.81436,-0.44502,-0.0382813,-94.6362,87.4017,-142.405,-0.0610352,-0.12207,0.0610352,0.638702,0.272156,0.653992,-0.300293,-6.81667,11.5333,-109.675,-1489,-29568
1926,123468,-9.79043,-0.430664,-0.0143555,-94.6362,87.4072,-142.41,0,0,0.183105,0.638702,0.272156,0.653992,-0.300293,-6.80833,11.5167,-109.65,-1489,-29568
1932,123474,-9.79521,-0.430664,-0.00957031,-94.6362,87.4072,-142.41,0,0,0.12207,0.638702,0.272186,0.653992,-0.300293,-6.80833,11.5,-109.642,-1489,-29568
1938,123480,-9.78086,-0.425879,-0.0430664,-94.6417,87.4072,-142.416,0.0610352,0.0610352,0.0610352,0.638702,0.272186,0.653961,-0.300293,-6.8,11.5083,-109.692,-1489,-29568
1944,123486,-9.79043,-0.430664,-0.0239258,-94.6527,87.4072,-142.432,0,0.12207,0,0.638702,0.272217,0.653961,-0.300293,-6.8,11.525,-109.683,-1489,-29568
1950,123492,-9.79521,-0.425879,-0.0478516,-94.6582,87.4072,-142.438,0.0610352,0.0610352,0.0610352,0.638672,0.272217,0.653961,-0.300323,-6.81667,11.575,-109.658,-1489,-29568
1956,123498,-9.78086,-0.425879,-0.0191406,-94.6582,87.4072,-142.438,0,-0.0610352,0.0610352,0.638672,0.272247,0.653961,-0.300323,-6.825,11.5917,-109.608,-1489,-29568
1962,123504,-9.81914,-0.44502,-0.0382813,-94.6857,87.4072,-142.465,-0.0610352,0.244141,0.0610352,0.638672,0.272247,0.653961,-0.300323,-6.83333,11.6,-109.542,-1489,-29568
1968,123510,-9.78086,-0.440234,-0.0334961,-94.6967,87.4072,-142.482,0.0610352,0.12207,0.0610352,0.638672,0.272278,0.653961,-0.300323,-6.85,11.625,-109.5,-1489,-29568
1974,123516,-9.8,-0.435449,-0.0430664,-94.6967,87.4127,-142.487,0.0610352,0,0.305176,0.638672,0.272278,0.653961,-0.300323,-6.85833,11.625,-109.483,-1489,-29568
1980,123522,-9.80479,-0.416309,0,-94.7186,87.4127,-142.504,0,0.183105,0,0.638672,0.272308,0.653961,-0.300323,-6.89167,11.625,-109.392,-1489,-29568
1986,123528,-9.79521,-0.421094,-0.0239258,-94.7571,87.4127,-142.553,0.0610352,0.12207,0.183105,0.638641,0.272339,0.653961,-0.300323,-6.9,11.6,-109.358,-1489,-29568
1992,123534,-9.8,-0.449805,-0.0382813,-94.7736,87.4127,-142.564,-0.12207,0.12207,0,0.638641,0.272339,0.653931,-0.300323,-6.9,11.5833,-109.317,-1489,-29568
1998,123540,-9.81436,-0.440234,-0.0191406,-94.7955,87.4127,-142.586,-0.183105,0.183105,0.12207,0.638641,0.272339,0.653931,-0.300323,-6.90833,11.575,-109.275,-1489,-29568
2004,123546,-9.8,-0.430664,-0.0143555,-94.7955,87.4127,-142.592,-0.0610352,0.0610352,-0.0610352,0.638641,0.272369,0.653931,-0.300323,-6.88333,11.575,-109.258,-1489,-29568
2010,123552,-9.79043,-0.416309,-0.0430664,-94.8175,87.4127,-142.619,0.0610352,0.244141,-0.305176,0.638611,0.272369,0.653931,-0.300354,-6.86667,11.6167,-109.225,-1489,-29568
2016,123558,-9.79521,-0.421094,-0.0239258,-94.812,87.4127,-142.619,0.0610352,0,-0.183105,0.638611,0.2724,0.653931,-0.300385,-6.84167,11.6417,-109.225,-1489,-29568
2022,123564,-9.80479,-0.440234,-0.0191406,-94.834,87.4127,-142.641,0.0610352,0.183105,0.244141,0.638611,0.2724,0.653931,-0.300385,-6.825,11.65,-109.208,-1489,-29568
2028,123570,-9.76172,-0.440234,-0.0239258,-94.8395,87.4127,-142.646,0,0.0610352,-0.12207,0.63858,0.27243,0.653931,-0.300385,-6.81667,11.6417,-109.2,-1489,-29568
2034,123576,8.17783,-7.43613,13.1448,-105.749,87.7863,-153.644,-10.376,78.064,91.9189,0.63858,0.27243,0.653931,-0.300415,-6.80833,11.625,-109.183,-1489,-29568
2040,123582,-14.7239,4.30664,-9.18272,-135.857,87.8412,176.144,-19.3481,192.688,130.981,0.633362,0.282898,0.658325,-0.292053,-6.80833,11.625,-109.158,-1489,-29568
2046,123588,-14.6091,-4.24443,-15.2934,-164.883,87.3358,146.541,62.8052,20.2026,80.0781,0.62854,0.289032,0.661835,-0.288544,-6.74167,11.5583,-109.117,-1489,-29568
2052,123594,-10.623,-1.56475,-6.76143,-175.924,87.6434,135.511,3.78418,-42.9688,108.643,0.628113,0.293335,0.660522,-0.288086,-6.61667,11.4583,-109.033,-1489,-29568
2058,123600,-7.21602,2.48828,-1.03359,171.277,87.8577,122.932,-32.1655,-46.6309,100.037,0.630768,0.295685,0.658051,-0.285645,-6.45,11.2667,-108.892,-1489,-29568
2064,123606,-7.04854,2.63662,-0.91875,159.093,88.0774,110.819,2.19727,-64.1479,74.8291,0.633881,0.296631,0.656036,-0.282288,-6.28333,11.05,-108.75,-1489,-29568
2070,123612,-9.06787,2.27295,-1.20586,145.629,88.3466,97.3663,23.1934,-86.731,52.5513,0.639893,0.297729,0.650543,-0.280334,-6.025,10.4583,-108.45,-1489,-29568
2076,123618,-9.42676,1.50732,0.44502,115.807,88.6377,68.1482,-40.8325,-69.7632,25.0854,0.64325,0.296387,0.648315,-0.279236,-5.975,10.1167,-108.367,-1489,-29568
2082,123624,-9.85742,0.775195,0.00957031,101.629,88.6652,54.3878,-46.6309,-64.1479,18.4937,0.646454,0.294037,0.647034,-0.277283,-5.98333,9.76667,-108.292,-1489,-29568
2088,123630,-9.75693,-0.205762,0.0574219,86.9073,88.6102,40.0397,-37.9028,-68.6646,18.0664,0.649506,0.291321,0.646088,-0.275238,-6.05833,9.44167,-108.267,-1489,-29568
2094,123636,-10.0249,-0.62207,0.736914,73.894,88.4454,27.3175,-24.231,-71.3501,23.2544,0.652527,0.288818,0.644867,-0.273499,-6.175,9.15,-108.275,-1489,-29568
2100,123642,-9.0918,0.803906,1.83271,64.6326,88.2092,18.2813,-12.8174,-67.3218,26.7944,0.658173,0.285553,0.641663,-0.270935,-6.48333,8.70833,-108.367,-1489,-29568
2106,123648,-8.68506,1.59824,1.91885,54.9921,87.7917,9.02527,-1.28174,-44.0674,16.2964,0.660461,0.284454,0.640228,-0.269867,-6.68333,8.54167,-108.475,-1489,-29568
2112,123654,-8.90996,1.73701,1.804,51.9324,87.6819,6.28418,3.05176,-32.1655,4.45557,0.662354,0.283234,0.639282,-0.268799,-6.90833,8.39167,-108.617,-1489,-29568
2118,123660,-9.03916,1.3542,1.55996,49.4659,87.6434,4.13635,3.60107,-20.3857,-5.85938,0.664032,0.281189,0.639099,-0.267273,-7.16667,8.25833,-108.75,-1489,-29568
2124,123666,-9.43154,0.961816,0.971387,47.406,87.6489,2.40601,2.44141,-11.6577,-11.6577,0.665283,0.278931,0.639374,-0.265839,-7.425,8.125,-108.85,-1489,-29568
2130,123672,-9.84307,0.660352,0.263184,45.2527,87.6819,0.587769,1.52588,-7.8125,-16.7236,0.667053,0.27417,0.640747,-0.263062,-7.95,7.89167,-108.992,-1489,-29568
2136,123678,-9.75215,0.583789,0.0191406,39.6881,87.7698,-4.31763,2.2583,-9.33838,-23.1934,0.667786,0.271667,0.641541,-0.261841,-8.20833,7.80833,-109.067,-1489,-29568
2142,123684,-9.91963,0.31582,0.00478516,36.2164,87.8027,-7.4762,2.56348,-11.5967,-24.8413,0.668518,0.269073,0.642334,-0.260712,-8.45833,7.74167,-109.183,-1489,-29568
2148,123690,-9.90527,0.382813,-0.0430664,32.3547,87.8192,-11.0248,2.62451,-14.5874,-25.6348,0.669281,0.266449,0.643036,-0.259735,-8.675,7.675,-109.292,-1489,-29568
2154,123696,-9.92441,0.421094,0.133984,28.2349,87.8192,-14.8315,1.2207,-16.0522,-26.7944,0.670074,0.263794,0.643677,-0.25882,-8.88333,7.63333,-109.4,-1489,-29568
2160,123702,-9.76172,0.30625,0.344531,23.9667,87.8137,-18.7811,-1.40381,-16.2964,-30.0293,0.671753,0.25827,0.644867,-0.25705,-9.225,7.575,-109.583,-1489,-29568
2166,123708,-9.75693,0.186621,0.368457,15.0458,87.7698,-27.0648,-0.732422,-16.9678,-30.7617,0.672577,0.255432,0.645477,-0.256226,-9.39167,7.575,-109.642,-1489,-29568
2172,123714,-9.81436,0.0526367,0.526367,10.6348,87.7258,-31.1792,1.40381,-17.395,-31.5552,0.673401,0.252594,0.646027,-0.255463,-9.55,7.56667,-109.733,-1489,-29568
2178,123720,-9.81914,0.0478516,0.870898,6.48743,87.6764,-35.0354,3.2959,-15.5029,-31.3721,0.674194,0.249786,0.646576,-0.254791,-9.70833,7.60833,-109.808,-1489,-29568
2184,123726,-9.46982,0.564648,1.30156,2.36206,87.6434,-38.8586,2.56348,-9.64355,-33.1421,0.674896,0.24707,0.647125,-0.25412,-9.85833,7.68333,-109.892,-1489,-29568
2190,123732,-9.7665,-0.732129,1.35898,-1.7688,87.6489,-42.6874,6.46973,7.87354,-30.2124,0.67572,0.241608,0.648926,-0.252563,-10.1083,7.88333,-110.05,-1489,-29568
2196,123738,-9.85264,-1.01924,1.05273,-8.5199,87.7368,-48.8672,9.76563,12.9395,-23.5596,0.675812,0.239197,0.650116,-0.251617,-10.2,7.98333,-110.083,-1489,-29568
2202,123744,-9.18272,-1.82793,0.689063,-11.9037,87.8247,-51.9818,13.7329,21.4233,-23.5596,0.675781,0.237091,0.651337,-0.250458,-10.2667,8.08333,-110.142,-1489,-29568
