TimeSinceCollection,Timestamp,AccX,AccY,AccZ,AngleRoll,AnglePitch,AngleYaw,AngularVelX,AngularVelY,AngularVelZ,Q1,Q2,Q3,Q4,MagX,MagY,MagZ,Height,Airpressure
0,57714,-9.80479,-0.363672,-0.526367,-146.365,86.1932,-175.908,0,0,0,0.661102,0.172577,0.705536,-0.187744,-35.3417,47.8167,-29.6667,-1854,-29524
6,57720,-9.8,-0.349316,-0.545508,-146.365,86.1932,-175.908,0,0,0,0.661102,0.172577,0.705536,-0.187775,-35.3333,47.8167,-29.65,-1854,-29524
12,57726,-9.78564,-0.378027,-0.531152,-146.36,86.1932,-175.908,0,0,0,0.661102,0.172577,0.705536,-0.187775,-35.3167,47.8167,-29.6083,-1854,-29524
18,57732,-9.78086,-0.344531,-0.545508,-146.36,86.1932,-175.908,0,0,0,0.661102,0.172577,0.705536,-0.187775,-35.2917,47.825,-29.6,-1854,-29524
24,57738,-9.77607,-0.363672,-0.531152,-146.36,86.1932,-175.908,0,0,0,0.661102,0.172607,0.705536,-0.187775,-35.2833,47.8583,-29.5833,-1854,-29524
30,57744,-9.79043,-0.330176,-0.535937,-146.36,86.1932,-175.908,0,0,0,0.661102,0.172607,0.705536,-0.187805,-35.2833,47.95,-29.625,-1854,-29524
36,57750,-9.79043,-0.387598,-0.516797,-146.354,86.1932,-175.908,0,0,0,0.661102,0.172607,0.705536,-0.187805,-35.2917,47.9917,-29.6583,-1854,-29524
42,57756,-9.7665,-0.368457,-0.559863,-146.354,86.1932,-175.908,0,0,0,0.661102,0.172607,0.705536,-0.187805,-35.2833,48.0167,-29.675,-1854,-29524
48,57762,-9.77607,-0.358887,-0.526367,-146.354,86.1932,-175.908,0,0,0,0.661102,0.172638,0.705536,-0.187805,-35.2833,48.0333,-29.7167,-1854,-29524
54,57768,-9.79043,-0.368457,-0.550293,-146.354,86.1932,-175.908,0,0,0,0.661102,0.172638,0.705536,-0.187836,-35.3083,48.0333,-29.7667,-1854,-29524
60,57774,-9.7665,-0.363672,-0.564648,-146.354,86.1932,-175.908,0,0,0,0.661072,0.172638,0.705536,-0.187836,-35.3333,48.0167,-29.8333,-1854,-29524
66,57780,-9.78564,-0.368457,-0.555078,-146.349,86.1932,-175.908,0,0,0,0.661072,0.172668,0.705505,-0.187836,-35.3417,48.0167,-29.85,-1854,-29524
72,57786,-9.79521,-0.344531,-0.550293,-146.349,86.1932,-175.908,0,0,0,0.661072,0.172668,0.705505,-0.187836,-35.3417,48.025,-29.8667,-1854,-29524
78,57792,-9.8,-0.339746,-0.526367,-146.349,86.1932,-175.908,0,0,0,0.661072,0.172668,0.705505,-0.187866,-35.3333,48.025,-29.875,-1854,-29524
84,57798,-9.79043,-0.368457,-0.521582,-146.349,86.1932,-175.908,0,0,0,0.661072,0.172668,0.705505,-0.187866,-35.3167,48.025,-29.8667,-1854,-29524
90,57804,-9.78086,-0.363672,-0.516797,-146.349,86.1932,-175.908,0,0,0,0.661072,0.172668,0.705505,-0.187866,-35.2583,47.975,-29.9417,-1854,-29524
96,57810,-9.78564,-0.334961,-0.535937,-146.343,86.1932,-175.908,0,0,0,0.661072,0.172699,0.705505,-0.187866,-35.2333,47.9583,-29.9667,-1854,-29524
102,57816,-9.78086,-0.354102,-0.507227,-146.343,86.1932,-175.908,0,0,0,0.661072,0.172699,0.705505,-0.187866,-35.2333,47.9583,-30.025,-1854,-29524
108,57822,-9.78564,-0.358887,-0.550293,-146.343,86.1932,-175.908,0,0,0,0.661072,0.172699,0.705505,-0.187897,-35.2333,47.975,-30.0417,-1854,-29524
114,57828,-9.78564,-0.363672,-0.521582,-146.343,86.1932,-175.908,0,0,0,0.661072,0.172699,0.705505,-0.187897,-35.2583,47.975,-30.0333,-1854,-29524
120,57834,-9.8,-0.344531,-0.555078,-146.343,86.1932,-175.908,0,0,0,0.661072,0.172699,0.705505,-0.187897,-35.2667,47.975,-30.0667,-1854,-29524
126,57840,-9.78564,-0.378027,-0.559863,-146.338,86.1932,-175.908,0,0,0,0.661072,0.172699,0.705505,-0.187897,-35.2667,47.975,-30.075,-1854,-29524
132,57846,-9.80479,-0.358887,-0.531152,-146.338,86.1932,-175.908,0,0,0,0.661072,0.172729,0.705505,-0.187897,-35.2667,47.975,-30.075,-1854,-29524
138,57852,-9.79043,-0.358887,-0.545508,-146.338,86.1932,-175.908,0,0,0,0.661072,0.172729,0.705505,-0.187897,-35.2417,47.9833,-30.05,-1854,-29524
144,57858,-9.77607,-0.344531,-0.545508,-146.338,86.1932,-175.908,0,0,0,0.661072,0.172729,0.705505,-0.187927,-35.225,47.9917,-30.025,-1854,-29524
150,57864,-9.77607,-0.363672,-0.531152,-146.338,86.1932,-175.908,0,0,0,0.661072,0.172729,0.705505,-0.187927,-35.2,47.9833,-30.0083,-1854,-29524
156,57870,-9.77607,-0.368457,-0.531152,-146.338,86.1932,-175.908,0,0,0,0.661072,0.172729,0.705505,-0.187927,-35.1583,47.9833,-30.05,-1854,-29524
162,57876,-9.79043,-0.382813,-0.545508,-146.338,86.1932,-175.908,0,0,0,0.661072,0.172729,0.705505,-0.187927,-35.125,47.9917,-30.075,-1854,-29524
168,57882,-9.77607,-0.339746,-0.512012,-146.338,86.1932,-175.908,0,0,0,0.661072,0.172729,0.705505,-0.187927,-35.1167,48,-30.0917,-1854,-29524
174,57888,-9.77607,-0.382813,-0.535937,-146.332,86.1932,-175.908,0,0,0,0.661072,0.172729,0.705505,-0.187927,-35.1083,48,-30.1,-1854,-29524
180,57894,-9.78086,-0.363672,-0.526367,-146.332,86.1932,-175.908,0,0,0,0.661072,0.17276,0.705475,-0.187958,-35.1333,47.9917,-30.0833,-1854,-29524
186,57900,-9.75693,-0.368457,-0.526367,-146.332,86.1932,-175.908,0,0,0,0.661072,0.17276,0.705475,-0.187958,-35.1333,47.9917,-30.0917,-1854,-29524
192,57906,-9.77129,-0.349316,-0.545508,-146.332,86.1932,-175.908,0,0,0,0.661072,0.17276,0.705475,-0.187958,-35.1417,48.0083,-30.1417,-1854,-29524
198,57912,-9.8,-0.363672,-0.497656,-146.327,86.1932,-175.908,0,0,0,0.661072,0.17276,0.705475,-0.187958,-35.15,48.0333,-30.175,-1854,-29524
204,57918,-9.80957,-0.368457,-0.521582,-146.327,86.1932,-175.908,0,0,0,0.661072,0.172791,0.705475,-0.187958,-35.175,48.0417,-30.2167,-1854,-29524
210,57924,-9.79521,-0.358887,-0.550293,-146.327,86.1932,-175.908,0,0,0,0.661041,0.172791,0.705475,-0.187988,-35.2333,48.05,-30.25,-1854,-29524
216,57930,-9.80479,-0.368457,-0.555078,-146.327,86.1932,-175.908,0,0,0,0.661041,0.172821,0.705475,-0.187988,-35.2333,48.0167,-30.2167,-1854,-29524
222,57936,-9.77607,-0.339746,-0.559863,-146.321,86.1932,-175.908,0,0,0,0.661041,0.172821,0.705475,-0.188019,-35.25,48.0083,-30.175,-1854,-29524
228,57942,-9.77607,-0.358887,-0.526367,-146.321,86.1932,-175.908,0,0,0,0.661041,0.172821,0.705475,-0.188019,-35.2583,48.0167,-30.1583,-1854,-29524
234,57948,-9.79043,-0.358887,-0.535937,-146.321,86.1932,-175.908,0,0,0,0.661041,0.172821,0.705475,-0.188019,-35.2833,48.0167,-30.1083,-1854,-29524
240,57954,-9.79521,-0.344531,-0.521582,-146.321,86.1932,-175.908,0,0,0,0.661041,0.172821,0.705475,-0.188019,-35.3583,48.0167,-30.075,-1854,-29524
246,57960,-9.76172,-0.363672,-0.497656,-146.321,86.1932,-175.908,0,0,0,0.661041,0.172821,0.705475,-0.188019,-35.375,48,-30.0583,-1854,-29524
252,57966,-9.78564,-0.363672,-0.526367,-146.321,86.1932,-175.908,0,0,0,0.661041,0.172852,0.705475,-0.188019,-35.3667,47.9667,-30.05,-1854,-29524
258,57972,-9.77607,-0.354102,-0.512012,-146.316,86.1932,-175.908,0,0,0,0.661041,0.172852,0.705444,-0.188049,-35.3583,47.925,-30.05,-1854,-29524
264,57978,-9.79043,-0.354102,-0.540723,-146.316,86.1932,-175.908,0,0,0,0.661041,0.172852,0.705444,-0.188049,-35.3583,47.9,-30.05,-1854,-29524
270,57984,-9.78564,-0.358887,-0.545508,-146.316,86.1932,-175.908,0,0,0,0.661041,0.172852,0.705444,-0.188049,-35.375,47.8083,-30,-1854,-29524
276,57990,-9.8,-0.363672,-0.521582,-146.316,86.1932,-175.908,0,0,0,0.661041,0.172852,0.705444,-0.188049,-35.4083,47.7833,-29.95,-1854,-29524
282,57996,-9.79043,-0.349316,-0.526367,-146.316,86.1932,-175.908,0,0,0,0.661041,0.172882,0.705444,-0.188049,-35.425,47.7667,-29.8917,-1854,-29524
288,58002,-9.77129,-0.373242,-0.545508,-146.316,86.1932,-175.908,0,0,0,0.661041,0.172882,0.705444,-0.188049,-35.4417,47.7833,-29.8833,-1854,-29524
294,58008,-9.75693,-0.349316,-0.540723,-146.31,86.1932,-175.908,0,0,0,0.661041,0.172882,0.705444,-0.18808,-35.4167,47.8083,-29.8917,-1854,-29524
300,58014,-9.79043,-0.339746,-0.521582,-146.31,86.1932,-175.908,0,0,0,0.661041,0.172882,0.705444,-0.18808,-35.3333,47.825,-29.875,-1854,-29524
306,58020,-9.78086,-0.354102,-0.526367,-146.31,86.1932,-175.908,0,0,0,0.661041,0.172882,0.705444,-0.18808,-35.3083,47.8,-29.85,-1854,-29524
312,58026,-9.79521,-0.363672,-0.540723,-146.31,86.1932,-175.908,0,0,0,0.661041,0.172882,0.705444,-0.18808,-35.2833,47.7833,-29.8333,-1854,-29524
318,58032,-9.77129,-0.358887,-0.550293,-146.31,86.1932,-175.908,0,0,0,0.661041,0.172882,0.705444,-0.18808,-35.2583,47.7667,-29.8583,-1854,-29524
324,58038,-9.79043,-0.387598,-0.550293,-146.31,86.1932,-175.908,0,0,0,0.661041,0.172882,0.705444,-0.18808,-35.2417,47.75,-29.9,-1854,-29524
330,58044,-9.79521,-0.339746,-0.545508,-146.31,86.1932,-175.908,0,0,0,0.661041,0.172913,0.705444,-0.18808,-35.1917,47.725,-29.975,-1854,-29524
336,58050,-9.79521,-0.349316,-0.559863,-146.31,86.1932,-175.908,0,0,0,0.661041,0.172913,0.705444,-0.18808,-35.1917,47.7083,-29.9667,-1854,-29524
342,58056,-9.78564,-0.349316,-0.526367,-146.31,86.1932,-175.908,0,0,0,0.661041,0.172913,0.705444,-0.18808,-35.1917,47.6833,-29.9417,-1854,-29524
348,58062,-9.78086,-0.354102,-0.555078,-146.31,86.1932,-175.908,0,0,0,0.661041,0.172913,0.705444,-0.18808,-35.1917,47.6833,-29.9,-1854,-29524
354,58068,-9.79521,-0.358887,-0.531152,-146.31,86.1932,-175.908,0,0,0,0.661041,0.172913,0.705444,-0.18808,-35.2,47.675,-29.9083,-1854,-29524
360,58074,-9.78086,-0.349316,-0.559863,-146.31,86.1932,-175.908,0,0,0,0.661041,0.172913,0.705444,-0.18808,-35.25,47.7083,-29.9833,-1854,-29524
366,58080,-9.79521,-0.373242,-0.512012,-146.31,86.1932,-175.908,0,0,0,0.661041,0.172913,0.705444,-0.18808,-35.275,47.725,-30,-1854,-29524
372,58086,-9.7665,-0.378027,-0.516797,-146.31,86.1932,-175.908,0,0,0,0.661041,0.172913,0.705444,-0.18808,-35.3,47.7333,-29.9917,-1854,-29524
378,58092,-9.78086,-0.349316,-0.540723,-146.31,86.1932,-175.908,0,0,0,0.661041,0.172913,0.705444,-0.18808,-35.3167,47.75,-29.9583,-1854,-29524
384,58098,-9.77607,-0.358887,-0.497656,-146.31,86.1932,-175.908,0,0,0,0.661041,0.172913,0.705444,-0.18811,-35.325,47.7833,-29.8917,-1854,-29524
390,58104,-9.8,-0.358887,-0.507227,-146.305,86.1932,-175.908,0,0,0,0.661041,0.172913,0.705414,-0.18811,-35.325,47.8083,-29.8667,-1854,-29524
396,58110,-9.77607,-0.363672,-0.535937,-146.305,86.1932,-175.908,0,0,0,0.661041,0.172913,0.705414,-0.18811,-35.3417,47.825,-29.8417,-1854,-29524
402,58116,-9.77129,-0.358887,-0.507227,-146.305,86.1932,-175.908,0,0,0,0.661041,0.172913,0.705414,-0.18811,-35.35,47.825,-29.8,-1854,-29524
408,58122,-9.77607,-0.378027,-0.559863,-146.305,86.1932,-175.908,0,0,0,0.661041,0.172943,0.705414,-0.18811,-35.3583,47.8417,-29.7667,-1854,-29524
414,58128,-9.77129,-0.382813,-0.516797,-146.299,86.1932,-175.908,0,0,0,0.661041,0.172943,0.705414,-0.188141,-35.3667,47.875,-29.7583,-1854,-29524
420,58134,-9.78564,-0.349316,-0.550293,-146.299,86.1987,-175.908,0,0,0,0.661041,0.172943,0.705414,-0.188141,-35.3667,47.8833,-29.7667,-1854,-29524
426,58140,-9.79043,-0.373242,-0.531152,-146.299,86.1987,-175.908,0,0,0,0.661041,0.172974,0.705414,-0.188141,-35.35,47.8833,-29.7583,-1854,-29524
432,58146,-9.77129,-0.358887,-0.526367,-146.294,86.1987,-175.908,0,0,0,0.661041,0.172974,0.705414,-0.188171,-35.35,47.8833,-29.7583,-1854,-29524
438,58152,-9.78564,-0.363672,-0.545508,-146.294,86.1987,-175.908,0,0,0,0.661041,0.172974,0.705414,-0.188171,-35.3583,47.8667,-29.7333,-1854,-29524
444,58158,-9.77129,-0.387598,-0.540723,-146.294,86.1987,-175.908,0,0,0,0.661041,0.172974,0.705414,-0.188171,-35.3333,47.8,-29.75,-1854,-29524
450,58164,-9.80479,-0.344531,-0.512012,-146.288,86.1987,-175.908,0,0,0,0.661011,0.173004,0.705383,-0.188202,-35.3,47.7667,-29.775,-1854,-29524
456,58170,-9.78564,-0.330176,-0.531152,-146.288,86.1987,-175.908,0,0,0,0.661011,0.173004,0.705383,-0.188202,-35.2667,47.7417,-29.775,-1854,-29524
462,58176,-9.79521,-0.358887,-0.516797,-146.288,86.1987,-175.908,0,0,0,0.661011,0.173035,0.705383,-0.188202,-35.2417,47.7167,-29.7917,-1854,-29524
468,58182,-9.78564,-0.382813,-0.540723,-146.288,86.1987,-175.908,0,0,0,0.661011,0.173035,0.705383,-0.188232,-35.2417,47.7167,-29.7833,-1854,-29524
474,58188,-9.79043,-0.363672,-0.550293,-146.283,86.1987,-175.908,0,0,0,0.661011,0.173035,0.705383,-0.188232,-35.3,47.7167,-29.7167,-1854,-29524
480,58194,-9.77129,-0.358887,-0.512012,-146.283,86.1987,-175.908,0,0,0,0.661011,0.173065,0.705383,-0.188263,-35.325,47.725,-29.6833,-1854,-29524
486,58200,-9.78564,-0.339746,-0.550293,-146.277,86.1987,-175.908,0,0,0,0.661011,0.173065,0.705383,-0.188263,-35.35,47.7333,-29.625,-1854,-29524
492,58206,-9.79521,-0.349316,-0.555078,-146.277,86.1987,-175.908,0,0,0,0.661011,0.173065,0.705383,-0.188263,-35.3583,47.7417,-29.5583,-1854,-29524
498,58212,-9.80479,-0.349316,-0.507227,-146.277,86.1987,-175.908,0,0,0,0.661011,0.173096,0.705383,-0.188263,-35.375,47.7417,-29.5083,-1854,-29524
504,58218,-9.79521,-0.344531,-0.526367,-146.277,86.1987,-175.908,0,0,0,0.661011,0.173096,0.705383,-0.188293,-35.375,47.7417,-29.4833,-1854,-29524
510,58224,-9.8,-0.378027,-0.516797,-146.272,86.1987,-175.908,0,0,0,0.661011,0.173096,0.705353,-0.188293,-35.375,47.7417,-29.5083,-1854,-29524
516,58230,-9.8,-0.363672,-0.540723,-146.272,86.1987,-175.908,0,0,0,0.661011,0.173096,0.705353,-0.188293,-35.3917,47.7583,-29.55,-1854,-29524
522,58236,-9.78564,-0.373242,-0.550293,-146.272,86.1987,-175.908,0,0,0,0.661011,0.173126,0.705353,-0.188324,-35.4,47.775,-29.55,-1854,-29524
528,58242,-9.77607,-0.358887,-0.545508,-146.272,86.1987,-175.908,0,0,0,0.661011,0.173126,0.705353,-0.188324,-35.4083,47.775,-29.5417,-1854,-29524
534,58248,-9.77607,-0.368457,-0.545508,-146.272,86.1987,-175.908,0,0,0,0.661011,0.173126,0.705353,-0.188324,-35.4083,47.7917,-29.6,-1854,-29524
540,58254,-9.81436,-0.344531,-0.526367,-146.266,86.1987,-175.908,0,0,0,0.661011,0.173157,0.705353,-0.188324,-35.4167,47.8,-29.6333,-1854,-29524
546,58260,-9.79043,-0.358887,-0.535937,-146.266,86.1987,-175.908,0,0,0,0.661011,0.173157,0.705353,-0.188354,-35.4417,47.8333,-29.6917,-1854,-29524
552,58266,-9.79521,-0.349316,-0.555078,-146.266,86.1987,-175.908,0,0,0,0.66098,0.173157,0.705353,-0.188354,-35.4333,47.8583,-29.6917,-1854,-29524
558,58272,-9.8,-0.358887,-0.559863,-146.266,86.1987,-175.908,0,0,0,0.66098,0.173157,0.705353,-0.188354,-35.4333,47.8667,-29.7333,-1854,-29524
564,58278,-9.78086,-0.339746,-0.569434,-146.266,86.1987,-175.908,0,0,0,0.66098,0.173157,0.705353,-0.188354,-35.425,47.875,-29.7583,-1854,-29524
570,58284,-9.79043,-0.368457,-0.512012,-146.266,86.1987,-175.908,0,0,0,0.66098,0.173157,0.705353,-0.188354,-35.4333,47.85,-29.7583,-1854,-29524
576,58290,-9.80479,-0.368457,-0.540723,-146.266,86.1987,-175.908,0,0,0,0.66098,0.173157,0.705353,-0.188354,-35.4583,47.8083,-29.7417,-1854,-29524
582,58296,-9.79521,-0.358887,-0.555078,-146.266,86.1987,-175.908,0,0,0,0.66098,0.173157,0.705353,-0.188354,-35.4667,47.7917,-29.75,-1854,-29524
588,58302,-9.77607,-0.354102,-0.535937,-146.266,86.1987,-175.908,0,0,0,0.66098,0.173157,0.705353,-0.188354,-35.4833,47.7667,-29.7583,-1854,-29524
594,58308,-9.79043,-0.354102,-0.521582,-146.266,86.1987,-175.908,0,0,0,0.66098,0.173157,0.705353,-0.188354,-35.5083,47.7583,-29.875,-1854,-29524
600,58314,-9.77607,-0.363672,-0.540723,-146.266,86.1987,-175.908,0,0,0,0.66098,0.173157,0.705353,-0.188354,-35.525,47.7583,-29.9083,-1854,-29524
606,58320,-9.78564,-0.358887,-0.550293,-146.266,86.1987,-175.908,0,0,0,0.66098,0.173157,0.705353,-0.188354,-35.5417,47.7417,-29.9417,-1854,-29524
612,58326,-9.77129,-0.349316,-0.545508,-146.266,86.1987,-175.908,0,0,0,0.66098,0.173157,0.705353,-0.188354,-35.5583,47.7417,-29.9583,-1854,-29524
618,58332,-9.8,-0.368457,-0.545508,-146.266,86.1987,-175.908,0,0,0,0.66098,0.173157,0.705353,-0.188354,-35.5583,47.7333,-29.9417,-1854,-29524
624,58338,-9.78086,-0.358887,-0.545508,-146.266,86.1987,-175.908,0,0,0,0.66098,0.173157,0.705353,-0.188354,-35.5417,47.675,-29.8583,-1854,-29524
630,58344,-9.76172,-0.363672,-0.540723,-146.266,86.1987,-175.908,0,0,0,0.66098,0.173157,0.705353,-0.188354,-35.5417,47.65,-29.8167,-1854,-29524
636,58350,-9.8,-0.358887,-0.555078,-146.266,86.1987,-175.908,0,0,0,0.66098,0.173157,0.705353,-0.188354,-35.5583,47.6333,-29.8083,-1854,-29524
642,58356,-9.78564,-0.363672,-0.564648,-146.266,86.1987,-175.908,0,0,0,0.66098,0.173157,0.705353,-0.188354,-35.5833,47.625,-29.7833,-1854,-29524
648,58362,-9.79043,-0.354102,-0.535937,-146.266,86.1987,-175.908,0,0,0,0.66098,0.173157,0.705353,-0.188354,-35.575,47.6083,-29.8083,-1854,-29524
654,58368,-9.8,-0.382813,-0.559863,-146.266,86.1987,-175.908,0,0,0,0.66098,0.173157,0.705353,-0.188354,-35.55,47.5667,-29.825,-1854,-29524
660,58374,-9.77607,-0.397168,-0.526367,-146.266,86.1987,-175.908,0,0,0,0.66098,0.173157,0.705353,-0.188354,-35.5333,47.55,-29.8083,-1854,-29524
666,58380,-9.79043,-0.382813,-0.531152,-146.266,86.1987,-175.908,0,0,0,0.66098,0.173157,0.705353,-0.188354,-35.5167,47.525,-29.8,-1854,-29524
672,58386,-9.78564,-0.358887,-0.550293,-146.266,86.1987,-175.908,0,0,0,0.66098,0.173157,0.705353,-0.188354,-35.4917,47.525,-29.7833,-1854,-29524
678,58392,-9.78564,-0.363672,-0.526367,-146.266,86.1987,-175.908,0,0,0,0.66098,0.173157,0.705353,-0.188354,-35.4667,47.5417,-29.8167,-1854,-29524
684,58398,-9.79521,-0.368457,-0.545508,-146.266,86.1987,-175.908,0,0,0,0.66098,0.173157,0.705353,-0.188354,-35.4167,47.575,-29.9,-1854,-29524
690,58404,-9.78564,-0.358887,-0.535937,-146.266,86.1987,-175.908,0,0,0,0.66098,0.173157,0.705353,-0.188354,-35.3917,47.575,-29.95,-1854,-29524
696,58410,-9.77129,-0.358887,-0.531152,-146.266,86.1987,-175.908,0,0,0,0.66098,0.173157,0.705353,-0.188354,-35.375,47.575,-29.9833,-1854,-29524
702,58416,-9.79521,-0.368457,-0.540723,-146.266,86.1987,-175.908,0,0,0,0.66098,0.173157,0.705353,-0.188354,-35.375,47.575,-30.0333,-1854,-29524
708,58422,-9.7665,-0.339746,-0.535937,-146.266,86.1987,-175.908,0,0,0,0.66098,0.173157,0.705353,-0.188354,-35.3833,47.5917,-30.0417,-1854,-29524
714,58428,-9.79043,-0.354102,-0.535937,-146.266,86.1987,-175.908,0,0,0,0.66098,0.173157,0.705353,-0.188354,-35.425,47.625,-30.025,-1854,-29524
720,58434,-9.77129,-0.354102,-0.526367,-146.266,86.1987,-175.908,0,0,0,0.66098,0.173157,0.705353,-0.188354,-35.425,47.625,-30.025,-1854,-29524
726,58440,-9.79043,-0.363672,-0.507227,-146.266,86.1987,-175.908,0,0,0,0.66098,0.173157,0.705353,-0.188354,-35.4083,47.6083,-30.075,-1854,-29524
732,58446,-9.80957,-0.344531,-0.540723,-146.266,86.1987,-175.908,0,0,0,0.66098,0.173157,0.705353,-0.188354,-35.3917,47.6,-30.1167,-1854,-29524
738,58452,-9.8,-0.363672,-0.531152,-146.266,86.1987,-175.908,0,0,0,0.66098,0.173157,0.705353,-0.188354,-35.3917,47.5833,-30.1667,-1854,-29524
744,58458,-9.78564,-0.382813,-0.507227,-146.266,86.1987,-175.908,0,0,0,0.66098,0.173157,0.705353,-0.188354,-35.4167,47.575,-30.1917,-1854,-29524
750,58464,-9.79043,-0.373242,-0.535937,-146.261,86.1987,-175.908,0,0,0,0.66098,0.173157,0.705353,-0.188354,-35.4333,47.5833,-30.2083,-1854,-29524
756,58470,-9.78564,-0.363672,-0.550293,-146.261,86.1987,-175.908,0,0,0,0.66098,0.173187,0.705353,-0.188385,-35.425,47.6,-30.2,-1854,-29524
762,58476,-9.77129,-0.363672,-0.550293,-146.261,86.1987,-175.908,0,0,0,0.66098,0.173187,0.705353,-0.188385,-35.4,47.6083,-30.1917,-1854,-29524
768,58482,-9.79043,-0.358887,-0.569434,-146.261,86.1987,-175.908,0,0,0,0.66098,0.173187,0.705353,-0.188385,-35.3833,47.6,-30.175,-1854,-29524
774,58488,-9.8,-0.363672,-0.550293,-146.261,86.1987,-175.908,0,0,0,0.66098,0.173187,0.705353,-0.188385,-35.375,47.6083,-30.125,-1854,-29524
780,58494,-9.78564,-0.344531,-0.564648,-146.261,86.1987,-175.908,0,0,0,0.66098,0.173187,0.705353,-0.188385,-35.3667,47.6,-30.0917,-1854,-29524
786,58500,-9.77607,-0.349316,-0.531152,-146.261,86.1987,-175.908,0,0,0,0.66098,0.173187,0.705353,-0.188385,-35.375,47.6083,-30.05,-1854,-29524
792,58506,-9.8,-0.358887,-0.540723,-146.261,86.1987,-175.908,0,0,0,0.66098,0.173187,0.705353,-0.188385,-35.3583,47.6167,-30.0083,-1854,-29524
798,58512,-9.7665,-0.368457,-0.531152,-146.261,86.1987,-175.908,0,0,0,0.66098,0.173187,0.705353,-0.188385,-35.3417,47.6583,-29.9833,-1854,-29524
804,58518,-9.77129,-0.358887,-0.550293,-146.261,86.1987,-175.908,0,0,0,0.66098,0.173187,0.705353,-0.188385,-35.325,47.6917,-30.0083,-1854,-29524
810,58524,-9.79521,-0.363672,-0.521582,-146.266,86.1987,-175.908,0,0,0,0.66098,0.173187,0.705353,-0.188385,-35.3083,47.6917,-30.0083,-1854,-29524
816,58530,-9.80479,-0.339746,-0.555078,-146.266,86.1987,-175.908,0,0,0,0.66098,0.173157,0.705353,-0.188385,-35.3167,47.6667,-29.975,-1854,-29524
822,58536,-9.77607,-0.334961,-0.521582,-146.266,86.1987,-175.908,0,0,0,0.66098,0.173157,0.705353,-0.188354,-35.3167,47.675,-29.9417,-1854,-29524
828,58542,-9.77607,-0.354102,-0.531152,-146.266,86.1987,-175.908,0,0,0,0.66098,0.173157,0.705353,-0.188354,-35.3333,47.6833,-29.9583,-1854,-29524
834,58548,-9.79521,-0.363672,-0.535937,-146.266,86.1987,-175.908,0,0,0,0.66098,0.173157,0.705353,-0.188354,-35.3333,47.7083,-30.0083,-1854,-29524
840,58554,-9.7665,-0.339746,-0.540723,-146.266,86.1987,-175.908,0,0,0,0.66098,0.173157,0.705353,-0.188354,-35.3167,47.7083,-30.0083,-1854,-29524
846,58560,-9.79043,-0.363672,-0.555078,-146.266,86.1987,-175.908,0,0,0,0.66098,0.173157,0.705353,-0.188354,-35.3083,47.7083,-29.975,-1854,-29524
852,58566,-9.78564,-0.349316,-0.531152,-146.266,86.1987,-175.908,0,0,0,0.66098,0.173157,0.705353,-0.188354,-35.3,47.6917,-29.925,-1854,-29524
858,58572,-9.79521,-0.354102,-0.535937,-146.266,86.1987,-175.908,0,0,0,0.66098,0.173157,0.705353,-0.188354,-35.3,47.6667,-29.8667,-1854,-29524
864,58578,-9.79043,-0.358887,-0.559863,-146.266,86.1987,-175.908,0,0,0,0.66098,0.173126,0.705353,-0.188324,-35.3083,47.625,-29.8167,-1854,-29524
870,58584,-9.8,-0.378027,-0.535937,-146.272,86.1987,-175.908,0,0,0,0.66098,0.173126,0.705353,-0.188324,-35.325,47.6417,-29.8083,-1854,-29524
876,58590,-9.78086,-0.373242,-0.540723,-146.272,86.1987,-175.908,0,0,0,0.66098,0.173126,0.705353,-0.188324,-35.325,47.6583,-29.7667,-1854,-29524
882,58596,-9.79521,-0.349316,-0.531152,-146.272,86.1987,-175.908,0,0,0,0.66098,0.173126,0.705353,-0.188324,-35.35,47.675,-29.7167,-1854,-29524
888,58602,-9.79043,-0.363672,-0.555078,-146.272,86.1987,-175.908,0,0,0,0.66098,0.173126,0.705353,-0.188324,-35.375,47.7,-29.6833,-1854,-29524
894,58608,-9.79521,-0.363672,-0.550293,-146.272,86.1987,-175.908,0,0,0,0.66098,0.173126,0.705353,-0.188324,-35.4333,47.7083,-29.7083,-1854,-29524
900,58614,-9.79043,-0.373242,-0.555078,-146.272,86.1987,-175.908,0,0,0,0.66098,0.173126,0.705353,-0.188324,-35.4333,47.7167,-29.7667,-1854,-29524
906,58620,-9.77129,-0.387598,-0.531152,-146.272,86.1932,-175.908,0,0,0,0.66098,0.173126,0.705353,-0.188324,-35.425,47.725,-29.8,-1854,-29524
912,58626,-9.78564,-0.349316,-0.545508,-146.272,86.1932,-175.908,0,0,0,0.66098,0.173126,0.705353,-0.188324,-35.4083,47.7083,-29.8,-1854,-29524
918,58632,-9.77607,-0.354102,-0.531152,-146.272,86.1932,-175.908,0,0,0,0.66098,0.173126,0.705353,-0.188324,-35.4083,47.7167,-29.8167,-1854,-29524
924,58638,-9.81914,-0.363672,-0.550293,-146.272,86.1932,-175.908,0,0,0,0.66098,0.173126,0.705353,-0.188324,-35.4167,47.7083,-29.8917,-1854,-29524
930,58644,-9.79043,-0.363672,-0.535937,-146.272,86.1932,-175.908,0,0,0,0.66098,0.173126,0.705353,-0.188324,-35.4,47.7,-29.9667,-1854,-29524
936,58650,-9.77607,-0.344531,-0.531152,-146.272,86.1932,-175.908,0,0,0,0.66098,0.173126,0.705353,-0.188324,-35.3833,47.6833,-30,-1854,-29524
942,58656,-9.77607,-0.368457,-0.550293,-146.272,86.1932,-175.908,0,0,0,0.66098,0.173126,0.705353,-0.188324,-35.375,47.6583,-30.0583,-1854,-29524
948,58662,-9.78086,-0.363672,-0.526367,-146.272,86.1932,-175.908,0,0,0,0.66098,0.173126,0.705353,-0.188324,-35.3583,47.65,-30.1167,-1854,-29524
954,58668,-9.79043,-0.373242,-0.550293,-146.272,86.1932,-175.908,0,0,0,0.66098,0.173126,0.705353,-0.188324,-35.3667,47.675,-30.2167,-1854,-29524
960,58674,-9.79043,-0.358887,-0.535937,-146.272,86.1932,-175.908,0,0,0,0.66098,0.173126,0.705353,-0.188324,-35.3583,47.6833,-30.2667,-1854,-29524
966,58680,-9.79521,-0.363672,-0.526367,-146.272,86.1932,-175.908,0,0,0,0.66098,0.173126,0.705353,-0.188324,-35.375,47.6917,-30.275,-1854,-29524
972,58686,-9.78564,-0.363672,-0.545508,-146.272,86.1932,-175.908,0,0,0,0.66098,0.173126,0.705353,-0.188324,-35.3833,47.6917,-30.275,-1854,-29524
978,58692,-9.79043,-0.382813,-0.531152,-146.272,86.1932,-175.908,0,0,0,0.66098,0.173126,0.705353,-0.188324,-35.4083,47.6833,-30.2417,-1854,-29524
984,58698,-9.79043,-0.358887,-0.521582,-146.272,86.1932,-175.908,0,0,0,0.66098,0.173126,0.705353,-0.188324,-35.4667,47.675,-30.1583,-1854,-29524
990,58704,-9.79521,-0.363672,-0.535937,-146.266,86.1932,-175.908,0,0,0,0.66098,0.173126,0.705353,-0.188354,-35.5,47.6917,-30.125,-1854,-29524
996,58710,-9.76172,-0.358887,-0.535937,-146.266,86.1932,-175.908,0,0,0,0.66098,0.173126,0.705353,-0.188354,-35.5167,47.7083,-30.0917,-1854,-29524
1002,58716,-9.77607,-0.368457,-0.545508,-146.266,86.1932,-175.908,0,0,0,0.66098,0.173157,0.705353,-0.188354,-35.525,47.7583,-30.0583,-1854,-29524
1008,58722,-9.78564,-0.339746,-0.526367,-146.266,86.1932,-175.908,0,0,0,0.66098,0.173157,0.705353,-0.188354,-35.525,47.8167,-30.0417,-1854,-29524
1014,58728,-9.8,-0.363672,-0.550293,-146.266,86.1932,-175.908,0,0,0,0.66098,0.173157,0.705353,-0.188354,-35.5,47.8583,-30.0083,-1854,-29524
1020,58734,-9.77129,-0.358887,-0.516797,-146.266,86.1932,-175.908,0,0,0,0.66098,0.173157,0.705353,-0.188354,-35.4667,47.8167,-29.9667,-1854,-29524
1026,58740,-9.78564,-0.363672,-0.526367,-146.266,86.1932,-175.908,0,0,0,0.66098,0.173157,0.705353,-0.188354,-35.4417,47.7833,-29.9083,-1854,-29524
1032,58746,-9.8,-0.344531,-0.516797,-146.266,86.1932,-175.908,0,0,0,0.66098,0.173157,0.705353,-0.188354,-35.425,47.7417,-29.8667,-1854,-29524
1038,58752,-9.79521,-0.354102,-0.531152,-146.266,86.1932,-175.908,0,0,0,0.66098,0.173157,0.705353,-0.188354,-35.4167,47.7083,-29.8083,-1854,-29524
1044,58758,-9.77129,-0.344531,-0.531152,-146.266,86.1932,-175.908,0,0,0,0.66098,0.173157,0.705353,-0.188354,-35.425,47.7083,-29.8417,-1854,-29524
1050,58764,-9.7665,-0.368457,-0.550293,-146.266,86.1932,-175.908,0,0,0,0.66098,0.173157,0.705353,-0.188354,-35.4417,47.725,-29.8417,-1854,-29524
1056,58770,-9.75693,-0.339746,-0.540723,-146.266,86.1932,-175.908,0,0,0,0.66098,0.173157,0.705353,-0.188354,-35.4417,47.7167,-29.8667,-1854,-29524
1062,58776,-9.78564,-0.382813,-0.550293,-146.266,86.1932,-175.908,0,0,0,0.66098,0.173157,0.705353,-0.188354,-35.4333,47.6917,-29.8667,-1854,-29524
1068,58782,-9.81436,-0.349316,-0.535937,-146.266,86.1932,-175.908,0,0,0,0.66098,0.173157,0.705353,-0.188354,-35.4333,47.675,-29.85,-1854,-29524
1074,58788,-9.8,-0.363672,-0.545508,-146.266,86.1932,-175.908,0,0,0,0.66098,0.173157,0.705353,-0.188354,-35.45,47.7,-29.875,-1854,-29524
1080,58794,-9.79521,-0.378027,-0.531152,-146.266,86.1932,-175.908,0,0,0,0.66098,0.173157,0.705353,-0.188354,-35.45,47.7167,-29.9083,-1854,-29524
1086,58800,-9.79521,-0.378027,-0.531152,-146.266,86.1932,-175.908,0,0,0,0.66098,0.173157,0.705353,-0.188354,-35.45,47.7417,-29.975,-1854,-29524
1092,58806,-9.80479,-0.373242,-0.555078,-146.261,86.1932,-175.908,0,0,0,0.66098,0.173157,0.705353,-0.188385,-35.4333,47.75,-30.0333,-1854,-29524
1098,58812,-9.8,-0.339746,-0.545508,-146.261,86.1932,-175.908,0,0,0,0.66098,0.173157,0.705353,-0.188385,-35.4167,47.7417,-30.0917,-1854,-29524
1104,58818,-9.80479,-0.378027,-0.545508,-146.261,86.1932,-175.908,0,0,0,0.66098,0.173187,0.705353,-0.188385,-35.3917,47.725,-30.175,-1854,-29524
1110,58824,-9.78086,-0.334961,-0.550293,-146.261,86.1932,-175.908,0,0,0,0.66098,0.173187,0.705353,-0.188385,-35.3667,47.7167,-30.2167,-1854,-29524
1116,58830,-9.77607,-0.368457,-0.545508,-146.261,86.1932,-175.908,0,0,0,0.66098,0.173187,0.705353,-0.188385,-35.3583,47.7,-30.225,-1854,-29524
1122,58836,-9.7665,-0.354102,-0.545508,-146.261,86.1932,-175.908,0,0,0,0.66098,0.173187,0.705353,-0.188385,-35.3583,47.6833,-30.2333,-1854,-29524
1128,58842,-9.78564,-0.354102,-0.512012,-146.261,86.1932,-175.908,0,0,0,0.66098,0.173187,0.705353,-0.188385,-35.3833,47.725,-30.2583,-1854,-29524
1134,58848,-9.79521,-0.382813,-0.516797,-146.261,86.1932,-175.908,0,0,0,0.66098,0.173187,0.705353,-0.188385,-35.3917,47.7417,-30.2333,-1854,-29524
1140,58854,-9.79043,-0.358887,-0.526367,-146.261,86.1932,-175.908,0,0,0,0.66098,0.173187,0.705353,-0.188385,-35.3833,47.7667,-30.2667,-1854,-29524
1146,58860,-9.79043,-0.358887,-0.540723,-146.261,86.1932,-175.908,0,0,0,0.66098,0.173187,0.705353,-0.188416,-35.35,47.775,-30.2917,-1854,-29524
1152,58866,-9.78564,-0.349316,-0.512012,-146.255,86.1932,-175.908,0,0,0,0.66098,0.173187,0.705353,-0.188416,-35.325,47.775,-30.3083,-1854,-29524
1158,58872,-9.79521,-0.363672,-0.535937,-146.255,86.1932,-175.908,0,0,0,0.66098,0.173218,0.705353,-0.188416,-35.2917,47.7833,-30.3333,-1854,-29524
1164,58878,-9.7665,-0.363672,-0.550293,-146.255,86.1932,-175.908,0,0,0,0.66098,0.173218,0.705353,-0.188416,-35.3,47.7833,-30.3167,-1854,-29524
1170,58884,-9.78564,-0.344531,-0.550293,-146.255,86.1932,-175.908,0,0,0,0.66095,0.173218,0.705353,-0.188416,-35.2833,47.7917,-30.2917,-1854,-29524
1176,58890,-9.77607,-0.354102,-0.550293,-146.255,86.1932,-175.908,0,0,0,0.66095,0.173218,0.705353,-0.188416,-35.2833,47.8,-30.3,-1854,-29524
1182,58896,-9.80479,-0.401953,-0.535937,-146.255,86.1932,-175.908,0,0,0,0.66095,0.173218,0.705353,-0.188416,-35.2917,47.8083,-30.3,-1854,-29524
1188,58902,-9.78564,-0.363672,-0.559863,-146.255,86.1932,-175.908,0,0,0,0.66095,0.173218,0.705322,-0.188446,-35.3333,47.8417,-30.325,-1854,-29524
1194,58908,-9.77129,-0.358887,-0.559863,-146.25,86.1932,-175.908,0,0,0,0.66095,0.173218,0.705322,-0.188446,-35.3583,47.8667,-30.3167,-1854,-29524
1200,58914,-9.8,-0.382813,-0.540723,-146.25,86.1932,-175.908,0,0,0,0.66095,0.173248,0.705322,-0.188446,-35.3667,47.9083,-30.2917,-1854,-29524
1206,58920,-9.78086,-0.363672,-0.550293,-146.25,86.1932,-175.908,0,0,0,0.66095,0.173248,0.705322,-0.188446,-35.3667,47.9333,-30.2833,-1854,-29524
1212,58926,-9.78086,-0.373242,-0.531152,-146.25,86.1932,-175.908,0,0,0,0.66095,0.173248,0.705322,-0.188446,-35.3667,47.95,-30.275,-1854,-29524
1218,58932,-9.80479,-0.373242,-0.535937,-146.25,86.1932,-175.908,0,0,0,0.66095,0.173248,0.705322,-0.188446,-35.3417,47.9417,-30.2667,-1854,-29524
1224,58938,-9.7665,-0.358887,-0.545508,-146.25,86.1932,-175.908,0,0,0,0.66095,0.173248,0.705322,-0.188446,-35.35,47.9333,-30.25,-1854,-29524
1230,58944,-9.78086,-0.368457,-0.535937,-146.25,86.1932,-175.908,0,0,0,0.66095,0.173248,0.705322,-0.188477,-35.3667,47.925,-30.2167,-1854,-29524
1236,58950,-9.78086,-0.382813,-0.516797,-146.245,86.1932,-175.908,0,0,0,0.66095,0.173248,0.705322,-0.188477,-35.3833,47.9333,-30.175,-1854,-29524
1242,58956,-9.77607,-0.358887,-0.540723,-146.245,86.1932,-175.908,0,0,0,0.66095,0.173279,0.705322,-0.188477,-35.4167,47.95,-30.1083,-1854,-29524
1248,58962,-9.8,-0.349316,-0.559863,-146.245,86.1932,-175.908,0,0,0,0.66095,0.173279,0.705322,-0.188477,-35.4417,47.95,-30.0083,-1854,-29524
1254,58968,-9.78564,-0.344531,-0.540723,-146.245,86.1932,-175.908,0,0,0,0.66095,0.173279,0.705322,-0.188507,-35.4417,47.9417,-29.9667,-1854,-29524
1260,58974,-9.78564,-0.368457,-0.540723,-146.245,86.1932,-175.908,0,0,0,0.66095,0.173279,0.705322,-0.188507,-35.4333,47.925,-29.9167,-1854,-29524
1266,58980,-9.80479,-0.358887,-0.545508,-146.245,86.1932,-175.908,0,0,0,0.66095,0.173279,0.705322,-0.188507,-35.4167,47.9167,-29.8667,-1854,-29524
1272,58986,-9.78564,-0.358887,-0.550293,-146.245,86.1932,-175.908,0,0,0,0.66095,0.173279,0.705322,-0.188507,-35.4,47.9083,-29.8583,-1854,-29524
1278,58992,-9.79043,-0.354102,-0.555078,-146.245,86.1932,-175.908,0,0,0,0.66095,0.173279,0.705322,-0.188507,-35.35,47.8583,-29.8833,-1854,-29524
1284,58998,-9.79043,-0.368457,-0.540723,-146.239,86.1932,-175.908,0,0,0,0.66095,0.173309,0.705322,-0.188507,-35.3417,47.85,-29.875,-1854,-29524
1290,59004,-9.78086,-0.358887,-0.526367,-146.239,86.1932,-175.908,0,0,0,0.66095,0.173309,0.705322,-0.188507,-35.35,47.8583,-29.8667,-1854,-29524
1296,59010,-9.78564,-0.392383,-0.531152,-146.239,86.1932,-175.908,0,0,0,0.66095,0.173309,0.705322,-0.188507,-35.35,47.875,-29.8583,-1854,-29524
1302,59016,-9.77607,-0.363672,-0.545508,-146.239,86.1932,-175.908,0,0,0,0.66095,0.173309,0.705322,-0.188507,-35.3333,47.8833,-29.8667,-1854,-29524
1308,59022,-9.78564,-0.363672,-0.531152,-146.239,86.1932,-175.908,0,0,0,0.66095,0.173309,0.705322,-0.188538,-35.3417,47.8833,-29.9083,-1854,-29524
1314,59028,-9.79043,-0.349316,-0.526367,-146.239,86.1932,-175.908,0,0,0,0.660919,0.173309,0.705322,-0.188538,-35.3417,47.8583,-29.9333,-1854,-29524
1320,59034,-9.79043,-0.349316,-0.540723,-146.239,86.1932,-175.908,0,0,0,0.660919,0.173309,0.705322,-0.188538,-35.3667,47.8417,-29.9417,-1854,-29524
1326,59040,-9.78564,-0.354102,-0.555078,-146.234,86.1932,-175.908,0,0,0,0.660919,0.173309,0.705322,-0.188538,-35.4,47.8333,-29.9667,-1854,-29524
1332,59046,-9.7665,-0.339746,-0.545508,-146.234,86.1932,-175.908,0,0,0,0.660919,0.17334,0.705322,-0.188538,-35.4167,47.825,-29.9833,-1854,-29524
1338,59052,-9.79521,-0.368457,-0.531152,-146.234,86.1932,-175.908,0,0,0,0.660919,0.17334,0.705322,-0.188538,-35.4583,47.825,-30.0417,-1854,-29524
1344,59058,-9.80479,-0.349316,-0.535937,-146.234,86.1932,-175.908,0,0,0,0.660919,0.17334,0.705322,-0.188538,-35.45,47.825,-30.125,-1854,-29524
1350,59064,-9.81436,-0.373242,-0.540723,-146.234,86.1932,-175.908,0,0,0,0.660919,0.17334,0.705322,-0.188538,-35.4333,47.8167,-30.2083,-1854,-29524
1356,59070,-9.79521,-0.368457,-0.531152,-146.234,86.1932,-175.908,0,0,0,0.660919,0.17334,0.705322,-0.188568,-35.4167,47.8167,-30.275,-1854,-29524
1362,59076,-9.77129,-0.368457,-0.564648,-146.234,86.1932,-175.908,0,0,0,0.660919,0.17334,0.705322,-0.188568,-35.4,47.8167,-30.35,-1854,-29524
1368,59082,-9.77129,-0.358887,-0.540723,-146.234,86.1932,-175.908,0,0,0,0.660919,0.17334,0.705322,-0.188568,-35.4,47.825,-30.3583,-1854,-29524
1374,59088,-9.7665,-0.363672,-0.526367,-146.234,86.1932,-175.908,0,0,0,0.660919,0.17334,0.705322,-0.188568,-35.4083,47.8167,-30.3333,-1854,-29524
1380,59094,-9.8,-0.363672,-0.540723,-146.234,86.1932,-175.908,0,0,0,0.660919,0.17334,0.705322,-0.188568,-35.4167,47.8,-30.3083,-1854,-29524
1386,59100,-9.77129,-0.363672,-0.521582,-146.234,86.1932,-175.908,0,0,0,0.660919,0.17334,0.705322,-0.188568,-35.425,47.7667,-30.2833,-1854,-29524
1392,59106,-9.7665,-0.368457,-0.526367,-146.234,86.1932,-175.908,0,0,0,0.660919,0.17334,0.705322,-0.188568,-35.425,47.7417,-30.2833,-1854,-29524
1398,59112,-9.79043,-0.373242,-0.507227,-146.228,86.1932,-175.908,0,0,0,0.660919,0.17334,0.705292,-0.188568,-35.425,47.675,-30.3167,-1854,-29524
1404,59118,-9.78564,-0.363672,-0.569434,-146.228,86.1932,-175.908,0,0,0,0.660919,0.17337,0.705292,-0.188568,-35.4083,47.6583,-30.3167,-1854,-29524
1410,59124,-9.8,-0.349316,-0.512012,-146.228,86.1932,-175.908,0,0,0,0.660919,0.17337,0.705292,-0.188599,-35.375,47.6583,-30.2917,-1854,-29524
1416,59130,-9.79043,-0.368457,-0.550293,-146.228,86.1932,-175.908,0,0,0,0.660919,0.17337,0.705292,-0.188599,-35.35,47.6667,-30.2417,-1854,-29524
1422,59136,-9.78086,-0.363672,-0.545508,-146.228,86.1932,-175.908,0,0,0,0.660919,0.17337,0.705292,-0.188599,-35.325,47.7,-30.2667,-1854,-29524
1428,59142,-9.78564,-0.363672,-0.550293,-146.228,86.1932,-175.908,0,0,0,0.660919,0.17337,0.705292,-0.188599,-35.2917,47.7333,-30.3167,-1854,-29524
1434,59148,-9.8,-0.358887,-0.550293,-146.223,86.1932,-175.908,0,0,0,0.660919,0.173401,0.705292,-0.188599,-35.2833,47.7417,-30.3083,-1854,-29524
1440,59154,-9.79043,-0.358887,-0.579004,-146.223,86.1932,-175.908,0,0,0,0.660919,0.173401,0.705292,-0.188599,-35.2667,47.7333,-30.3,-1854,-29524
1446,59160,-9.8,-0.363672,-0.521582,-146.223,86.1932,-175.908,0,0,0,0.660919,0.173401,0.705292,-0.188629,-35.2583,47.7333,-30.3,-1854,-29524
1452,59166,-9.78564,-0.368457,-0.535937,-146.223,86.1932,-175.908,0,0,0,0.660919,0.173401,0.705292,-0.188629,-35.2667,47.7167,-30.275,-1854,-29524
1458,59172,-9.80957,-0.349316,-0.550293,-146.223,86.1932,-175.908,0,0,0,0.660919,0.173401,0.705292,-0.188629,-35.2667,47.7,-30.2083,-1854,-29524
1464,59178,-9.8,-0.368457,-0.512012,-146.223,86.1932,-175.908,0,0,0,0.660919,0.173401,0.705292,-0.188629,-35.2583,47.6917,-30.15,-1854,-29524
1470,59184,-9.77607,-0.349316,-0.531152,-146.223,86.1932,-175.908,0,0,0,0.660919,0.173401,0.705292,-0.188629,-35.2583,47.6833,-30.1167,-1854,-29524
1476,59190,-9.77129,-0.358887,-0.540723,-146.223,86.1932,-175.908,0,0,0,0.660919,0.173401,0.705292,-0.188629,-35.2583,47.675,-30.1167,-1854,-29524
1482,59196,-9.77129,-0.339746,-0.526367,-146.223,86.1932,-175.908,0,0,0,0.660919,0.173401,0.705292,-0.188629,-35.2583,47.6667,-30.125,-1854,-29524
1488,59202,-9.78564,-0.354102,-0.521582,-146.223,86.1932,-175.908,0,0,0,0.660919,0.173401,0.705292,-0.188629,-35.25,47.6417,-30.1,-1854,-29524
1494,59208,-9.77129,-0.344531,-0.516797,-146.223,86.1932,-175.908,0,0,0,0.660919,0.173401,0.705292,-0.188629,-35.25,47.6333,-30.075,-1854,-29524
1500,59214,-9.77129,-0.358887,-0.555078,-146.223,86.1932,-175.908,0,0,0,0.660919,0.173401,0.705292,-0.188629,-35.275,47.6167,-30.0333,-1854,-29524
1506,59220,-9.77607,-0.382813,-0.550293,-146.223,86.1932,-175.908,0,0,0,0.660919,0.173401,0.705292,-0.188629,-35.3,47.6083,-29.9583,-1854,-29524
1512,59226,-9.77607,-0.373242,-0.545508,-146.223,86.1932,-175.908,0,0,0,0.660919,0.173401,0.705292,-0.188629,-35.3083,47.6083,-29.9083,-1854,-29524
1518,59232,-9.79043,-0.363672,-0.507227,-146.217,86.1932,-175.908,0,0,0,0.660889,0.173431,0.705292,-0.188629,-35.2917,47.6083,-29.8333,-1854,-29524
1524,59238,-9.78564,-0.373242,-0.516797,-146.217,86.1932,-175.908,0,0,0,0.660889,0.173431,0.705292,-0.18866,-35.2667,47.5833,-29.8,-1854,-29524
1530,59244,-9.77129,-0.358887,-0.540723,-146.217,86.1932,-175.908,0,0,0,0.660889,0.173431,0.705292,-0.18866,-35.2417,47.5667,-29.7667,-1854,-29524
1536,59250,-9.78564,-0.363672,-0.540723,-146.217,86.1932,-175.908,0,0,0,0.660889,0.173431,0.705292,-0.18866,-35.225,47.5417,-29.725,-1854,-29524
1542,59256,-9.80479,-0.368457,-0.502441,-146.217,86.1932,-175.908,0,0,0,0.660889,0.173431,0.705292,-0.18866,-35.225,47.5333,-29.7,-1854,-29524
1548,59262,-9.79043,-0.363672,-0.550293,-146.217,86.1932,-175.908,0,0,0,0.660889,0.173431,0.705292,-0.18866,-35.2667,47.5417,-29.7167,-1854,-29524
1554,59268,-9.78564,-0.373242,-0.569434,-146.212,86.1932,-175.908,0,0,0,0.660889,0.173462,0.705292,-0.18866,-35.275,47.55,-29.7167,-1854,-29524
1560,59274,-9.78564,-0.363672,-0.521582,-146.212,86.1932,-175.908,0,0,0,0.660889,0.173462,0.705292,-0.18869,-35.275,47.5417,-29.7083,-1854,-29524
1566,59280,-9.81436,-0.363672,-0.531152,-146.212,86.1932,-175.908,0,0,0,0.660889,0.173462,0.705292,-0.18869,-35.2667,47.5333,-29.7083,-1854,-29524
1572,59286,-9.8,-0.363672,-0.535937,-146.212,86.1932,-175.908,0,0,0,0.660889,0.173462,0.705292,-0.18869,-35.225,47.525,-29.7083,-1854,-29524
1578,59292,-9.78564,-0.368457,-0.531152,-146.212,86.1932,-175.908,0,0,0,0.660889,0.173462,0.705261,-0.18869,-35.1917,47.5583,-29.7333,-1854,-29524
1584,59298,-9.80479,-0.354102,-0.550293,-146.212,86.1932,-175.908,0,0,0,0.660889,0.173462,0.705261,-0.18869,-35.1917,47.5833,-29.775,-1854,-29524
1590,59304,-9.79043,-0.339746,-0.545508,-146.212,86.1932,-175.908,0,0,0,0.660889,0.173492,0.705261,-0.188721,-35.1833,47.6,-29.825,-1854,-29524
1596,59310,-9.75693,-0.334961,-0.531152,-146.212,86.1932,-175.908,0,0,0,0.660889,0.173492,0.705261,-0.188721,-35.175,47.625,-29.8667,-1854,-29524
1602,59316,-9.78086,-0.344531,-0.531152,-146.212,86.1932,-175.908,0,0,0,0.660889,0.173492,0.705261,-0.188721,-35.1583,47.65,-29.925,-1854,-29524
1608,59322,-9.78564,-0.344531,-0.559863,-146.212,86.1932,-175.908,0,0,0,0.660889,0.173492,0.705261,-0.188721,-35.1333,47.6667,-29.9083,-1854,-29524
1614,59328,-9.79043,-0.363672,-0.531152,-146.212,86.1932,-175.908,0,0,0,0.660889,0.173492,0.705261,-0.188721,-35.1333,47.675,-29.9083,-1854,-29524
1620,59334,-9.78564,-0.349316,-0.545508,-146.212,86.1932,-175.908,0,0,0,0.660889,0.173492,0.705261,-0.188721,-35.1083,47.6833,-29.875,-1854,-29524
1626,59340,-9.8,-0.368457,-0.540723,-146.212,86.1932,-175.908,0,0,0,0.660889,0.173492,0.705261,-0.188721,-35.1083,47.6833,-29.8333,-1854,-29524
1632,59346,-9.77607,-0.368457,-0.512012,-146.212,86.1932,-175.908,0,0,0,0.660889,0.173492,0.705261,-0.188721,-35.1,47.6917,-29.8167,-1854,-29524
1638,59352,-9.78564,-0.358887,-0.545508,-146.212,86.1932,-175.908,0,0,0,0.660889,0.173492,0.705261,-0.188721,-35.1167,47.7167,-29.7167,-1854,-29524
1644,59358,-9.78086,-0.339746,-0.550293,-146.206,86.1932,-175.908,0,0,0,0.660889,0.173492,0.705261,-0.188721,-35.125,47.7333,-29.7083,-1854,-29524
1650,59364,-9.7665,-0.354102,-0.559863,-146.212,86.1932,-175.908,0,0,0,0.660889,0.173492,0.705261,-0.188721,-35.15,47.7667,-29.7,-1854,-29524
1656,59370,-9.77129,-0.354102,-0.526367,-146.212,86.1932,-175.908,0,0,0,0.660889,0.173492,0.705261,-0.188721,-35.1583,47.7917,-29.7333,-1854,-29524
1662,59376,-9.77607,-0.358887,-0.535937,-146.212,86.1932,-175.908,0,0,0,0.660889,0.173492,0.705261,-0.188721,-35.1667,47.8083,-29.775,-1854,-29524
1668,59382,-9.79043,-0.349316,-0.535937,-146.212,86.1932,-175.908,0,0,0,0.660889,0.173462,0.705261,-0.18869,-35.1667,47.8167,-29.85,-1854,-29524
1674,59388,-9.80479,-0.358887,-0.531152,-146.212,86.1932,-175.908,0,0,0,0.660889,0.173462,0.705261,-0.18869,-35.1583,47.8167,-29.8833,-1854,-29524
1680,59394,-9.78086,-0.363672,-0.564648,-146.212,86.1932,-175.908,0,0,0,0.660889,0.173462,0.705261,-0.18869,-35.1667,47.8333,-29.9167,-1854,-29524
1686,59400,-9.78086,-0.354102,-0.540723,-146.212,86.1932,-175.908,0,0,0,0.660889,0.173462,0.705261,-0.18869,-35.1833,47.8583,-29.975,-1854,-29524
1692,59406,-9.78564,-0.344531,-0.555078,-146.212,86.1932,-175.908,0,0,0,0.660889,0.173462,0.705261,-0.18869,-35.2,47.8583,-30.025,-1854,-29524
1698,59412,-9.8,-0.358887,-0.531152,-146.212,86.1932,-175.908,0,0,0,0.660889,0.173462,0.705261,-0.18869,-35.225,47.85,-30.0917,-1854,-29524
1704,59418,-9.79521,-0.354102,-0.535937,-146.217,86.1932,-175.908,0,0,0,0.660889,0.173462,0.705261,-0.18869,-35.225,47.8417,-30.0833,-1854,-29524
1710,59424,-9.8,-0.354102,-0.559863,-146.217,86.1932,-175.908,0,0,0,0.660889,0.173462,0.705292,-0.18866,-35.2083,47.8333,-30.0667,-1854,-29524
1716,59430,-9.78564,-0.368457,-0.535937,-146.217,86.1932,-175.908,0,0,0,0.660889,0.173431,0.705292,-0.18866,-35.1917,47.8167,-30.0417,-1854,-29524
1722,59436,-9.79043,-0.373242,-0.531152,-146.217,86.1932,-175.908,0,0,0,0.660889,0.173431,0.705292,-0.18866,-35.2083,47.8083,-30.025,-1854,-29524
1728,59442,-9.77129,-0.339746,-0.531152,-146.217,86.1932,-175.908,0,0,0,0.660919,0.173431,0.705292,-0.18866,-35.25,47.8167,-29.9917,-1854,-29524
1734,59448,-9.79043,-0.368457,-0.531152,-146.217,86.1932,-175.908,0,0,0,0.660919,0.173431,0.705292,-0.18866,-35.2833,47.8167,-29.9833,-1854,-29524
1740,59454,-9.77607,-0.368457,-0.535937,-146.223,86.1932,-175.908,0,0,0,0.660919,0.173431,0.705292,-0.188629,-35.2833,47.825,-30.0083,-1854,-29524
1746,59460,-9.80479,-0.363672,-0.516797,-146.223,86.1932,-175.908,0,0,0,0.660919,0.173431,0.705292,-0.188629,-35.2833,47.825,-30.0417,-1854,-29524
1752,59466,-9.79043,-0.354102,-0.535937,-146.223,86.1932,-175.908,0,0,0,0.660919,0.173431,0.705292,-0.188629,-35.2917,47.8333,-30.0667,-1854,-29524
1758,59472,-9.79043,-0.363672,-0.521582,-146.223,86.1932,-175.908,0,0,0,0.660919,0.173401,0.705292,-0.188629,-35.325,47.8667,-30.0917,-1854,-29524
1764,59478,-9.79521,-0.363672,-0.564648,-146.223,86.1932,-175.908,0,0,0,0.660919,0.173401,0.705292,-0.188629,-35.3417,47.8833,-30.0583,-1854,-29524
1770,59484,-9.8,-0.358887,-0.540723,-146.223,86.1932,-175.908,0,0,0,0.660919,0.173401,0.705292,-0.188629,-35.3333,47.8833,-30.025,-1854,-29524
1776,59490,-9.8,-0.387598,-0.545508,-146.223,86.1932,-175.908,0,0,0,0.660919,0.173401,0.705292,-0.188629,-35.3167,47.875,-29.9667,-1854,-29524
1782,59496,-9.77607,-0.382813,-0.555078,-146.223,86.1932,-175.908,0,0,0,0.660919,0.173401,0.705292,-0.188629,-35.2917,47.8667,-29.9333,-1854,-29524
1788,59502,-9.79043,-0.339746,-0.559863,-146.223,86.1932,-175.908,0,0,0,0.660919,0.173431,0.705292,-0.188629,-35.2917,47.8083,-29.9167,-1854,-29524
1794,59508,-9.77129,-0.358887,-0.550293,-146.223,86.1932,-175.908,0,0,0,0.660919,0.173401,0.705292,-0.188629,-35.3,47.7833,-29.9167,-1854,-29524
1800,59514,-9.78564,-0.354102,-0.535937,-146.223,86.1932,-175.908,0,0,0,0.660919,0.173401,0.705292,-0.188629,-35.325,47.7667,-29.9083,-1854,-29524
1806,59520,-9.79043,-0.354102,-0.564648,-146.223,86.1932,-175.908,0,0,0,0.660919,0.173401,0.705292,-0.188629,-35.3417,47.775,-29.9333,-1854,-29524
1812,59526,-9.8,-0.363672,-0.540723,-146.223,86.1932,-175.908,0,0,0,0.660919,0.173401,0.705292,-0.188629,-35.3417,47.7917,-29.925,-1854,-29524
1818,59532,-9.79043,-0.354102,-0.545508,-146.223,86.1932,-175.908,0,0,0,0.660919,0.173401,0.705292,-0.188629,-35.3167,47.8167,-29.8583,-1854,-29524
1824,59538,-9.82393,-0.363672,-0.535937,-146.223,86.1932,-175.908,0,0,0,0.660919,0.173401,0.705292,-0.188629,-35.2917,47.7917,-29.8167,-1854,-29524
1830,59544,-9.81914,-0.339746,-0.574219,-146.223,86.1932,-175.908,0,0,0,0.660919,0.173401,0.705292,-0.188629,-35.2667,47.7917,-29.7667,-1854,-29524
1836,59550,-9.78564,-0.363672,-0.555078,-146.228,86.1932,-175.908,0,0,0,0.660919,0.173401,0.705292,-0.188629,-35.2667,47.8,-29.7333,-1854,-29524
1842,59556,-9.78564,-0.368457,-0.545508,-146.228,86.1932,-175.908,0,0,0,0.660919,0.173401,0.705292,-0.188599,-35.2833,47.8083,-29.7417,-1854,-29524
1848,59562,-9.77129,-0.363672,-0.545508,-146.228,86.1932,-175.908,0,0,0,0.660919,0.17337,0.705292,-0.188599,-35.275,47.8167,-29.7583,-1854,-29524
1854,59568,-9.79043,-0.368457,-0.540723,-146.228,86.1932,-175.908,0,0,0,0.660919,0.17337,0.705292,-0.188599,-35.2583,47.8083,-29.7917,-1854,-29524
1860,59574,-9.78564,-0.382813,-0.540723,-146.228,86.1932,-175.908,0,0,0,0.660919,0.17337,0.705292,-0.188599,-35.25,47.825,-29.8083,-1854,-29524
1866,59580,-9.79043,-0.354102,-0.535937,-146.228,86.1932,-175.908,0,0,0,0.660919,0.17337,0.705292,-0.188599,-35.2083,47.825,-29.8333,-1854,-29524
1872,59586,-9.78564,-0.382813,-0.535937,-146.228,86.1932,-175.908,0,0,0,0.660919,0.17337,0.705292,-0.188599,-35.2333,47.85,-29.825,-1854,-29524
1878,59592,-9.78564,-0.354102,-0.535937,-146.228,86.1932,-175.908,0,0,0,0.660919,0.17337,0.705292,-0.188599,-35.2667,47.85,-29.7917,-1854,-29524
1884,59598,-9.77129,-0.373242,-0.559863,-146.228,86.1932,-175.908,0,0,0,0.660919,0.17337,0.705292,-0.188599,-35.325,47.85,-29.7833,-1854,-29524
1890,59604,-9.78564,-0.358887,-0.545508,-146.228,86.1932,-175.908,0,0,0,0.660919,0.17337,0.705292,-0.188599,-35.35,47.8417,-29.775,-1854,-29524
1896,59610,-9.77607,-0.354102,-0.535937,-146.228,86.1932,-175.908,0,0,0,0.660919,0.17337,0.705292,-0.188599,-35.3583,47.8417,-29.75,-1854,-29524
1902,59616,-9.78086,-0.349316,-0.531152,-146.228,86.1932,-175.908,0,0,0,0.660919,0.17337,0.705292,-0.188599,-35.4083,47.8667,-29.6583,-1854,-29524
1908,59622,-9.78564,-0.368457,-0.531152,-146.228,86.1932,-175.908,0,0,0,0.660919,0.17337,0.705292,-0.188599,-35.4417,47.875,-29.5833,-1854,-29524
1914,59628,-9.79043,-0.368457,-0.540723,-146.228,86.1932,-175.908,0,0,0,0.660919,0.17337,0.705322,-0.188599,-35.475,47.8917,-29.5417,-1854,-29524
1920,59634,-9.78086,-0.363672,-0.535937,-146.228,86.1932,-175.908,0,0,0,0.660919,0.17337,0.705322,-0.188599,-35.5083,47.9083,-29.5083,-1854,-29524
1926,59640,-9.79521,-0.378027,-0.535937,-146.228,86.1932,-175.908,0,0,0,0.660919,0.17337,0.705322,-0.188599,-35.5333,47.9167,-29.4667,-1854,-29524
1932,59646,-9.81436,-0.354102,-0.521582,-146.228,86.1932,-175.908,0,0,0,0.660919,0.17337,0.705292,-0.188599,-35.5667,47.9667,-29.45,-1854,-29524
1938,59652,-9.79043,-0.363672,-0.540723,-146.223,86.1932,-175.908,0,0,0,0.660889,0.17337,0.705292,-0.188599,-35.575,47.9583,-29.475,-1854,-29524
1944,59658,-9.78564,-0.363672,-0.521582,-146.223,86.1932,-175.908,0,0,0,0.660889,0.173401,0.705292,-0.188629,-35.5917,47.9583,-29.4917,-1854,-29524
1950,59664,-9.77607,-0.368457,-0.550293,-146.223,86.1932,-175.908,0,0,0,0.660889,0.173401,0.705292,-0.188629,-35.6,47.9417,-29.5333,-1854,-29524
1956,59670,-9.78086,-0.373242,-0.521582,-146.223,86.1932,-175.908,0,0,0,0.660889,0.173401,0.705292,-0.188629,-35.6083,47.9167,-29.5167,-1854,-29524
1962,59676,-9.77607,-0.373242,-0.526367,-146.223,86.1932,-175.908,0,0,0,0.660889,0.173401,0.705292,-0.188629,-35.6333,47.9083,-29.4417,-1854,-29524
1968,59682,-9.78564,-0.373242,-0.531152,-146.217,86.1932,-175.908,0,0,0,0.660889,0.173401,0.705292,-0.188629,-35.6417,47.9083,-29.3917,-1854,-29524
1974,59688,-9.80479,-0.358887,-0.550293,-146.217,86.1932,-175.908,0,0,0,0.660889,0.173431,0.705292,-0.18866,-35.6417,47.9083,-29.3417,-1854,-29524
1980,59694,-9.80479,-0.344531,-0.564648,-146.217,86.1932,-175.908,0,0,0,0.660889,0.173431,0.705292,-0.18866,-35.6333,47.9167,-29.325,-1854,-29524
1986,59700,-9.78564,-0.373242,-0.559863,-146.217,86.1932,-175.908,0,0,0,0.660889,0.173431,0.705292,-0.18866,-35.6083,47.9083,-29.3667,-1854,-29524
1992,59706,-9.79043,-0.358887,-0.559863,-146.217,86.1932,-175.908,0,0,0,0.660889,0.173431,0.705292,-0.18866,-35.575,47.9083,-29.425,-1854,-29524
1998,59712,-9.78086,-0.382813,-0.555078,-146.217,86.1932,-175.908,0,0,0,0.660889,0.173431,0.705292,-0.18866,-35.5583,47.9167,-29.45,-1854,-29524
2004,59718,-9.7665,-0.311035,-0.521582,-146.217,86.1932,-175.908,0,0,0,0.660889,0.173431,0.705292,-0.18869,-35.5417,47.9167,-29.525,-1854,-29524
2010,59724,-9.77607,-0.373242,-0.531152,-146.212,86.1932,-175.908,0,0,0,0.660889,0.173431,0.705292,-0.18869,-35.5083,47.9167,-29.5917,-1854,-29524
2016,59730,-9.79521,-0.363672,-0.559863,-146.212,86.1932,-175.908,0,0,0,0.660889,0.173462,0.705292,-0.18869,-35.475,47.9083,-29.6417,-1854,-29524
2022,59736,-9.78564,-0.349316,-0.555078,-146.212,86.1932,-175.908,0,0,0,0.660889,0.173462,0.705292,-0.18869,-35.4583,47.875,-29.6583,-1854,-29524
2028,59742,-9.79043,-0.368457,-0.545508,-146.212,86.1932,-175.908,0,0,0,0.660889,0.173462,0.705292,-0.18869,-35.45,47.85,-29.6583,-1854,-29524
2034,59748,-9.79043,-0.378027,-0.550293,-146.212,86.1932,-175.908,0,0,0,0.660889,0.173462,0.705292,-0.18869,-35.45,47.8167,-29.625,-1854,-29524
2040,59754,-9.77607,-0.368457,-0.516797,-146.212,86.1932,-175.908,0,0,0,0.660889,0.173462,0.705292,-0.18869,-35.45,47.8083,-29.6167,-1854,-29524
2046,59760,-9.8,-0.368457,-0.545508,-146.212,86.1932,-175.908,0,0,0,0.660889,0.173462,0.705292,-0.18869,-35.4417,47.7917,-29.6083,-1854,-29524
2052,59766,-9.79521,-0.334961,-0.540723,-146.212,86.1932,-175.908,0,0,0,0.660858,0.173462,0.705292,-0.18869,-35.4667,47.8,-29.625,-1854,-29524
2058,59772,-9.76172,-0.354102,-0.555078,-146.212,86.1932,-175.908,0,0,0,0.660858,0.173462,0.705292,-0.188721,-35.4833,47.8167,-29.6583,-1854,-29524
2064,59778,-9.77607,-0.392383,-0.545508,-146.212,86.1932,-175.908,0,0,0,0.660858,0.173462,0.705292,-0.188721,-35.4833,47.8167,-29.6667,-1854,-29524
2070,59784,-9.78086,-0.368457,-0.512012,-146.212,86.1932,-175.908,0,0,0,0.660858,0.173462,0.705292,-0.188721,-35.4833,47.825,-29.625,-1854,-29524
2076,59790,-9.78564,-0.358887,-0.535937,-146.206,86.1932,-175.908,0,0,0,0.660858,0.173462,0.705292,-0.188721,-35.4917,47.8167,-29.5917,-1854,-29524
2082,59796,-9.8,-0.358887,-0.516797,-146.206,86.1932,-175.908,0,0,0,0.660858,0.173492,0.705292,-0.188721,-35.5167,47.85,-29.5417,-1854,-29524
2088,59802,-9.79521,-0.344531,-0.555078,-146.206,86.1932,-175.908,0,0,0,0.660858,0.173492,0.705292,-0.188721,-35.5083,47.85,-29.5417,-1854,-29524
2094,59808,-9.78086,-0.363672,-0.526367,-146.206,86.1932,-175.908,0,0,0,0.660858,0.173492,0.705292,-0.188751,-35.5,47.85,-29.5417,-1854,-29524
2100,59814,-9.79043,-0.368457,-0.545508,-146.206,86.1932,-175.908,0,0,0,0.660858,0.173492,0.705292,-0.188751,-35.4917,47.85,-29.5417,-1854,-29524
2106,59820,-9.77129,-0.378027,-0.545508,-146.206,86.1932,-175.908,0,0,0,0.660858,0.173492,0.705292,-0.188751,-35.4667,47.8333,-29.55,-1854,-29524
2112,59826,-9.77129,-0.363672,-0.526367,-146.201,86.1932,-175.908,0,0,0,0.660858,0.173523,0.705292,-0.188751,-35.4167,47.8083,-29.4667,-1854,-29524
2118,59832,-9.79043,-0.363672,-0.540723,-146.201,86.1877,-175.908,0,0,0,0.660858,0.173523,0.705292,-0.188751,-35.425,47.8083,-29.4167,-1854,-29524
2124,59838,-9.76172,-0.378027,-0.531152,-146.201,86.1877,-175.908,0,0,0,0.660858,0.173523,0.705292,-0.188782,-35.45,47.8167,-29.375,-1854,-29524
2130,59844,-9.81436,-0.368457,-0.526367,-146.201,86.1877,-175.908,0,0,0,0.660858,0.173523,0.705292,-0.188782,-35.475,47.8417,-29.35,-1854,-29524
2136,59850,-9.79043,-0.349316,-0.516797,-146.195,86.1877,-175.908,0,0,0,0.660858,0.173523,0.705292,-0.188782,-35.4917,47.8833,-29.35,-1854,-29524
2142,59856,-9.8,-0.363672,-0.526367,-146.195,86.1877,-175.908,0,0,0,0.660858,0.173553,0.705261,-0.188782,-35.5167,47.95,-29.3333,-1854,-29524
2148,59862,-9.78564,-0.373242,-0.545508,-146.195,86.1877,-175.908,0,0,0,0.660858,0.173553,0.705261,-0.188812,-35.5167,47.95,-29.35,-1854,-29524
2154,59868,-9.77607,-0.368457,-0.550293,-146.195,86.1877,-175.908,0,0,0,0.660828,0.173553,0.705261,-0.188812,-35.5083,47.9167,-29.35,-1854,-29524
2160,59874,-9.78086,-0.378027,-0.540723,-146.195,86.1877,-175.908,0,0,0,0.660828,0.173553,0.705261,-0.188812,-35.5167,47.9083,-29.3667,-1854,-29524
2166,59880,-9.79521,-0.349316,-0.559863,-146.19,86.1877,-175.908,0,0,0,0.660828,0.173553,0.705261,-0.188812,-35.5083,47.8833,-29.3917,-1854,-29524
2172,59886,-9.8,-0.368457,-0.535937,-146.19,86.1877,-175.908,0,0,0,0.660828,0.173584,0.705261,-0.188843,-35.4917,47.85,-29.4167,-1854,-29524
2178,59892,-9.8,-0.363672,-0.535937,-146.19,86.1877,-175.908,0,0,0,0.660828,0.173584,0.705261,-0.188843,-35.4833,47.8333,-29.4667,-1854,-29524
2184,59898,-9.78086,-0.349316,-0.559863,-146.19,86.1877,-175.908,0,0,0,0.660828,0.173584,0.705261,-0.188843,-35.475,47.8333,-29.5,-1854,-29524
2190,59904,-9.79043,-0.382813,-0.535937,-146.19,86.1877,-175.908,0,0,0,0.660828,0.173584,0.705261,-0.188843,-35.4667,47.8333,-29.5,-1854,-29524
2196,59910,-9.7665,-0.378027,-0.550293,-146.184,86.1877,-175.908,0,0,0,0.660828,0.173584,0.705261,-0.188843,-35.45,47.8417,-29.4583,-1854,-29524
2202,59916,-9.77607,-0.373242,-0.540723,-146.184,86.1877,-175.908,0,0,0,0.660828,0.173615,0.705261,-0.188873,-35.4333,47.825,-29.2833,-1854,-29524
2208,59922,-9.77129,-0.358887,-0.550293,-146.184,86.1877,-175.908,0,0,0,0.660828,0.173615,0.705261,-0.188873,-35.4333,47.8083,-29.2167,-1854,-29524
2214,59928,-9.79043,-0.368457,-0.559863,-146.184,86.1877,-175.908,0,0,0,0.660828,0.173615,0.705261,-0.188873,-35.4333,47.7833,-29.1917,-1854,-29524
2220,59934,-9.79043,-0.354102,-0.545508,-146.184,86.1877,-175.908,0,0,0,0.660828,0.173615,0.705261,-0.188873,-35.4333,47.7583,-29.2083,-1854,-29524
2226,59940,-9.78086,-0.354102,-0.550293,-146.184,86.1877,-175.908,0,0,0,0.660828,0.173615,0.705261,-0.188873,-35.4417,47.7583,-29.2333,-1854,-29524
2232,59946,-9.77607,-0.368457,-0.559863,-146.184,86.1877,-175.908,0,0,0,0.660828,0.173615,0.705261,-0.188873,-35.4667,47.775,-29.2417,-1854,-29524
2238,59952,-9.79043,-0.387598,-0.526367,-146.184,86.1877,-175.908,0,0,0,0.660828,0.173615,0.705261,-0.188873,-35.475,47.7833,-29.225,-1854,-29524
2244,59958,-9.77607,-0.344531,-0.564648,-146.184,86.1877,-175.908,0,0,0,0.660828,0.173615,0.705261,-0.188873,-35.4667,47.7667,-29.2167,-1854,-29524
2250,59964,-9.77129,-0.354102,-0.531152,-146.184,86.1877,-175.908,0,0,0,0.660828,0.173615,0.705261,-0.188873,-35.45,47.75,-29.175,-1854,-29524
2256,59970,-9.78086,-0.368457,-0.531152,-146.184,86.1877,-175.908,0,0,0,0.660828,0.173615,0.705261,-0.188873,-35.4333,47.75,-29.1833,-1854,-29524
2262,59976,-9.8,-0.344531,-0.540723,-146.184,86.1877,-175.908,0,0,0,0.660828,0.173615,0.705261,-0.188873,-35.3833,47.75,-29.1417,-1854,-29524
2268,59982,-9.78564,-0.373242,-0.564648,-146.19,86.1877,-175.908,0,0,0,0.660828,0.173584,0.705261,-0.188843,-35.3917,47.7583,-29.1,-1854,-29524
2274,59988,-9.78564,-0.363672,-0.559863,-146.19,86.1877,-175.908,0,0,0,0.660828,0.173584,0.705261,-0.188843,-35.3917,47.7833,-29.075,-1854,-29524
2280,59994,-9.8,-0.358887,-0.531152,-146.19,86.1877,-175.908,0,0,0,0.660828,0.173584,0.705261,-0.188843,-35.3833,47.7833,-29.0417,-1854,-29524
2286,60000,-9.78086,-0.368457,-0.545508,-146.19,86.1877,-175.908,0,0,0,0.660828,0.173584,0.705261,-0.188843,-35.3667,47.7833,-29.0333,-1854,-29524
2292,60006,-9.78086,-0.378027,-0.550293,-146.19,86.1877,-175.908,0,0,0,0.660828,0.173584,0.705261,-0.188843,-35.3917,47.8,-29.0917,-1854,-29524
2298,60012,-9.77129,-0.363672,-0.521582,-146.19,86.1877,-175.908,0,0,0,0.660828,0.173584,0.705261,-0.188843,-35.425,47.8,-29.1417,-1854,-29524
2304,60018,-9.80479,-0.368457,-0.559863,-146.19,86.1877,-175.908,0,0,0,0.660828,0.173584,0.705261,-0.188843,-35.4583,47.8083,-29.1917,-1854,-29524
2310,60024,-9.79521,-0.339746,-0.545508,-146.19,86.1877,-175.908,0,0,0,0.660828,0.173584,0.705261,-0.188843,-35.4833,47.7917,-29.2,-1854,-29524
2316,60030,-9.78564,-0.382813,-0.545508,-146.19,86.1877,-175.908,0,0,0,0.660828,0.173584,0.705261,-0.188843,-35.4833,47.7917,-29.1917,-1854,-29524
2322,60036,-9.77607,-0.358887,-0.550293,-146.19,86.1877,-175.908,0,0,0,0.660828,0.173584,0.705261,-0.188843,-35.4583,47.8167,-29.1417,-1854,-29524
2328,60042,-9.77129,-0.378027,-0.550293,-146.19,86.1877,-175.908,0,0,0,0.660828,0.173584,0.705261,-0.188843,-35.4583,47.8417,-29.1333,-1854,-29524
2334,60048,-9.77607,-0.344531,-0.564648,-146.19,86.1877,-175.908,0,0,0,0.660828,0.173584,0.705261,-0.188843,-35.4583,47.8583,-29.1417,-1854,-29524
2340,60054,-9.80479,-0.358887,-0.531152,-146.19,86.1877,-175.908,0,0,0,0.660828,0.173584,0.705261,-0.188843,-35.4667,47.8583,-29.1083,-1854,-29524
2346,60060,-9.78086,-0.358887,-0.545508,-146.19,86.1877,-175.908,0,0,0,0.660828,0.173584,0.705261,-0.188843,-35.4667,47.85,-29.075,-1854,-29524
2352,60066,-9.80957,-0.363672,-0.569434,-146.19,86.1877,-175.908,0,0,0,0.660828,0.173584,0.705292,-0.188843,-35.4333,47.825,-29.0167,-1854,-29524
2358,60072,-9.77129,-0.339746,-0.535937,-146.19,86.1877,-175.908,0,0,0,0.660828,0.173553,0.705292,-0.188843,-35.4083,47.8167,-29.05,-1854,-29524
2364,60078,-9.78086,-0.378027,-0.535937,-146.195,86.1877,-175.908,0,0,0,0.660828,0.173553,0.705292,-0.188812,-35.375,47.8167,-29.125,-1854,-29524
2370,60084,-9.8,-0.358887,-0.540723,-146.195,86.1877,-175.908,0,0,0,0.660828,0.173553,0.705292,-0.188812,-35.3667,47.8333,-29.1833,-1854,-29524
2376,60090,-9.79043,-0.363672,-0.540723,-146.195,86.1877,-175.908,0,0,0,0.660828,0.173553,0.705292,-0.188812,-35.3833,47.8667,-29.2583,-1854,-29524
2382,60096,-9.79043,-0.368457,-0.540723,-146.195,86.1877,-175.908,0,0,0,0.660828,0.173553,0.705292,-0.188812,-35.4417,47.9,-29.2833,-1854,-29524
2388,60102,-9.79043,-0.387598,-0.535937,-146.195,86.1877,-175.908,0,0,0,0.660828,0.173553,0.705292,-0.188812,-35.4333,47.9083,-29.2667,-1854,-29524
2394,60108,-9.77129,-0.368457,-0.550293,-146.195,86.1877,-175.908,0,0,0,0.660828,0.173553,0.705292,-0.188812,-35.4,47.9167,-29.2417,-1854,-29524
2400,60114,-9.77607,-0.358887,-0.550293,-146.195,86.1877,-175.908,0,0,0,0.660828,0.173553,0.705292,-0.188812,-35.35,47.9167,-29.2583,-1854,-29524
2406,60120,-9.8,-0.358887,-0.540723,-146.195,86.1877,-175.908,0,0,0,0.660828,0.173553,0.705292,-0.188812,-35.3083,47.9,-29.2833,-1854,-29524
2412,60126,-9.78564,-0.358887,-0.550293,-146.195,86.1877,-175.908,0,0,0,0.660828,0.173553,0.705292,-0.188812,-35.3417,47.9,-29.3167,-1854,-29524
2418,60132,-9.78564,-0.349316,-0.569434,-146.195,86.1877,-175.908,0,0,0,0.660828,0.173553,0.705292,-0.188812,-35.3833,47.9167,-29.325,-1854,-29524
2424,60138,-9.79521,-0.358887,-0.555078,-146.195,86.1877,-175.908,0,0,0,0.660828,0.173553,0.705292,-0.188812,-35.4083,47.925,-29.3333,-1854,-29524
2430,60144,-9.78564,-0.368457,-0.531152,-146.195,86.1877,-175.908,0,0,0,0.660828,0.173553,0.705292,-0.188812,-35.4167,47.925,-29.35,-1854,-29524
2436,60150,-9.77607,-0.358887,-0.531152,-146.195,86.1877,-175.908,0,0,0,0.660828,0.173553,0.705292,-0.188812,-35.4167,47.9083,-29.325,-1854,-29524
2442,60156,-9.79043,-0.368457,-0.545508,-146.195,86.1877,-175.908,0,0,0,0.660828,0.173553,0.705292,-0.188812,-35.4083,47.875,-29.325,-1854,-29524
2448,60162,-9.80479,-0.349316,-0.555078,-146.195,86.1877,-175.908,0,0,0,0.660828,0.173553,0.705292,-0.188812,-35.4083,47.8833,-29.325,-1854,-29524
2454,60168,-9.78564,-0.339746,-0.526367,-146.195,86.1877,-175.908,0,0,0,0.660828,0.173553,0.705292,-0.188812,-35.4083,47.8833,-29.325,-1854,-29524
2460,60174,-9.79043,-0.358887,-0.540723,-146.195,86.1877,-175.908,0,0,0,0.660828,0.173523,0.705292,-0.188812,-35.4167,47.8917,-29.3417,-1854,-29524
2466,60180,-9.78086,-0.363672,-0.531152,-146.195,86.1877,-175.908,0,0,0,0.660828,0.173523,0.705292,-0.188812,-35.425,47.9167,-29.3333,-1854,-29524
2472,60186,-9.80479,-0.368457,-0.531152,-146.195,86.1877,-175.908,0,0,0,0.660828,0.173523,0.705292,-0.188812,-35.4417,47.9333,-29.275,-1854,-29524
