TimeSinceCollection,Timestamp,AccX,AccY,AccZ,AngleRoll,AnglePitch,AngleYaw,AngularVelX,AngularVelY,AngularVelZ,Q1,Q2,Q3,Q4,MagX,MagY,MagZ,Height,Airpressure
0,2922002,9.81436,0.172266,0.311035,27.8998,-87.6874,44.8682,-0.12207,0,0,-0.583221,-0.417236,0.554993,-0.421448,-150.375,-55.25,-60.05,-1422,-29576
6,2922008,9.81914,0.16748,0.363672,27.8613,-87.6874,44.9066,0,0,0.366211,-0.583221,-0.417236,0.554993,-0.421478,-150.35,-55.2333,-60.075,-1422,-29576
12,2922014,9.81914,0.177051,0.363672,27.7954,-87.6874,44.9725,0.0610352,0,0.244141,-0.583221,-0.417206,0.555023,-0.421478,-150.317,-55.2,-60.075,-1422,-29576
18,2922020,9.80479,0.172266,0.358887,27.7844,-87.6874,44.978,0,0.183105,0,-0.583221,-0.417206,0.555023,-0.421478,-150.308,-55.1833,-60.05,-1422,-29576
24,2922026,9.8,0.172266,0.349316,27.7405,-87.6874,45.022,0,0,0.366211,-0.583221,-0.417206,0.555023,-0.421478,-150.3,-55.1583,-60.0333,-1422,-29576
30,2922032,9.80479,0.177051,0.354102,27.746,-87.6874,45.0165,0,-0.0610352,0,-0.583221,-0.417206,0.555023,-0.421478,-150.283,-55.15,-60.025,-1422,-29576
36,2922038,9.80957,0.191406,0.363672,27.702,-87.6874,45.0549,-0.0610352,0,0.366211,-0.583221,-0.417175,0.555023,-0.421478,-150.292,-55.15,-60.075,-1422,-29576
42,2922044,9.80957,0.186621,0.354102,27.6801,-87.6874,45.0824,-0.0610352,-0.0610352,0.244141,-0.583221,-0.417175,0.555054,-0.421478,-150.342,-55.1917,-60.1333,-1422,-29576
48,2922050,9.79521,0.162695,0.349316,27.6855,-87.6874,45.0714,-0.12207,-0.12207,0,-0.583221,-0.417175,0.555054,-0.421478,-150.367,-55.2083,-60.1333,-1422,-29576
54,2922056,9.8335,0.15791,0.368457,27.6855,-87.6874,45.0714,0,-0.0610352,0,-0.583221,-0.417145,0.555054,-0.421478,-150.367,-55.2167,-60.1417,-1422,-29576
60,2922062,9.78086,0.16748,0.330176,27.6965,-87.6874,45.0549,0,0,-0.12207,-0.583221,-0.417145,0.555054,-0.421448,-150.35,-55.225,-60.1583,-1422,-29576
66,2922068,9.80479,0.16748,0.339746,27.713,-87.6874,45.0439,-0.0610352,0,-0.12207,-0.583221,-0.417145,0.555054,-0.421448,-150.325,-55.2417,-60.1667,-1422,-29576
72,2922074,9.81914,0.177051,0.349316,27.7844,-87.6874,44.9615,-0.0610352,-0.0610352,-0.427246,-0.583252,-0.417145,0.555084,-0.421387,-150.275,-55.2833,-60.2083,-1422,-29576
78,2922080,9.82393,0.210547,0.330176,27.7789,-87.6874,44.967,0,0.12207,0,-0.583252,-0.417145,0.555084,-0.421387,-150.275,-55.3,-60.1917,-1422,-29576
84,2922086,9.79521,0.181836,0.358887,27.8229,-87.6874,44.9231,-0.0610352,-0.0610352,-0.366211,-0.583282,-0.417145,0.555084,-0.421387,-150.283,-55.3167,-60.25,-1422,-29576
90,2922092,9.80957,0.186621,0.344531,27.8284,-87.6874,44.9121,0,-0.183105,0,-0.583282,-0.417145,0.555084,-0.421356,-150.3,-55.3167,-60.2833,-1422,-29576
96,2922098,9.78564,0.16748,0.373242,27.8284,-87.6874,44.9121,0,0,0,-0.583282,-0.417114,0.555084,-0.421356,-150.317,-55.3083,-60.3583,-1422,-29576
102,2922104,9.79043,0.177051,0.354102,27.8668,-87.6874,44.8737,0,0.12207,0,-0.583313,-0.417114,0.555084,-0.421326,-150.358,-55.2583,-60.525,-1422,-29576
108,2922110,9.8,0.186621,0.373242,27.8723,-87.6874,44.8682,-0.0610352,0,-0.0610352,-0.583313,-0.417114,0.555084,-0.421326,-150.367,-55.225,-60.5917,-1422,-29576
114,2922116,9.8,0.16748,0.373242,27.8394,-87.6874,44.9011,0,0.183105,0.183105,-0.583313,-0.417114,0.555084,-0.421326,-150.375,-55.225,-60.5917,-1422,-29576
120,2922122,9.81436,0.172266,0.373242,27.8064,-87.6874,44.9341,0.12207,-0.12207,0.366211,-0.583313,-0.417084,0.555115,-0.421326,-150.375,-55.225,-60.55,-1422,-29576
126,2922128,9.8,0.16748,0.339746,27.7789,-87.6874,44.9561,0,0.0610352,0.183105,-0.583313,-0.417084,0.555115,-0.421326,-150.375,-55.225,-60.525,-1422,-29576
132,2922134,9.80957,0.172266,0.368457,27.7295,-87.6874,45,0.0610352,0.0610352,0.183105,-0.583313,-0.417053,0.555145,-0.421326,-150.417,-55.1917,-60.45,-1422,-29576
138,2922140,9.81436,0.181836,0.363672,27.713,-87.6874,45.0165,0,0,0.12207,-0.583313,-0.417023,0.555145,-0.421326,-150.433,-55.1583,-60.4,-1422,-29576
144,2922146,9.81436,0.186621,0.358887,27.6526,-87.6874,45.0769,0,0.12207,0.488281,-0.583313,-0.417023,0.555145,-0.421326,-150.442,-55.15,-60.3083,-1422,-29576
150,2922152,9.81436,0.186621,0.368457,27.6416,-87.6874,45.0824,-0.0610352,0,0.0610352,-0.583344,-0.416992,0.555176,-0.421326,-150.433,-55.15,-60.225,-1422,-29576
156,2922158,9.79521,0.172266,0.373242,27.6471,-87.6874,45.0769,0.12207,-0.0610352,0,-0.583344,-0.416992,0.555176,-0.421326,-150.433,-55.1667,-60.15,-1422,-29576
162,2922164,9.80479,0.186621,0.373242,27.6031,-87.6874,45.1154,0,-0.0610352,0.12207,-0.583344,-0.416962,0.555206,-0.421295,-150.383,-55.1667,-60.175,-1422,-29576
168,2922170,9.78564,0.16748,0.368457,27.5977,-87.6874,45.1208,-0.0610352,0.0610352,0,-0.583344,-0.416962,0.555206,-0.421295,-150.342,-55.1417,-60.275,-1422,-29576
174,2922176,9.80479,0.172266,0.368457,27.6471,-87.6874,45.0714,0,-0.0610352,-0.427246,-0.583374,-0.416962,0.555206,-0.421265,-150.317,-55.125,-60.3417,-1422,-29576
180,2922182,9.79521,0.16748,0.373242,27.6361,-87.6874,45.0769,-0.12207,-0.183105,0.183105,-0.583374,-0.416931,0.555206,-0.421265,-150.292,-55.1167,-60.375,-1422,-29576
186,2922188,9.80957,0.172266,0.344531,27.6471,-87.6874,45.0604,0.0610352,-0.12207,-0.244141,-0.583374,-0.416931,0.555237,-0.421234,-150.267,-55.1,-60.3917,-1422,-29576
192,2922194,9.80479,0.181836,0.378027,27.6801,-87.6874,45.022,-0.0610352,-0.0610352,0,-0.583405,-0.416901,0.555267,-0.421173,-150.225,-55.0833,-60.4,-1422,-29576
198,2922200,9.82871,0.177051,0.320605,27.6965,-87.6874,45,0.0610352,0.0610352,-0.244141,-0.583435,-0.41687,0.555267,-0.421173,-150.192,-55.075,-60.4333,-1422,-29576
204,2922206,9.8,0.162695,0.334961,27.724,-87.6874,44.9725,-0.12207,-0.183105,-0.183105,-0.583435,-0.41687,0.555267,-0.421143,-150.183,-55.0583,-60.425,-1422,-29576
210,2922212,9.80957,0.191406,0.330176,27.7625,-87.6874,44.9286,0,-0.244141,-0.244141,-0.583466,-0.41687,0.555298,-0.421112,-150.167,-55.0417,-60.4083,-1422,-29576
216,2922218,9.81436,0.215332,0.358887,27.7899,-87.6874,44.9011,0,0,-0.244141,-0.583466,-0.41687,0.555298,-0.421082,-150.167,-55.05,-60.375,-1422,-29576
222,2922224,9.80957,0.177051,0.349316,27.8174,-87.6874,44.8682,-0.12207,-0.0610352,0,-0.583496,-0.41684,0.555328,-0.421051,-150.175,-55.0833,-60.3167,-1422,-29576
228,2922230,9.80957,0.186621,0.363672,27.8229,-87.6874,44.8572,0,0.0610352,-0.12207,-0.583496,-0.416809,0.555328,-0.421051,-150.175,-55.1083,-60.2917,-1422,-29576
234,2922236,9.78564,0.205762,0.344531,27.8009,-87.6874,44.8792,0,0,0.183105,-0.583496,-0.416809,0.555328,-0.421021,-150.183,-55.1417,-60.2917,-1422,-29576
240,2922242,9.80479,0.162695,0.344531,27.7954,-87.6874,44.8792,0,0,0,-0.583527,-0.416779,0.555359,-0.421021,-150.2,-55.1583,-60.2667,-1422,-29576
246,2922248,9.81436,0.162695,0.330176,27.8009,-87.6874,44.8737,0,0,0,-0.583527,-0.416779,0.555359,-0.421021,-150.217,-55.1583,-60.25,-1422,-29576
252,2922254,9.80957,0.196191,0.325391,27.7899,-87.6874,44.8792,-0.0610352,0.0610352,0,-0.583557,-0.416748,0.555359,-0.42099,-150.25,-55.1583,-60.1583,-1422,-29576
258,2922260,9.82393,0.177051,0.334961,27.7954,-87.6874,44.8737,0,-0.12207,0,-0.583557,-0.416748,0.555389,-0.42099,-150.258,-55.1667,-60.125,-1422,-29576
264,2922266,9.80479,0.16748,0.339746,27.7515,-87.6874,44.9121,0,0,0.366211,-0.583557,-0.416718,0.555389,-0.42099,-150.242,-55.1667,-60.075,-1422,-29576
270,2922272,9.79521,0.186621,0.363672,27.757,-87.6874,44.9066,0,0,-0.0610352,-0.583557,-0.416718,0.555389,-0.420959,-150.233,-55.1583,-60.0167,-1422,-29576
276,2922278,9.82393,0.191406,0.330176,27.746,-87.6929,44.9176,0,0.244141,-0.12207,-0.583557,-0.416718,0.55542,-0.420959,-150.225,-55.1583,-60,-1422,-29576
282,2922284,9.8,0.196191,0.368457,27.746,-87.6874,44.9176,0,-0.0610352,0,-0.583588,-0.416687,0.55542,-0.420959,-150.25,-55.1917,-59.9333,-1422,-29576
288,2922290,9.81436,0.172266,0.382813,27.724,-87.6874,44.9341,0.0610352,0.12207,0.12207,-0.583588,-0.416687,0.55542,-0.420959,-150.283,-55.2167,-59.9083,-1422,-29576
294,2922296,9.79043,0.153125,0.344531,27.7295,-87.6874,44.9231,0,0.0610352,-0.12207,-0.583588,-0.416687,0.55542,-0.420929,-150.325,-55.2417,-59.9,-1422,-29576
300,2922302,9.79043,0.16748,0.349316,27.7075,-87.6874,44.9451,0,0,0.183105,-0.583588,-0.416656,0.55542,-0.420929,-150.375,-55.25,-59.9083,-1422,-29576
306,2922308,9.81436,0.162695,0.344531,27.713,-87.6874,44.9396,-0.0610352,0,-0.427246,-0.583618,-0.416656,0.55545,-0.420929,-150.408,-55.2583,-59.875,-1422,-29576
312,2922314,9.79521,0.16748,0.320605,27.7625,-87.6874,44.8792,-0.0610352,-0.0610352,-0.0610352,-0.583649,-0.416626,0.55545,-0.420868,-150.425,-55.2667,-59.9083,-1422,-29576
318,2922320,9.79521,0.186621,0.363672,27.7899,-87.6874,44.8517,0.12207,-0.0610352,-0.244141,-0.583649,-0.416626,0.55545,-0.420837,-150.417,-55.2583,-59.9417,-1422,-29576
324,2922326,9.8,0.220117,0.373242,27.7954,-87.6874,44.8462,0,-0.12207,0,-0.583649,-0.416595,0.555481,-0.420837,-150.408,-55.2583,-59.9833,-1422,-29576
330,2922332,9.78086,0.172266,0.349316,27.8009,-87.6874,44.8352,-0.12207,-0.12207,0,-0.583679,-0.416595,0.555481,-0.420807,-150.408,-55.25,-60.0333,-1422,-29576
336,2922338,9.8,0.177051,0.363672,27.7954,-87.6874,44.8352,-0.12207,0,0,-0.583679,-0.416595,0.555511,-0.420807,-150.383,-55.225,-60.075,-1422,-29576
342,2922344,9.80957,0.15791,0.354102,27.8009,-87.6874,44.8242,0,-0.0610352,-0.0610352,-0.58371,-0.416565,0.555511,-0.420776,-150.317,-55.2167,-60.1083,-1422,-29576
348,2922350,9.79521,0.186621,0.382813,27.8009,-87.6874,44.8242,0.0610352,0,0,-0.58371,-0.416565,0.555511,-0.420776,-150.283,-55.225,-60.1167,-1422,-29576
354,2922356,9.80957,0.196191,0.339746,27.8174,-87.6874,44.8022,-0.12207,-0.183105,-0.12207,-0.58371,-0.416534,0.555542,-0.420746,-150.25,-55.225,-60.1167,-1422,-29576
360,2922362,9.79521,0.177051,0.349316,27.8284,-87.6874,44.7913,0,-0.183105,0,-0.58371,-0.416534,0.555542,-0.420746,-150.233,-55.2167,-60.125,-1422,-29576
366,2922368,9.82393,0.181836,0.344531,27.8119,-87.6874,44.8022,0,0.0610352,-0.12207,-0.58374,-0.416504,0.555573,-0.420715,-150.217,-55.2167,-60.1417,-1422,-29576
372,2922374,9.81914,0.186621,0.373242,27.7844,-87.6874,44.8242,0,0.0610352,0.183105,-0.58374,-0.416473,0.555573,-0.420715,-150.2,-55.225,-60.175,-1422,-29576
378,2922380,9.81914,0.186621,0.344531,27.7844,-87.6874,44.8242,0,0,0,-0.58374,-0.416473,0.555603,-0.420685,-150.225,-55.2333,-60.1917,-1422,-29576
384,2922386,9.80479,0.205762,0.363672,27.7899,-87.6874,44.8187,0,-0.12207,0,-0.583771,-0.416473,0.555603,-0.420685,-150.25,-55.2333,-60.1833,-1422,-29576
390,2922392,9.78086,0.172266,0.349316,27.7679,-87.6874,44.8407,0,0,0.183105,-0.583771,-0.416443,0.555603,-0.420685,-150.275,-55.2417,-60.15,-1422,-29576
396,2922398,9.8,0.186621,0.334961,27.757,-87.6874,44.8517,0,0,0,-0.583771,-0.416443,0.555603,-0.420685,-150.3,-55.25,-60.1167,-1422,-29576
402,2922404,9.77129,0.172266,0.330176,27.7515,-87.6874,44.8517,-0.12207,0,0,-0.583771,-0.416412,0.555634,-0.420654,-150.333,-55.2917,-60.0917,-1422,-29576
408,2922410,9.82871,0.15791,0.363672,27.7405,-87.6874,44.8572,-0.0610352,0.0610352,0.0610352,-0.583801,-0.416412,0.555634,-0.420654,-150.342,-55.3083,-60.1083,-1422,-29576
414,2922416,9.84307,0.215332,0.344531,27.757,-87.6874,44.8407,0.12207,0.12207,-0.244141,-0.583801,-0.416412,0.555634,-0.420654,-150.333,-55.3167,-60.125,-1422,-29576
420,2922422,9.69951,0.153125,0.363672,27.7515,-87.6874,44.8462,-0.0610352,0.0610352,0,-0.583801,-0.416412,0.555634,-0.420624,-150.317,-55.325,-60.1167,-1422,-29576
426,2922428,9.87656,0.191406,0.358887,27.735,-87.6874,44.8627,0,0.12207,0,-0.583801,-0.416382,0.555634,-0.420624,-150.3,-55.3167,-60.125,-1422,-29576
432,2922434,9.78086,0.172266,0.354102,27.7515,-87.6874,44.8407,0,0,-0.183105,-0.583832,-0.416382,0.555634,-0.420624,-150.3,-55.3417,-60.05,-1422,-29576
438,2922440,9.83828,0.177051,0.368457,27.7954,-87.6874,44.7968,0,-0.0610352,-0.366211,-0.583832,-0.416382,0.555664,-0.420593,-150.325,-55.3417,-60.0167,-1422,-29576
444,2922446,9.74258,0.186621,0.363672,27.7899,-87.6874,44.7968,0,0.12207,-0.0610352,-0.583862,-0.416351,0.555664,-0.420563,-150.342,-55.3333,-59.9917,-1422,-29576
450,2922452,9.81914,0.181836,0.358887,27.8339,-87.6874,44.7528,-0.12207,-0.0610352,-0.366211,-0.583862,-0.416351,0.555664,-0.420563,-150.358,-55.3167,-59.9667,-1422,-29576
456,2922458,9.81436,0.181836,0.354102,27.8888,-87.6874,44.6924,0.0610352,-0.12207,-0.244141,-0.583893,-0.416351,0.555664,-0.420532,-150.367,-55.3,-59.9167,-1422,-29576
462,2922464,9.79521,0.200977,0.363672,27.9108,-87.6874,44.6704,0,-0.183105,-0.12207,-0.583893,-0.416351,0.555695,-0.420502,-150.358,-55.2917,-59.8167,-1422,-29576
468,2922470,9.78086,0.186621,0.354102,27.9437,-87.6874,44.632,0.12207,-0.0610352,-0.305176,-0.583923,-0.416351,0.555695,-0.420471,-150.367,-55.2833,-59.8167,-1422,-29576
474,2922476,9.80957,0.177051,0.330176,27.9327,-87.6874,44.6375,-0.0610352,0,0.0610352,-0.583923,-0.416321,0.555695,-0.420471,-150.367,-55.2583,-59.8,-1422,-29576
480,2922482,9.7665,0.186621,0.344531,27.9932,-87.6874,44.577,-0.12207,-0.244141,-0.427246,-0.583923,-0.416321,0.555695,-0.420441,-150.358,-55.2333,-59.825,-1422,-29576
486,2922488,9.79043,0.177051,0.339746,28.0151,-87.6874,44.5551,0,-0.0610352,-0.12207,-0.583954,-0.416321,0.555725,-0.42041,-150.358,-55.1583,-59.8833,-1422,-29576
492,2922494,9.77129,0.186621,0.358887,28.0151,-87.6874,44.5441,-0.0610352,0,-0.0610352,-0.583954,-0.41629,0.555725,-0.42041,-150.35,-55.1417,-59.8917,-1422,-29576
498,2922500,9.8,0.191406,0.354102,28.0316,-87.6874,44.5276,-0.12207,-0.183105,-0.0610352,-0.583984,-0.41629,0.555756,-0.42038,-150.35,-55.1167,-59.9333,-1422,-29576
504,2922506,9.81914,0.15791,0.358887,28.0316,-87.6874,44.5276,0,-0.0610352,0,-0.583984,-0.41629,0.555756,-0.42038,-150.333,-55.1083,-59.9583,-1422,-29576
510,2922512,9.79043,0.191406,0.344531,28.0261,-87.6874,44.5276,-0.12207,0.0610352,0,-0.583984,-0.41626,0.555756,-0.420349,-150.317,-55.0917,-59.9833,-1422,-29576
516,2922518,9.78564,0.196191,0.349316,27.9877,-87.6874,44.566,0.12207,-0.0610352,0.12207,-0.583984,-0.416229,0.555756,-0.420349,-150.258,-55.0917,-60.1333,-1422,-29576
522,2922524,9.80957,0.172266,0.339746,27.9547,-87.6874,44.5935,-0.0610352,0,0.244141,-0.584015,-0.416229,0.555786,-0.420349,-150.25,-55.0917,-60.2167,-1422,-29576
528,2922530,9.79521,0.14834,0.325391,27.9492,-87.6874,44.599,-0.12207,0.12207,0,-0.584015,-0.416199,0.555786,-0.420319,-150.258,-55.0917,-60.3,-1422,-29576
534,2922536,9.81436,0.196191,0.344531,27.9218,-87.6874,44.6265,0,0.0610352,0.183105,-0.584015,-0.416199,0.555786,-0.420319,-150.25,-55.0917,-60.3417,-1422,-29576
540,2922542,9.8,0.181836,0.378027,27.8723,-87.6874,44.6704,0,0.244141,0.305176,-0.584015,-0.416168,0.555817,-0.420319,-150.242,-55.0917,-60.35,-1422,-29576
546,2922548,9.7665,0.162695,0.344531,27.8778,-87.6874,44.6594,0,-0.0610352,0,-0.584015,-0.416168,0.555817,-0.420319,-150.267,-55.075,-60.2833,-1422,-29576
552,2922554,9.81436,0.181836,0.363672,27.8778,-87.6874,44.6594,-0.12207,0.0610352,-0.0610352,-0.584045,-0.416138,0.555817,-0.420288,-150.292,-55.0667,-60.2417,-1422,-29576
558,2922560,9.8,0.177051,0.349316,27.8778,-87.6874,44.6594,0,0,0,-0.584045,-0.416138,0.555847,-0.420288,-150.3,-55.0583,-60.2,-1422,-29576
564,2922566,9.81436,0.15791,0.344531,27.8778,-87.6874,44.6594,-0.0610352,0,0,-0.584076,-0.416107,0.555847,-0.420288,-150.317,-55.0583,-60.1583,-1422,-29576
570,2922572,9.79043,0.172266,0.358887,27.8613,-87.6874,44.6704,0,0.183105,0,-0.584076,-0.416107,0.555847,-0.420258,-150.308,-55.0583,-60.1333,-1422,-29576
576,2922578,9.79521,0.191406,0.339746,27.9163,-87.6819,44.61,0.12207,0,-0.183105,-0.584076,-0.416107,0.555847,-0.420258,-150.3,-55.0667,-60.1417,-1422,-29576
582,2922584,9.79521,0.196191,0.358887,27.9327,-87.6819,44.5935,0,0.0610352,-0.183105,-0.584106,-0.416077,0.555847,-0.420227,-150.283,-55.075,-60.15,-1422,-29576
588,2922590,9.78564,0.181836,0.334961,27.9547,-87.6819,44.566,-0.0610352,0,-0.244141,-0.584137,-0.416077,0.555878,-0.420197,-150.267,-55.075,-60.175,-1422,-29576
594,2922596,9.79521,0.16748,0.339746,27.9657,-87.6819,44.5551,-0.12207,-0.183105,0,-0.584137,-0.416077,0.555878,-0.420197,-150.267,-55.0917,-60.225,-1422,-29576
600,2922602,9.79043,0.16748,0.354102,27.9657,-87.6819,44.5496,-0.12207,0,-0.0610352,-0.584137,-0.416046,0.555878,-0.420166,-150.267,-55.1167,-60.3167,-1422,-29576
606,2922608,9.81914,0.16748,0.320605,28.0206,-87.6819,44.4891,0,0,-0.427246,-0.584167,-0.416046,0.555908,-0.420135,-150.3,-55.1417,-60.4083,-1422,-29576
612,2922614,9.80957,0.172266,0.354102,28.0316,-87.6819,44.4781,-0.12207,-0.12207,-0.0610352,-0.584167,-0.416016,0.555908,-0.420105,-150.317,-55.1417,-60.4167,-1422,-29576
618,2922620,9.79043,0.200977,0.354102,28.0261,-87.6819,44.4781,0,0,0,-0.584198,-0.416016,0.555939,-0.420105,-150.317,-55.1333,-60.3833,-1422,-29576
624,2922626,9.79043,0.181836,0.354102,28.0151,-87.6819,44.4891,0.0610352,0.0610352,0.0610352,-0.584198,-0.415985,0.555939,-0.420074,-150.333,-55.125,-60.3583,-1422,-29576
630,2922632,9.8,0.186621,0.363672,28.0151,-87.6819,44.4891,0,0,0,-0.584198,-0.415985,0.555939,-0.420074,-150.35,-55.1333,-60.35,-1422,-29576
636,2922638,9.80479,0.200977,0.320605,28.0096,-87.6819,44.4836,0,0,0.305176,-0.584229,-0.415985,0.555939,-0.420044,-150.367,-55.175,-60.325,-1422,-29576
642,2922644,9.77129,0.186621,0.387598,27.9822,-87.6819,44.5111,0,0,0.244141,-0.584229,-0.415955,0.555969,-0.420044,-150.375,-55.1667,-60.325,-1422,-29576
648,2922650,9.82871,0.177051,0.373242,27.9657,-87.6819,44.5276,0,0.12207,0.0610352,-0.584229,-0.415955,0.555969,-0.420044,-150.367,-55.15,-60.3417,-1422,-29576
654,2922656,9.78564,0.181836,0.373242,27.9437,-87.6819,44.5496,0.0610352,0.0610352,0.183105,-0.584229,-0.415924,0.555969,-0.420044,-150.342,-55.1417,-60.3417,-1422,-29576
660,2922662,9.79521,0.162695,0.354102,27.9108,-87.6819,44.577,0,0.12207,0.183105,-0.584229,-0.415924,0.555969,-0.420044,-150.325,-55.15,-60.35,-1422,-29576
666,2922668,9.80957,0.181836,0.354102,27.8778,-87.6819,44.61,0.12207,0.183105,-0.0610352,-0.584229,-0.415894,0.556,-0.420044,-150.292,-55.2083,-60.3583,-1422,-29576
672,2922674,9.80957,0.14834,0.344531,27.8503,-87.6819,44.6375,-0.0610352,0.12207,0.183105,-0.584259,-0.415863,0.556,-0.420044,-150.283,-55.225,-60.375,-1422,-29576
678,2922680,9.8,0.186621,0.363672,27.8339,-87.6819,44.6484,-0.12207,0.0610352,0.0610352,-0.584259,-0.415863,0.556,-0.420044,-150.258,-55.25,-60.375,-1422,-29576
684,2922686,9.80957,0.177051,0.363672,27.8448,-87.6819,44.6375,0,-0.0610352,-0.0610352,-0.58429,-0.415833,0.55603,-0.420013,-150.233,-55.2583,-60.4,-1422,-29576
690,2922692,9.82393,0.177051,0.354102,27.8723,-87.6819,44.6045,0,-0.12207,-0.244141,-0.58429,-0.415833,0.55603,-0.419983,-150.192,-55.2667,-60.4,-1422,-29576
696,2922698,9.80957,0.16748,0.354102,27.8943,-87.6819,44.577,0.0610352,0,-0.12207,-0.58429,-0.415833,0.55603,-0.419983,-150.158,-55.2333,-60.4167,-1422,-29576
702,2922704,9.79043,0.177051,0.363672,27.8943,-87.6819,44.577,0,0.0610352,-0.0610352,-0.58432,-0.415802,0.556061,-0.419952,-150.175,-55.2083,-60.4083,-1422,-29576
708,2922710,9.8,0.181836,0.358887,27.9437,-87.6819,44.5166,0,0.0610352,-0.549316,-0.584351,-0.415802,0.556061,-0.419922,-150.192,-55.2,-60.3917,-1422,-29576
714,2922716,9.80479,0.186621,0.363672,27.9932,-87.6819,44.4672,0,-0.0610352,-0.427246,-0.584381,-0.415802,0.556061,-0.419891,-150.217,-55.2083,-60.3667,-1422,-29576
720,2922722,9.8,0.196191,0.354102,27.9932,-87.6819,44.4617,0,0,-0.0610352,-0.584381,-0.415771,0.556061,-0.419861,-150.233,-55.2167,-60.3333,-1422,-29576
726,2922728,9.78564,0.177051,0.363672,28.0536,-87.6764,44.4012,0,-0.0610352,-0.0610352,-0.584412,-0.415771,0.556061,-0.41983,-150.25,-55.2417,-60.2583,-1422,-29576
732,2922734,9.79043,0.186621,0.363672,28.0811,-87.6764,44.3683,-0.0610352,0,-0.305176,-0.584442,-0.415741,0.556091,-0.4198,-150.267,-55.2583,-60.2083,-1422,-29576
738,2922740,9.80957,0.177051,0.339746,28.0811,-87.6764,44.3683,-0.0610352,0,0,-0.584442,-0.415741,0.556091,-0.419769,-150.275,-55.275,-60.125,-1422,-29576
744,2922746,9.80957,0.205762,0.344531,28.0811,-87.6764,44.3573,-0.0610352,0,-0.0610352,-0.584473,-0.41571,0.556122,-0.419769,-150.292,-55.275,-60.075,-1422,-29576
750,2922752,9.81436,0.162695,0.31582,28.0481,-87.6764,44.3903,0,-0.0610352,0.305176,-0.584473,-0.41568,0.556122,-0.419769,-150.3,-55.25,-60.0583,-1422,-29576
756,2922758,9.80957,0.177051,0.363672,28.0206,-87.6764,44.4177,0,0.12207,0.12207,-0.584473,-0.41568,0.556122,-0.419769,-150.275,-55.1667,-60.0333,-1422,-29576
762,2922764,9.78086,0.153125,0.330176,27.9877,-87.6764,44.4452,0,-0.0610352,0.305176,-0.584473,-0.415649,0.556152,-0.419739,-150.267,-55.1333,-60.025,-1422,-29576
768,2922770,9.80957,0.191406,0.349316,27.9437,-87.6764,44.4836,-0.0610352,0,0.366211,-0.584473,-0.415619,0.556183,-0.419739,-150.25,-55.125,-60.0167,-1422,-29576
774,2922776,9.82393,0.205762,0.358887,27.9163,-87.6819,44.5111,-0.0610352,0.0610352,0.183105,-0.584503,-0.415619,0.556183,-0.419739,-150.25,-55.1333,-59.9833,-1422,-29576
780,2922782,9.79521,0.186621,0.325391,27.8998,-87.6819,44.5276,-0.12207,-0.0610352,0.183105,-0.584503,-0.415588,0.556183,-0.419739,-150.275,-55.15,-59.9667,-1422,-29576
786,2922788,9.8,0.181836,0.334961,27.8394,-87.6819,44.588,0,-0.0610352,0.244141,-0.584473,-0.415588,0.556213,-0.419739,-150.308,-55.1917,-59.95,-1422,-29576
792,2922794,9.82393,0.14834,0.368457,27.8174,-87.6819,44.6045,-0.183105,0.0610352,0.12207,-0.584503,-0.415558,0.556213,-0.419739,-150.325,-55.2083,-59.9333,-1422,-29576
798,2922800,9.81436,0.172266,0.358887,27.8284,-87.6819,44.5935,0,-0.0610352,-0.0610352,-0.584503,-0.415558,0.556244,-0.419708,-150.333,-55.2167,-59.9583,-1422,-29576
804,2922806,9.80479,0.162695,0.363672,27.7954,-87.6819,44.621,0,0.183105,0.183105,-0.584503,-0.415527,0.556244,-0.419708,-150.308,-55.2333,-60.0083,-1422,-29576
810,2922812,9.80479,0.186621,0.31582,27.8448,-87.6819,44.5715,0,-0.12207,-0.427246,-0.584503,-0.415527,0.556244,-0.419708,-150.292,-55.2583,-60.0417,-1422,-29576
816,2922818,9.79521,0.162695,0.358887,27.8503,-87.6819,44.5605,0,-0.0610352,0.12207,-0.584534,-0.415527,0.556244,-0.419678,-150.267,-55.3083,-60.1,-1422,-29576
822,2922824,9.81436,0.191406,0.344531,27.8723,-87.6819,44.5331,0.12207,0,-0.244141,-0.584534,-0.415527,0.556274,-0.419647,-150.258,-55.325,-60.1,-1422,-29576
828,2922830,9.8,0.186621,0.349316,27.8778,-87.6819,44.5276,0,-0.12207,0,-0.584564,-0.415497,0.556274,-0.419647,-150.267,-55.3167,-60.0917,-1422,-29576
834,2922836,9.8,0.172266,0.358887,27.9163,-87.6819,44.4891,0,-0.12207,-0.305176,-0.584564,-0.415497,0.556274,-0.419617,-150.267,-55.3167,-60.075,-1422,-29576
840,2922842,9.78086,0.186621,0.354102,27.9327,-87.6819,44.4672,-0.0610352,0,-0.183105,-0.584564,-0.415497,0.556274,-0.419617,-150.267,-55.3167,-60.0917,-1422,-29576
846,2922848,9.8,0.177051,0.358887,27.9822,-87.6819,44.4177,0,-0.12207,-0.183105,-0.584595,-0.415466,0.556305,-0.419556,-150.292,-55.3333,-60.0917,-1422,-29576
852,2922854,9.8,0.191406,0.373242,28.0261,-87.6819,44.3683,-0.12207,0,-0.427246,-0.584625,-0.415466,0.556305,-0.419525,-150.292,-55.325,-60.1,-1422,-29576
858,2922860,9.78086,0.177051,0.330176,28.0261,-87.6819,44.3683,-0.12207,-0.0610352,0,-0.584625,-0.415466,0.556305,-0.419525,-150.3,-55.3167,-60.0917,-1422,-29576
864,2922866,9.78564,0.181836,0.330176,28.0426,-87.6819,44.3463,-0.0610352,0,-0.183105,-0.584625,-0.415436,0.556335,-0.419495,-150.283,-55.3,-60.0833,-1422,-29576
870,2922872,9.80479,0.177051,0.363672,28.0371,-87.6819,44.3463,0.12207,0,0,-0.584656,-0.415436,0.556335,-0.419495,-150.258,-55.2833,-60.0833,-1422,-29576
876,2922878,9.78564,0.191406,0.354102,27.9822,-87.6819,44.4012,0,0,0.183105,-0.584656,-0.415405,0.556335,-0.419495,-150.217,-55.2833,-60.0917,-1422,-29576
882,2922884,9.81914,0.172266,0.368457,27.9602,-87.6819,44.4232,0.0610352,0.12207,0.12207,-0.584656,-0.415405,0.556366,-0.419495,-150.225,-55.2833,-60.1167,-1422,-29576
888,2922890,9.82871,0.186621,0.358887,27.9382,-87.6819,44.4397,0,0,0.183105,-0.584656,-0.415375,0.556366,-0.419495,-150.242,-55.2667,-60.1417,-1422,-29576
894,2922896,9.78564,0.172266,0.339746,27.9218,-87.6819,44.4562,-0.12207,0,0.12207,-0.584686,-0.415375,0.556366,-0.419464,-150.258,-55.2583,-60.15,-1422,-29576
900,2922902,9.79521,0.162695,0.354102,27.8723,-87.6819,44.5001,0.0610352,0,0.427246,-0.584686,-0.415344,0.556396,-0.419464,-150.283,-55.25,-60.2,-1422,-29576
906,2922908,9.81436,0.172266,0.382813,27.8448,-87.6819,44.5276,0.0610352,0.0610352,0.183105,-0.584686,-0.415314,0.556396,-0.419464,-150.333,-55.2667,-60.2417,-1422,-29576
912,2922914,9.79521,0.172266,0.339746,27.8448,-87.6819,44.5221,0,0.183105,-0.12207,-0.584717,-0.415283,0.556427,-0.419434,-150.35,-55.2667,-60.2417,-1422,-29576
918,2922920,9.78086,0.177051,0.349316,27.8339,-87.6819,44.5276,-0.12207,0,0.0610352,-0.584717,-0.415283,0.556427,-0.419434,-150.367,-55.275,-60.2167,-1422,-29576
924,2922926,9.78564,0.191406,0.363672,27.8448,-87.6819,44.5166,0,0,-0.12207,-0.584717,-0.415253,0.556427,-0.419403,-150.367,-55.2667,-60.175,-1422,-29576
930,2922932,9.79521,0.172266,0.358887,27.8284,-87.6819,44.5276,0,0,0.12207,-0.584747,-0.415253,0.556458,-0.419403,-150.367,-55.2417,-60.1917,-1422,-29576
936,2922938,9.80479,0.205762,0.354102,27.8613,-87.6764,44.4891,0,0.12207,-0.0610352,-0.584778,-0.415222,0.556458,-0.419373,-150.367,-55.175,-60.25,-1422,-29576
942,2922944,9.81914,0.14834,0.397168,27.8833,-87.6764,44.4672,-0.12207,0,-0.183105,-0.584778,-0.415222,0.556458,-0.419342,-150.367,-55.15,-60.3,-1422,-29576
948,2922950,9.80957,0.172266,0.339746,27.8833,-87.6764,44.4617,0.12207,0.12207,-0.12207,-0.584808,-0.415222,0.556458,-0.419342,-150.35,-55.1417,-60.3083,-1422,-29576
954,2922956,9.8,0.196191,0.358887,27.8833,-87.6764,44.4617,-0.0610352,-0.0610352,0,-0.584808,-0.415192,0.556488,-0.419312,-150.35,-55.1583,-60.3083,-1422,-29576
960,2922962,9.78564,0.196191,0.378027,27.8998,-87.6764,44.4397,-0.0610352,0,-0.305176,-0.584808,-0.415192,0.556488,-0.419312,-150.342,-55.1583,-60.3,-1422,-29576
966,2922968,9.80957,0.191406,0.334961,27.9272,-87.6764,44.4067,0,-0.183105,0.12207,-0.584839,-0.415161,0.556519,-0.41925,-150.308,-55.175,-60.2833,-1422,-29576
972,2922974,9.79043,0.191406,0.363672,27.9218,-87.6764,44.4067,-0.0610352,0,0,-0.584839,-0.415131,0.556519,-0.41925,-150.292,-55.1833,-60.2833,-1422,-29576
978,2922980,9.78086,0.210547,0.368457,27.9218,-87.6764,44.4067,0,0,0,-0.584869,-0.415131,0.556519,-0.41922,-150.275,-55.1917,-60.2917,-1422,-29576
984,2922986,9.79521,0.16748,0.339746,27.9272,-87.6764,44.4012,-0.0610352,-0.12207,0,-0.584869,-0.415131,0.556549,-0.41922,-150.267,-55.2083,-60.3083,-1422,-29576
990,2922992,9.82393,0.186621,0.334961,27.9327,-87.6764,44.3958,-0.0610352,-0.12207,0,-0.584869,-0.4151,0.556549,-0.41922,-150.267,-55.2333,-60.3333,-1422,-29576
996,2922998,9.79521,0.196191,0.358887,27.9437,-87.6819,44.3793,0,-0.12207,0,-0.584869,-0.4151,0.55658,-0.419189,-150.283,-55.2583,-60.4083,-1422,-29576
1002,2923004,9.80479,0.186621,0.330176,27.9382,-87.6819,44.3793,-0.12207,0,0,-0.584869,-0.4151,0.55658,-0.419189,-150.3,-55.2583,-60.425,-1422,-29576
1008,2923010,9.80479,0.186621,0.339746,27.9327,-87.6819,44.3848,0,-0.0610352,0.0610352,-0.5849,-0.41507,0.55658,-0.419159,-150.333,-55.25,-60.4167,-1422,-29576
1014,2923016,9.81914,0.162695,0.354102,27.9272,-87.6819,44.3903,0,-0.12207,0.12207,-0.584869,-0.41507,0.55661,-0.419159,-150.342,-55.25,-60.3833,-1422,-29576
1020,2923022,9.80957,0.177051,0.339746,27.9272,-87.6819,44.3903,0.0610352,0,0.12207,-0.5849,-0.41507,0.55661,-0.419159,-150.333,-55.2667,-60.325,-1422,-29576
1026,2923028,9.8,0.181836,0.354102,27.9163,-87.6819,44.3958,0,-0.12207,0,-0.5849,-0.41507,0.55661,-0.419159,-150.3,-55.3,-60.2333,-1422,-29576
1032,2923034,9.8335,0.16748,0.344531,27.9053,-87.6819,44.4067,-0.0610352,-0.0610352,0.12207,-0.5849,-0.415039,0.556641,-0.419159,-150.267,-55.3167,-60.1667,-1422,-29576
1038,2923040,9.80957,0.177051,0.344531,27.8943,-87.6819,44.4177,0,0,0.12207,-0.5849,-0.415039,0.556641,-0.419128,-150.242,-55.3083,-60.175,-1422,-29576
1044,2923046,9.80479,0.191406,0.349316,27.8613,-87.6819,44.4452,0,0,0.244141,-0.5849,-0.415009,0.556641,-0.419128,-150.225,-55.2833,-60.1917,-1422,-29576
1050,2923052,9.79521,0.172266,0.330176,27.8668,-87.6819,44.4397,0.12207,0,0,-0.5849,-0.415009,0.556641,-0.419128,-150.2,-55.2583,-60.1833,-1422,-29576
1056,2923058,9.79521,0.181836,0.363672,27.8613,-87.6819,44.4452,0.0610352,0.12207,0,-0.5849,-0.415009,0.556641,-0.419128,-150.233,-55.25,-60.1417,-1422,-29576
1062,2923064,9.79521,0.186621,0.349316,27.8448,-87.6819,44.4562,0.0610352,0.12207,0.0610352,-0.58493,-0.415009,0.556671,-0.419128,-150.258,-55.25,-60.075,-1422,-29576
1068,2923070,9.79043,0.205762,0.349316,27.8558,-87.6819,44.4507,0,0.183105,-0.183105,-0.58493,-0.414978,0.556641,-0.419098,-150.267,-55.275,-60.025,-1422,-29576
1074,2923076,9.78086,0.186621,0.354102,27.8448,-87.6819,44.4562,0,0.12207,0,-0.58493,-0.414978,0.556641,-0.419098,-150.258,-55.3,-60.0083,-1422,-29576
1080,2923082,9.79521,0.172266,0.363672,27.8723,-87.6819,44.4287,0.0610352,-0.0610352,0,-0.584961,-0.414978,0.556671,-0.419098,-150.233,-55.325,-60.0333,-1422,-29576
1086,2923088,9.79521,0.196191,0.392383,27.8558,-87.6819,44.4397,0,0.244141,0,-0.584961,-0.414948,0.556671,-0.419098,-150.242,-55.3583,-60.0583,-1422,-29576
1092,2923094,9.80957,0.191406,0.368457,27.8448,-87.6819,44.4507,-0.0610352,-0.0610352,0.12207,-0.584961,-0.414948,0.556671,-0.419067,-150.267,-55.375,-60.05,-1422,-29576
1098,2923100,9.80957,0.200977,0.349316,27.8668,-87.6819,44.4287,0,0.0610352,-0.244141,-0.584961,-0.414948,0.556671,-0.419067,-150.275,-55.3917,-60.0583,-1422,-29576
1104,2923106,9.80479,0.16748,0.349316,27.8668,-87.6764,44.4287,0,0.12207,-0.0610352,-0.584991,-0.414948,0.556671,-0.419067,-150.283,-55.3833,-60.0333,-1422,-29576
1110,2923112,9.80479,0.177051,0.358887,27.8943,-87.6764,44.3958,0.12207,0,-0.305176,-0.584991,-0.414948,0.556671,-0.419067,-150.292,-55.3667,-59.9917,-1422,-29576
1116,2923118,9.79521,0.177051,0.320605,27.9163,-87.6764,44.3738,0.0610352,0,-0.183105,-0.584991,-0.414948,0.556671,-0.419037,-150.333,-55.35,-59.95,-1422,-29576
1122,2923124,9.79521,0.172266,0.349316,27.9163,-87.6764,44.3683,0,0.0610352,-0.0610352,-0.585022,-0.414948,0.556671,-0.419037,-150.375,-55.3417,-59.9333,-1422,-29576
1128,2923130,9.81436,0.172266,0.368457,27.8833,-87.6764,44.4012,-0.12207,0,0.305176,-0.585022,-0.414917,0.556671,-0.419037,-150.417,-55.3583,-59.95,-1422,-29576
1134,2923136,9.80957,0.191406,0.363672,27.8778,-87.6764,44.4122,0,0,0.0610352,-0.585022,-0.414917,0.556702,-0.419037,-150.425,-55.3833,-59.9667,-1422,-29576
1140,2923142,9.79521,0.162695,0.349316,27.8888,-87.6764,44.3958,-0.12207,-0.12207,-0.12207,-0.585022,-0.414917,0.556702,-0.419037,-150.417,-55.4167,-59.9667,-1422,-29576
1146,2923148,9.80479,0.153125,0.334961,27.8888,-87.6764,44.3958,0,0,0,-0.585022,-0.414886,0.556702,-0.419006,-150.35,-55.4917,-60,-1422,-29576
1152,2923154,9.80479,0.153125,0.349316,27.8888,-87.6764,44.3903,0,-0.0610352,0,-0.585022,-0.414886,0.556702,-0.419006,-150.342,-55.5083,-60.0083,-1422,-29576
1158,2923160,9.80957,0.16748,0.349316,27.8998,-87.6764,44.3793,0,-0.0610352,-0.0610352,-0.585052,-0.414886,0.556732,-0.418976,-150.342,-55.5167,-60.025,-1422,-29576
1164,2923166,9.79521,0.172266,0.363672,27.8613,-87.6819,44.4122,0,-0.12207,0.366211,-0.585052,-0.414856,0.556732,-0.418976,-150.317,-55.5167,-60.0167,-1422,-29576
1170,2923172,9.81914,0.172266,0.339746,27.8558,-87.6819,44.4122,0.0610352,-0.12207,0.0610352,-0.585052,-0.414856,0.556763,-0.418976,-150.292,-55.5167,-59.9833,-1422,-29576
1176,2923178,9.8,0.15791,0.363672,27.8558,-87.6819,44.4122,0.0610352,0,0,-0.585052,-0.414825,0.556763,-0.418945,-150.233,-55.525,-59.8917,-1422,-29576
1182,2923184,9.79521,0.177051,0.368457,27.8503,-87.6819,44.4177,-0.0610352,-0.0610352,0.0610352,-0.585083,-0.414795,0.556793,-0.418915,-150.217,-55.525,-59.8667,-1422,-29576
1188,2923190,9.80479,0.191406,0.334961,27.7954,-87.6819,44.4617,-0.0610352,0.12207,0.366211,-0.585083,-0.414764,0.556793,-0.418915,-150.233,-55.525,-59.8417,-1422,-29576
1194,2923196,9.81914,0.186621,0.334961,27.7954,-87.6819,44.4617,-0.0610352,0,0,-0.585083,-0.414764,0.556824,-0.418884,-150.25,-55.5167,-59.85,-1422,-29576
1200,2923202,9.81436,0.205762,0.330176,27.8009,-87.6819,44.4507,-0.12207,0,0,-0.585114,-0.414734,0.556824,-0.418884,-150.267,-55.5167,-59.8667,-1422,-29576
1206,2923208,9.81914,0.181836,0.358887,27.8009,-87.6819,44.4507,0,0,0,-0.585114,-0.414734,0.556854,-0.418854,-150.3,-55.4833,-59.9333,-1422,-29576
1212,2923214,9.8,0.196191,0.358887,27.8119,-87.6819,44.4342,-0.0610352,-0.0610352,-0.12207,-0.585114,-0.414703,0.556854,-0.418854,-150.308,-55.4583,-59.9417,-1422,-29576
1218,2923220,9.82393,0.186621,0.358887,27.8284,-87.6819,44.4177,-0.12207,-0.0610352,-0.12207,-0.585144,-0.414703,0.556854,-0.418823,-150.3,-55.425,-59.9333,-1422,-29576
1224,2923226,9.77129,0.14834,0.358887,27.8723,-87.6819,44.3738,-0.0610352,-0.12207,-0.366211,-0.585144,-0.414703,0.556854,-0.418823,-150.308,-55.4,-59.925,-1422,-29576
1230,2923232,9.81436,0.181836,0.325391,27.8943,-87.6819,44.3463,0,-0.0610352,-0.183105,-0.585144,-0.414703,0.556885,-0.418793,-150.3,-55.3917,-59.925,-1422,-29576
1236,2923238,9.80479,0.177051,0.354102,27.8888,-87.6819,44.3463,-0.183105,0,0,-0.585175,-0.414673,0.556885,-0.418762,-150.292,-55.425,-59.9167,-1422,-29576
1242,2923244,9.79521,0.191406,0.354102,27.8778,-87.6819,44.3573,0,0.12207,0,-0.585175,-0.414673,0.556885,-0.418762,-150.292,-55.4583,-59.9,-1422,-29576
1248,2923250,9.80957,0.196191,0.339746,27.8723,-87.6819,44.3573,0.0610352,0.0610352,0,-0.585205,-0.414642,0.556915,-0.418732,-150.308,-55.4917,-59.8,-1422,-29576
1254,2923256,9.79043,0.186621,0.349316,27.8888,-87.6819,44.3408,0,0,-0.183105,-0.585205,-0.414642,0.556915,-0.418732,-150.333,-55.525,-59.725,-1422,-29576
1260,2923262,9.78564,0.191406,0.373242,27.9053,-87.6819,44.3243,0.0610352,0.0610352,-0.12207,-0.585205,-0.414642,0.556915,-0.418732,-150.358,-55.5333,-59.6,-1422,-29576
1266,2923268,9.81914,0.177051,0.354102,27.9053,-87.6819,44.3243,-0.12207,0,0,-0.585236,-0.414612,0.556915,-0.418701,-150.367,-55.5,-59.5917,-1422,-29576
1272,2923274,9.81436,0.191406,0.368457,27.8998,-87.6764,44.3243,-0.12207,0.12207,-0.0610352,-0.585236,-0.414612,0.556915,-0.418701,-150.35,-55.475,-59.6083,-1422,-29576
1278,2923280,9.79521,0.205762,0.354102,27.8998,-87.6764,44.3243,0,0,0,-0.585266,-0.414581,0.556946,-0.418671,-150.333,-55.4333,-59.6417,-1422,-29576
1284,2923286,9.81436,0.186621,0.349316,27.8943,-87.6819,44.3243,0,-0.12207,0.0610352,-0.585266,-0.414581,0.556946,-0.418671,-150.317,-55.4167,-59.6417,-1422,-29576
1290,2923292,9.78564,0.186621,0.368457,27.8998,-87.6819,44.3188,-0.0610352,0,0,-0.585266,-0.414581,0.556946,-0.418671,-150.325,-55.3833,-59.7,-1422,-29576
1296,2923298,9.8,0.177051,0.339746,27.8668,-87.6819,44.3463,0.0610352,0.12207,0.183105,-0.585266,-0.414551,0.556946,-0.418671,-150.333,-55.3917,-59.7167,-1422,-29576
1302,2923304,9.8,0.172266,0.344531,27.8613,-87.6819,44.3518,0,0,0.0610352,-0.585266,-0.414551,0.556976,-0.41864,-150.358,-55.3917,-59.7167,-1422,-29576
1308,2923310,9.79043,0.181836,0.373242,27.8888,-87.6819,44.3243,0,-0.0610352,-0.244141,-0.585266,-0.414551,0.556976,-0.41864,-150.35,-55.4083,-59.6917,-1422,-29576
1314,2923316,9.78564,0.186621,0.349316,27.9053,-87.6764,44.3024,0,0.12207,-0.244141,-0.585297,-0.414551,0.556976,-0.41861,-150.342,-55.4167,-59.6667,-1422,-29576
1320,2923322,9.8,0.191406,0.330176,27.9327,-87.6764,44.2749,0,0,-0.183105,-0.585297,-0.414551,0.556976,-0.41861,-150.342,-55.425,-59.5417,-1422,-29576
1326,2923328,9.81436,0.186621,0.368457,27.9437,-87.6764,44.2639,-0.12207,0,-0.12207,-0.585327,-0.41452,0.556976,-0.418579,-150.358,-55.4083,-59.4417,-1422,-29576
1332,2923334,9.80479,0.191406,0.334961,27.9382,-87.6764,44.2639,0,0,0,-0.585327,-0.41452,0.557007,-0.418579,-150.375,-55.4083,-59.35,-1422,-29576
1338,2923340,9.8,0.191406,0.363672,27.9437,-87.6764,44.2584,-0.12207,-0.0610352,0,-0.585327,-0.41452,0.557007,-0.418579,-150.408,-55.4,-59.2583,-1422,-29576
1344,2923346,9.82871,0.172266,0.363672,27.9547,-87.6764,44.2474,0,0,-0.12207,-0.585327,-0.41449,0.557007,-0.418549,-150.425,-55.375,-59.1667,-1422,-29576
1350,2923352,9.79521,0.186621,0.339746,27.9437,-87.6764,44.2474,-0.0610352,0.0610352,0,-0.585358,-0.41449,0.557007,-0.418549,-150.425,-55.3417,-59.1667,-1422,-29576
1356,2923358,9.80957,0.181836,0.401953,27.9437,-87.6764,44.2529,0,0.0610352,0,-0.585358,-0.41449,0.557007,-0.418549,-150.425,-55.325,-59.2,-1422,-29576
1362,2923364,9.79521,0.186621,0.344531,27.9437,-87.6764,44.2474,0.0610352,0.12207,-0.12207,-0.585358,-0.414459,0.557007,-0.418518,-150.417,-55.3,-59.25,-1422,-29576
1368,2923370,9.80479,0.172266,0.325391,27.9492,-87.6764,44.2365,-0.0610352,0,-0.0610352,-0.585388,-0.414459,0.557007,-0.418518,-150.4,-55.2917,-59.2833,-1422,-29576
1374,2923376,9.81436,0.196191,0.354102,27.9712,-87.6764,44.22,-0.0610352,-0.12207,-0.12207,-0.585388,-0.414459,0.557037,-0.418518,-150.392,-55.2833,-59.3,-1422,-29576
1380,2923382,9.80479,0.191406,0.358887,27.9932,-87.6764,44.1925,0,-0.244141,0,-0.585388,-0.414459,0.557037,-0.418488,-150.392,-55.275,-59.3083,-1422,-29576
1386,2923388,9.80957,0.181836,0.354102,27.9987,-87.6764,44.1815,0,-0.183105,0,-0.585388,-0.414459,0.557037,-0.418488,-150.392,-55.275,-59.3,-1422,-29576
1392,2923394,9.79521,0.162695,0.368457,28.0206,-87.6764,44.1595,-0.0610352,-0.183105,-0.12207,-0.585388,-0.414459,0.557068,-0.418457,-150.392,-55.275,-59.2833,-1422,-29576
1398,2923400,9.81436,0.186621,0.363672,28.0151,-87.6764,44.165,0.0610352,0.12207,0,-0.585388,-0.414429,0.557068,-0.418457,-150.417,-55.2667,-59.2667,-1422,-29576
1404,2923406,9.80957,0.177051,0.344531,28.0426,-87.6764,44.1376,0,0.0610352,-0.305176,-0.585419,-0.414429,0.557068,-0.418457,-150.442,-55.25,-59.225,-1422,-29576
1410,2923412,9.8,0.177051,0.349316,28.0096,-87.6764,44.165,0.12207,-0.0610352,0.0610352,-0.585419,-0.414429,0.557068,-0.418427,-150.458,-55.225,-59.1833,-1422,-29576
1416,2923418,9.77607,0.153125,0.368457,28.0261,-87.6764,44.1486,-0.12207,0.0610352,-0.183105,-0.585419,-0.414398,0.557098,-0.418427,-150.458,-55.2167,-59.2,-1422,-29576
1422,2923424,9.81436,0.172266,0.344531,28.0151,-87.6764,44.1595,0,0,0.0610352,-0.585449,-0.414398,0.557098,-0.418396,-150.467,-55.2167,-59.2333,-1422,-29576
1428,2923430,9.8,0.16748,0.373242,28.0151,-87.6764,44.1541,-0.0610352,-0.0610352,0,-0.585449,-0.414368,0.557098,-0.418396,-150.467,-55.2083,-59.2167,-1422,-29576
1434,2923436,9.80957,0.177051,0.339746,28.0096,-87.6764,44.1541,-0.0610352,0.12207,-0.0610352,-0.58548,-0.414368,0.557129,-0.418365,-150.483,-55.1917,-59.2083,-1422,-29576
1440,2923442,9.8,0.196191,0.368457,28.0701,-87.6764,44.0881,-0.0610352,-0.183105,-0.183105,-0.58548,-0.414337,0.557129,-0.418365,-150.475,-55.2,-59.15,-1422,-29576
1446,2923448,9.80957,0.15791,0.358887,28.0371,-87.6764,44.1211,0,0.0610352,0.244141,-0.58551,-0.414307,0.557159,-0.418335,-150.467,-55.2,-59.175,-1422,-29576
1452,2923454,9.80479,0.162695,0.325391,28.0536,-87.6764,44.0991,0.0610352,0,-0.183105,-0.58551,-0.414307,0.557159,-0.418304,-150.442,-55.2333,-59.2,-1422,-29576
1458,2923460,9.8,0.191406,0.363672,28.0426,-87.6764,44.1046,0,0,0.0610352,-0.585541,-0.414276,0.557159,-0.418274,-150.425,-55.2667,-59.225,-1422,-29576
1464,2923466,9.80957,0.196191,0.339746,28.0481,-87.6764,44.0991,0,0.183105,-0.183105,-0.585541,-0.414276,0.557159,-0.418274,-150.417,-55.275,-59.2417,-1422,-29576
1470,2923472,9.79521,0.172266,0.339746,28.0426,-87.6764,44.0991,0,0,-0.183105,-0.585571,-0.414246,0.55719,-0.418243,-150.392,-55.325,-59.2083,-1422,-29576
1476,2923478,9.81436,0.16748,0.368457,28.0316,-87.6764,44.1046,-0.0610352,0.12207,0,-0.585602,-0.414215,0.55719,-0.418213,-150.4,-55.325,-59.2,-1422,-29576
1482,2923484,9.81436,0.177051,0.358887,28.0316,-87.6764,44.1046,0,0,0,-0.585602,-0.414215,0.55722,-0.418213,-150.425,-55.3417,-59.1833,-1422,-29576
1488,2923490,9.78564,0.16748,0.330176,28.0261,-87.6764,44.1046,0,0,0,-0.585602,-0.414185,0.55722,-0.418182,-150.45,-55.3583,-59.2083,-1422,-29576
1494,2923496,9.80957,0.196191,0.349316,28.0206,-87.6764,44.1046,0,0,0,-0.585632,-0.414185,0.557251,-0.418182,-150.475,-55.375,-59.225,-1422,-29576
1500,2923502,9.80957,0.177051,0.368457,28.0151,-87.6764,44.1046,0,0,0,-0.585632,-0.414154,0.557251,-0.418152,-150.533,-55.4,-59.2167,-1422,-29576
1506,2923508,9.79521,0.181836,0.358887,28.0151,-87.6764,44.1046,0,0,0,-0.585663,-0.414124,0.557281,-0.418152,-150.533,-55.4083,-59.1667,-1422,-29576
1512,2923514,9.78564,0.191406,0.358887,28.0096,-87.6764,44.1046,0,0,0,-0.585663,-0.414124,0.557281,-0.418121,-150.533,-55.4167,-59.0833,-1422,-29576
1518,2923520,9.8,0.191406,0.358887,28.0096,-87.6764,44.1046,0,0,0,-0.585663,-0.414093,0.557281,-0.418121,-150.542,-55.4167,-59.025,-1422,-29576
1524,2923526,9.79043,0.172266,0.378027,28.0042,-87.6764,44.1046,0,0,0,-0.585693,-0.414093,0.557312,-0.418091,-150.533,-55.4083,-59.0167,-1422,-29576
1530,2923532,9.8,0.16748,0.392383,27.9987,-87.6764,44.1046,0,0,0,-0.585693,-0.414063,0.557312,-0.41806,-150.533,-55.4083,-59.0417,-1422,-29576
1536,2923538,9.81436,0.16748,0.354102,27.9932,-87.6764,44.1046,0,0,0,-0.585724,-0.414032,0.557343,-0.41806,-150.542,-55.4083,-59.075,-1422,-29576
1542,2923544,9.80957,0.205762,0.368457,27.9932,-87.6764,44.1046,0,0,0,-0.585724,-0.414001,0.557343,-0.41803,-150.558,-55.4,-59.125,-1422,-29576
1548,2923550,9.80957,0.162695,0.373242,27.9877,-87.6709,44.1046,0,0,0,-0.585754,-0.414001,0.557373,-0.417999,-150.583,-55.4,-59.175,-1422,-29576
1554,2923556,9.79043,0.191406,0.339746,27.9822,-87.6764,44.1046,0,0,0,-0.585754,-0.413971,0.557373,-0.417999,-150.592,-55.3833,-59.2,-1422,-29576
1560,2923562,9.8,0.172266,0.358887,27.9767,-87.6709,44.1046,0,0,0,-0.585785,-0.41394,0.557404,-0.417969,-150.592,-55.3417,-59.1667,-1422,-29576
1566,2923568,9.80479,0.181836,0.349316,27.9712,-87.6709,44.1046,0,0,0,-0.585815,-0.41391,0.557404,-0.417938,-150.6,-55.3167,-59.1583,-1422,-29576
1572,2923574,9.81914,0.162695,0.349316,27.9712,-87.6709,44.1046,0,0,0,-0.585815,-0.41391,0.557434,-0.417938,-150.625,-55.3167,-59.1667,-1422,-29576
1578,2923580,9.82393,0.181836,0.363672,27.9657,-87.6709,44.1046,0,0,0,-0.585846,-0.413879,0.557434,-0.417908,-150.65,-55.3167,-59.1917,-1422,-29576
1584,2923586,9.82871,0.172266,0.344531,27.9602,-87.6709,44.1046,0,0,0,-0.585846,-0.413879,0.557434,-0.417877,-150.658,-55.3167,-59.2333,-1422,-29576
1590,2923592,9.81436,0.186621,0.349316,27.9547,-87.6709,44.1046,0,0,0,-0.585876,-0.413818,0.557465,-0.417847,-150.658,-55.3167,-59.2583,-1422,-29576
1596,2923598,9.80957,0.15791,0.349316,27.9547,-87.6709,44.1046,0,0,0,-0.585876,-0.413818,0.557495,-0.417847,-150.658,-55.3083,-59.2833,-1422,-29576
1602,2923604,9.82393,0.177051,0.334961,27.9492,-87.6709,44.1046,0,0,0,-0.585907,-0.413788,0.557495,-0.417816,-150.675,-55.3167,-59.275,-1422,-29576
1608,2923610,9.78564,0.177051,0.325391,27.9437,-87.6709,44.1046,0,0,0,-0.585907,-0.413788,0.557495,-0.417816,-150.667,-55.3167,-59.2833,-1422,-29576
1614,2923616,9.79043,0.16748,0.344531,27.9437,-87.6709,44.1046,0,0,0,-0.585907,-0.413757,0.557526,-0.417786,-150.658,-55.3,-59.3,-1422,-29576
1620,2923622,9.80957,0.177051,0.349316,27.9382,-87.6709,44.1046,0,0,0,-0.585938,-0.413727,0.557556,-0.417755,-150.608,-55.2833,-59.3417,-1422,-29576
1626,2923628,9.81436,0.196191,0.330176,27.9327,-87.6709,44.1046,0,0,0,-0.585938,-0.413727,0.557556,-0.417755,-150.583,-55.2833,-59.325,-1422,-29576
1632,2923634,9.79521,0.181836,0.368457,27.9327,-87.6709,44.1046,0,0,0,-0.585968,-0.413696,0.557556,-0.417755,-150.575,-55.2833,-59.3,-1422,-29576
1638,2923640,9.80479,0.153125,0.339746,27.9272,-87.6709,44.1046,0,0,0,-0.585968,-0.413696,0.557556,-0.417725,-150.575,-55.2833,-59.275,-1422,-29576
1644,2923646,9.80479,0.186621,0.349316,27.9272,-87.6709,44.1046,0,0,0,-0.585968,-0.413666,0.557587,-0.417725,-150.575,-55.2833,-59.2417,-1422,-29576
1650,2923652,9.79043,0.181836,0.354102,27.9218,-87.6709,44.1046,0,0,0,-0.585999,-0.413635,0.557617,-0.417694,-150.583,-55.3,-59.2833,-1422,-29576
1656,2923658,9.81436,0.177051,0.354102,27.9163,-87.6709,44.1046,0,0,0,-0.585999,-0.413635,0.557617,-0.417664,-150.592,-55.3083,-59.3,-1422,-29576
1662,2923664,9.79521,0.16748,0.344531,27.9163,-87.6709,44.1046,0,0,0,-0.586029,-0.413605,0.557617,-0.417664,-150.583,-55.325,-59.3167,-1422,-29576
1668,2923670,9.79043,0.172266,0.330176,27.9108,-87.6709,44.1046,0,0,0,-0.586029,-0.413605,0.557648,-0.417633,-150.6,-55.3333,-59.3583,-1422,-29576
1674,2923676,9.79521,0.186621,0.349316,27.9108,-87.6709,44.1046,0,0,0,-0.586029,-0.413574,0.557648,-0.417633,-150.625,-55.3333,-59.375,-1422,-29576
1680,2923682,9.79521,0.177051,0.325391,27.9053,-87.6709,44.1046,0,0,0,-0.58606,-0.413544,0.557678,-0.417603,-150.592,-55.3083,-59.45,-1422,-29576
1686,2923688,9.81436,0.186621,0.349316,27.8998,-87.6764,44.1046,0,0,0,-0.58606,-0.413544,0.557678,-0.417572,-150.592,-55.3,-59.4417,-1422,-29576
1692,2923694,9.79521,0.16748,0.344531,27.8998,-87.6764,44.1046,0,0,0,-0.58609,-0.413544,0.557678,-0.417572,-150.592,-55.2917,-59.4417,-1422,-29576
1698,2923700,9.80957,0.16748,0.358887,27.8943,-87.6764,44.1046,0,0,0,-0.58609,-0.413513,0.557709,-0.417572,-150.6,-55.275,-59.4167,-1422,-29576
1704,2923706,9.80479,0.172266,0.373242,27.8943,-87.6764,44.1046,0,0,0,-0.58609,-0.413513,0.557709,-0.417542,-150.65,-55.3,-59.35,-1422,-29576
1710,2923712,9.81914,0.186621,0.349316,27.8888,-87.6764,44.1046,0,0,0,-0.586121,-0.413483,0.557739,-0.417511,-150.675,-55.3167,-59.2333,-1422,-29576
1716,2923718,9.80479,0.16748,0.349316,27.8833,-87.6764,44.1046,0,0,0,-0.586121,-0.413452,0.557739,-0.417511,-150.692,-55.3167,-59.2083,-1422,-29576
1722,2923724,9.79043,0.172266,0.358887,27.8833,-87.6764,44.1046,0,0,0,-0.586121,-0.413452,0.557739,-0.41748,-150.7,-55.3083,-59.175,-1430,-29575
1728,2923730,9.80479,0.181836,0.349316,27.8778,-87.6764,44.1046,0,0,0,-0.586151,-0.413422,0.55777,-0.41748,-150.708,-55.3083,-59.15,-1430,-29575
1734,2923736,9.8,0.177051,0.339746,27.8723,-87.6764,44.1046,0,0,0,-0.586151,-0.413422,0.55777,-0.41748,-150.733,-55.3167,-59.125,-1430,-29575
1740,2923742,9.80957,0.177051,0.339746,27.8723,-87.6764,44.1046,0,0,0,-0.586182,-0.413391,0.5578,-0.41745,-150.742,-55.325,-59.125,-1430,-29575
1746,2923748,9.80479,0.172266,0.354102,27.8668,-87.6764,44.1046,0,0,0,-0.586182,-0.413391,0.5578,-0.417419,-150.717,-55.325,-59.1167,-1430,-29575
1752,2923754,9.79521,0.186621,0.344531,27.8668,-87.6764,44.1046,0,0,0,-0.586182,-0.413361,0.5578,-0.417419,-150.7,-55.3167,-59.1167,-1430,-29575
1758,2923760,9.8,0.196191,0.368457,27.8613,-87.6764,44.1046,0,0,0,-0.586212,-0.413361,0.557831,-0.417419,-150.692,-55.325,-59.1,-1430,-29575
1764,2923766,9.80957,0.172266,0.363672,27.8558,-87.6764,44.1046,0,0,0,-0.586212,-0.41333,0.557831,-0.417389,-150.683,-55.3333,-59.0917,-1430,-29575
1770,2923772,9.78564,0.172266,0.339746,27.8558,-87.6764,44.1046,0,0,0,-0.586212,-0.41333,0.557831,-0.417358,-150.675,-55.3583,-59.075,-1430,-29575
1776,2923778,9.80479,0.162695,0.363672,27.8558,-87.6764,44.1046,0,0,0,-0.586212,-0.4133,0.557861,-0.417358,-150.667,-55.35,-59.0917,-1430,-29575
1782,2923784,9.79521,0.186621,0.344531,27.8503,-87.6764,44.1046,0,0,0,-0.586243,-0.4133,0.557861,-0.417358,-150.667,-55.375,-59.1083,-1430,-29575
1788,2923790,9.80957,0.16748,0.349316,27.8503,-87.6764,44.1046,0,0,0,-0.586243,-0.4133,0.557861,-0.417328,-150.692,-55.3833,-59.1,-1430,-29575
1794,2923796,9.79043,0.177051,0.339746,27.8448,-87.6764,44.1046,0,0,0,-0.586243,-0.413269,0.557861,-0.417328,-150.7,-55.4,-59.0917,-1430,-29575
1800,2923802,9.79521,0.181836,0.363672,27.8448,-87.6764,44.1046,0,0,0,-0.586273,-0.413239,0.557892,-0.417297,-150.683,-55.4167,-59.0333,-1430,-29575
1806,2923808,9.81436,0.181836,0.368457,27.8394,-87.6764,44.1046,0,0,0,-0.586273,-0.413239,0.557892,-0.417297,-150.675,-55.3833,-59.0667,-1430,-29575
1812,2923814,9.81914,0.172266,0.363672,27.8394,-87.6764,44.1046,0,0,0,-0.586273,-0.413239,0.557922,-0.417267,-150.675,-55.3667,-59.1,-1430,-29575
1818,2923820,9.82871,0.16748,0.363672,27.8339,-87.6764,44.1046,0,0,0,-0.586304,-0.413208,0.557922,-0.417267,-150.683,-55.3417,-59.125,-1430,-29575
1824,2923826,9.8,0.177051,0.358887,27.8284,-87.6764,44.1046,0,0,0,-0.586304,-0.413208,0.557922,-0.417236,-150.7,-55.3417,-59.175,-1430,-29575
1830,2923832,9.80479,0.177051,0.349316,27.8229,-87.6764,44.1046,0,0,0,-0.586334,-0.413147,0.557953,-0.417206,-150.733,-55.3417,-59.225,-1430,-29575
1836,2923838,9.8,0.191406,0.339746,27.8229,-87.6764,44.1046,0,0,0,-0.586334,-0.413147,0.557983,-0.417206,-150.758,-55.3417,-59.2583,-1430,-29575
1842,2923844,9.80957,0.186621,0.334961,27.8174,-87.6764,44.1046,0,0,0,-0.586365,-0.413116,0.557983,-0.417175,-150.758,-55.35,-59.2833,-1430,-29575
1848,2923850,9.81914,0.186621,0.344531,27.8174,-87.6764,44.1046,0,0,0,-0.586365,-0.413116,0.557983,-0.417175,-150.767,-55.35,-59.3167,-1430,-29575
1854,2923856,9.78564,0.196191,0.368457,27.8119,-87.6764,44.1046,0,0,0,-0.586365,-0.413116,0.558014,-0.417175,-150.758,-55.3583,-59.3333,-1430,-29575
1860,2923862,9.78564,0.15791,0.354102,27.8119,-87.6764,44.1046,0,0,0,-0.586395,-0.413086,0.558014,-0.417145,-150.742,-55.3583,-59.4,-1430,-29575
1866,2923868,9.79043,0.177051,0.320605,27.8064,-87.6764,44.1046,0,0,0,-0.586395,-0.413055,0.558014,-0.417145,-150.742,-55.3417,-59.4417,-1430,-29575
1872,2923874,9.80479,0.186621,0.368457,27.8064,-87.6764,44.1046,0,0,0,-0.586395,-0.413055,0.558044,-0.417114,-150.733,-55.35,-59.4583,-1430,-29575
1878,2923880,9.8,0.177051,0.363672,27.8009,-87.6764,44.1046,0,0,0,-0.586426,-0.413055,0.558044,-0.417114,-150.742,-55.3583,-59.4417,-1430,-29575
1884,2923886,9.8,0.172266,0.334961,27.7954,-87.6764,44.1046,0,0,0,-0.586426,-0.413025,0.558044,-0.417084,-150.75,-55.3583,-59.4,-1430,-29575
1890,2923892,9.81436,0.177051,0.373242,27.7954,-87.6764,44.1046,0,0,0,-0.586456,-0.412994,0.558075,-0.417084,-150.758,-55.3417,-59.35,-1430,-29575
1896,2923898,9.80957,0.181836,0.349316,27.7899,-87.6764,44.1046,0,0,0,-0.586456,-0.412994,0.558075,-0.417053,-150.758,-55.3333,-59.375,-1430,-29575
1902,2923904,9.78564,0.162695,0.330176,27.7899,-87.6764,44.1046,0,0,0,-0.586456,-0.412964,0.558105,-0.417053,-150.758,-55.325,-59.3833,-1430,-29575
1908,2923910,9.79043,0.172266,0.368457,27.7899,-87.6764,44.1046,0,0,0,-0.586456,-0.412964,0.558105,-0.417023,-150.758,-55.3167,-59.3667,-1430,-29575
1914,2923916,9.79043,0.181836,0.354102,27.7844,-87.6764,44.1046,0,0,0,-0.586487,-0.412964,0.558105,-0.417023,-150.717,-55.3167,-59.3417,-1430,-29575
1920,2923922,9.80479,0.177051,0.354102,27.7789,-87.6764,44.1046,0,0,0,-0.586487,-0.412933,0.558136,-0.416992,-150.708,-55.3167,-59.3333,-1430,-29575
1926,2923928,9.8,0.196191,0.358887,27.7789,-87.6764,44.1046,0,0,0,-0.586517,-0.412903,0.558136,-0.416992,-150.7,-55.3167,-59.3417,-1430,-29575
1932,2923934,9.8,0.186621,0.358887,27.7734,-87.6764,44.1046,0,0,0,-0.586517,-0.412903,0.558136,-0.416962,-150.7,-55.3083,-59.3083,-1430,-29575
1938,2923940,9.79521,0.16748,0.354102,27.7734,-87.6764,44.1046,0,0,0,-0.586517,-0.412872,0.558167,-0.416962,-150.675,-55.325,-59.2667,-1430,-29575
1944,2923946,9.79521,0.16748,0.392383,27.7679,-87.6764,44.1046,0,0,0,-0.586548,-0.412872,0.558167,-0.416931,-150.608,-55.3417,-59.2333,-1430,-29575
1950,2923952,9.79521,0.172266,0.349316,27.7625,-87.6764,44.1046,0,0,0,-0.586548,-0.412842,0.558197,-0.416901,-150.592,-55.3417,-59.2583,-1430,-29575
1956,2923958,9.8,0.16748,0.344531,27.757,-87.6764,44.1046,0,0,0,-0.586578,-0.412811,0.558197,-0.416901,-150.608,-55.3333,-59.2833,-1430,-29575
1962,2923964,9.80479,0.186621,0.358887,27.757,-87.6764,44.1046,0,0,0,-0.586578,-0.412811,0.558228,-0.41687,-150.608,-55.325,-59.325,-1430,-29575
1968,2923970,9.8,0.186621,0.330176,27.7515,-87.6764,44.1046,0,0,0,-0.586609,-0.412781,0.558228,-0.41687,-150.617,-55.3,-59.3667,-1430,-29575
1974,2923976,9.8,0.177051,0.373242,27.746,-87.6764,44.1046,0,0,0,-0.586609,-0.412781,0.558228,-0.41684,-150.65,-55.2667,-59.4583,-1430,-29575
1980,2923982,9.80479,0.196191,0.344531,27.7405,-87.6764,44.1046,0,0,0,-0.586639,-0.41272,0.558258,-0.416809,-150.642,-55.2333,-59.4833,-1430,-29575
1986,2923988,9.8,0.186621,0.363672,27.7405,-87.6764,44.1046,0,0,0,-0.586639,-0.41272,0.558258,-0.416809,-150.65,-55.225,-59.4667,-1430,-29575
1992,2923994,9.80957,0.15791,0.373242,27.735,-87.6764,44.1046,0,0,0,-0.586639,-0.41272,0.558289,-0.416779,-150.642,-55.2167,-59.4333,-1430,-29575
1998,2924000,9.80957,0.162695,0.334961,27.735,-87.6764,44.1046,0,0,0,-0.58667,-0.412689,0.558289,-0.416779,-150.633,-55.2417,-59.4,-1430,-29575
2004,2924006,9.81914,0.177051,0.330176,27.7295,-87.6764,44.1046,0,0,0,-0.58667,-0.412659,0.558319,-0.416748,-150.642,-55.2833,-59.3417,-1430,-29575
2010,2924012,9.79043,0.186621,0.330176,27.724,-87.6764,44.1046,0,0,0,-0.5867,-0.412628,0.558319,-0.416718,-150.658,-55.3083,-59.3583,-1430,-29575
2016,2924018,9.80479,0.191406,0.344531,27.724,-87.6764,44.1046,0,0,0,-0.5867,-0.412628,0.55835,-0.416718,-150.667,-55.3333,-59.3583,-1430,-29575
2022,2924024,9.79521,0.16748,0.330176,27.7185,-87.6764,44.1046,0,0,0,-0.586731,-0.412628,0.55835,-0.416687,-150.667,-55.3417,-59.35,-1430,-29575
2028,2924030,9.8,0.186621,0.349316,27.7185,-87.6764,44.1046,0,0,0,-0.586731,-0.412598,0.55835,-0.416687,-150.667,-55.35,-59.325,-1430,-29575
2034,2924036,9.81914,0.191406,0.349316,27.713,-87.6764,44.1046,0,0,0,-0.586731,-0.412598,0.55835,-0.416687,-150.667,-55.3417,-59.2917,-1430,-29575
2040,2924042,9.80479,0.200977,0.354102,27.713,-87.6764,44.1046,0,0,0,-0.586731,-0.412567,0.55838,-0.416656,-150.658,-55.3333,-59.2917,-1430,-29575
2046,2924048,9.79521,0.177051,0.358887,27.7075,-87.6764,44.1046,0,0,0,-0.586761,-0.412567,0.55838,-0.416656,-150.633,-55.3333,-59.3167,-1430,-29575
2052,2924054,9.78086,0.186621,0.354102,27.7075,-87.6764,44.1046,0,0,0,-0.586761,-0.412567,0.55838,-0.416656,-150.608,-55.3333,-59.35,-1430,-29575
2058,2924060,9.78564,0.196191,0.358887,27.7075,-87.6764,44.1046,0,0,0,-0.586761,-0.412537,0.55838,-0.416626,-150.567,-55.3167,-59.4333,-1430,-29575
2064,2924066,9.8,0.181836,0.363672,27.702,-87.6764,44.1046,0,0,0,-0.586761,-0.412537,0.558411,-0.416626,-150.517,-55.3,-59.525,-1430,-29575
2070,2924072,9.78086,0.177051,0.325391,27.702,-87.6764,44.1046,0,0,0,-0.586761,-0.412537,0.558411,-0.416626,-150.542,-55.3083,-59.5,-1430,-29575
2076,2924078,9.81436,0.16748,0.373242,27.702,-87.6764,44.1046,0,0,0,-0.586792,-0.412537,0.558411,-0.416626,-150.575,-55.3083,-59.475,-1430,-29575
2082,2924084,9.81436,0.177051,0.334961,27.702,-87.6764,44.1046,0,0,0,-0.586792,-0.412506,0.558411,-0.416595,-150.617,-55.3083,-59.4417,-1430,-29575
2088,2924090,9.79043,0.162695,0.363672,27.6965,-87.6764,44.1046,0,0,0,-0.586792,-0.412506,0.558411,-0.416595,-150.65,-55.325,-59.45,-1430,-29575
2094,2924096,9.80479,0.16748,0.349316,27.6965,-87.6764,44.1046,0,0,0,-0.586792,-0.412506,0.558441,-0.416595,-150.692,-55.35,-59.5,-1430,-29575
2100,2924102,9.80957,0.191406,0.349316,27.691,-87.6764,44.1046,0,0,0,-0.586823,-0.412476,0.558441,-0.416565,-150.708,-55.3583,-59.5083,-1430,-29575
2106,2924108,9.78086,0.16748,0.368457,27.691,-87.6764,44.1046,0,0,0,-0.586823,-0.412476,0.558441,-0.416565,-150.733,-55.3583,-59.5167,-1430,-29575
2112,2924114,9.79521,0.172266,0.358887,27.691,-87.6764,44.1046,0,0,0,-0.586823,-0.412476,0.558441,-0.416565,-150.733,-55.3583,-59.5,-1430,-29575
2118,2924120,9.8,0.177051,0.363672,27.691,-87.6764,44.1046,0,0,0,-0.586823,-0.412445,0.558472,-0.416534,-150.725,-55.375,-59.4417,-1430,-29575
2124,2924126,9.80957,0.181836,0.373242,27.6855,-87.6764,44.1046,0,0,0,-0.586823,-0.412445,0.558472,-0.416534,-150.717,-55.4,-59.35,-1430,-29575
2130,2924132,9.8,0.172266,0.363672,27.6801,-87.6764,44.1046,0,0,0,-0.586853,-0.412415,0.558472,-0.416504,-150.692,-55.4083,-59.2917,-1430,-29575
2136,2924138,9.8,0.172266,0.325391,27.6801,-87.6764,44.1046,0,0,0,-0.586853,-0.412415,0.558502,-0.416504,-150.683,-55.4083,-59.2333,-1430,-29575
2142,2924144,9.78564,0.191406,0.354102,27.6746,-87.6764,44.1046,0,0,0,-0.586884,-0.412384,0.558502,-0.416504,-150.675,-55.4,-59.2,-1430,-29575
2148,2924150,9.78564,0.181836,0.358887,27.6746,-87.6764,44.1046,0,0,0,-0.586884,-0.412384,0.558502,-0.416473,-150.675,-55.3833,-59.1417,-1430,-29575
2154,2924156,9.80479,0.177051,0.354102,27.6691,-87.6764,44.1046,0,0,0,-0.586884,-0.412384,0.558502,-0.416473,-150.692,-55.3583,-59.1,-1430,-29575
2160,2924162,9.78086,0.172266,0.368457,27.6691,-87.6764,44.1046,0,0,0,-0.586914,-0.412354,0.558533,-0.416443,-150.683,-55.3667,-59.0833,-1430,-29575
2166,2924168,9.79043,0.177051,0.31582,27.6636,-87.6764,44.1046,0,0,0,-0.586914,-0.412354,0.558533,-0.416443,-150.7,-55.3667,-59.0667,-1430,-29575
2172,2924174,9.80479,0.172266,0.354102,27.6636,-87.6764,44.1046,0,0,0,-0.586914,-0.412323,0.558563,-0.416443,-150.708,-55.35,-59.0833,-1430,-29575
2178,2924180,9.80479,0.177051,0.349316,27.6636,-87.6764,44.1046,0,0,0,-0.586914,-0.412323,0.558563,-0.416412,-150.717,-55.3417,-59.1083,-1430,-29575
2184,2924186,9.80957,0.172266,0.363672,27.6581,-87.6764,44.1046,0,0,0,-0.586945,-0.412292,0.558563,-0.416382,-150.683,-55.3333,-59.1667,-1430,-29575
2190,2924192,9.81436,0.177051,0.334961,27.6526,-87.6764,44.1046,0,0,0,-0.586945,-0.412292,0.558594,-0.416382,-150.658,-55.3333,-59.1667,-1430,-29575
2196,2924198,9.80479,0.16748,0.330176,27.6526,-87.6764,44.1046,0,0,0,-0.586945,-0.412262,0.558594,-0.416382,-150.625,-55.35,-59.175,-1430,-29575
2202,2924204,9.79521,0.186621,0.354102,27.6526,-87.6764,44.1046,0,0,0,-0.586975,-0.412262,0.558594,-0.416351,-150.608,-55.35,-59.2333,-1430,-29575
2208,2924210,9.8,0.186621,0.373242,27.6471,-87.6764,44.1046,0,0,0,-0.586975,-0.412262,0.558594,-0.416351,-150.6,-55.3333,-59.3083,-1430,-29575
2214,2924216,9.82393,0.172266,0.339746,27.6416,-87.6764,44.1046,0,0,0,-0.586975,-0.412231,0.558624,-0.416321,-150.608,-55.3333,-59.4,-1430,-29575
2220,2924222,9.79521,0.177051,0.349316,27.6416,-87.6764,44.1046,0,0,0,-0.587006,-0.412231,0.558624,-0.416321,-150.625,-55.325,-59.4167,-1430,-29575
2226,2924228,9.80957,0.186621,0.349316,27.6416,-87.6764,44.1046,0,0,0,-0.587006,-0.412201,0.558624,-0.416321,-150.633,-55.3333,-59.4083,-1430,-29575
2232,2924234,9.81436,0.177051,0.368457,27.6416,-87.6764,44.1046,0,0,0,-0.587006,-0.412201,0.558624,-0.416321,-150.642,-55.325,-59.4083,-1430,-29575
2238,2924240,9.81914,0.16748,0.330176,27.6416,-87.6764,44.1046,0,0,0,-0.587006,-0.412201,0.558655,-0.416321,-150.65,-55.3167,-59.4167,-1430,-29575
2244,2924246,9.80479,0.177051,0.363672,27.6361,-87.6764,44.1046,0,0,0,-0.587006,-0.412201,0.558655,-0.41629,-150.65,-55.325,-59.425,-1430,-29575
2250,2924252,9.81914,0.186621,0.339746,27.6361,-87.6764,44.1046,0,0,0,-0.587006,-0.41217,0.558655,-0.41629,-150.658,-55.3333,-59.4,-1430,-29575
2256,2924258,9.81914,0.186621,0.344531,27.6361,-87.6764,44.1046,0,0,0,-0.587036,-0.41217,0.558655,-0.41629,-150.65,-55.3417,-59.3917,-1430,-29575
2262,2924264,9.81914,0.162695,0.354102,27.6306,-87.6764,44.1046,0,0,0,-0.587036,-0.41217,0.558655,-0.41626,-150.658,-55.35,-59.4,-1430,-29575
2268,2924270,9.81436,0.177051,0.349316,27.6306,-87.6764,44.1046,0,0,0,-0.587036,-0.41217,0.558685,-0.41626,-150.65,-55.375,-59.4,-1430,-29575
2274,2924276,9.81436,0.162695,0.368457,27.6251,-87.6764,44.1046,0,0,0,-0.587036,-0.41214,0.558685,-0.41626,-150.633,-55.3917,-59.4083,-1430,-29575
2280,2924282,9.80957,0.186621,0.349316,27.6251,-87.6764,44.1046,0,0,0,-0.587067,-0.41214,0.558685,-0.416229,-150.633,-55.4,-59.375,-1430,-29575
2286,2924288,9.80957,0.16748,0.363672,27.6251,-87.6764,44.1046,0,0,0,-0.587067,-0.41214,0.558685,-0.416229,-150.642,-55.4,-59.3333,-1430,-29575
2292,2924294,9.80957,0.177051,0.358887,27.6196,-87.6764,44.1046,0,0,0,-0.587067,-0.412109,0.558716,-0.416229,-150.65,-55.425,-59.3,-1430,-29575
2298,2924300,9.8,0.186621,0.344531,27.6196,-87.6764,44.1046,0,0,0,-0.587067,-0.412109,0.558716,-0.416229,-150.65,-55.45,-59.2667,-1430,-29575
2304,2924306,9.79521,0.191406,0.373242,27.6196,-87.6764,44.1046,0,0,0,-0.587097,-0.412079,0.558716,-0.416199,-150.658,-55.4583,-59.3167,-1430,-29575
2310,2924312,9.8,0.172266,0.358887,27.6141,-87.6764,44.1046,0,0,0,-0.587097,-0.412079,0.558716,-0.416199,-150.625,-55.4333,-59.375,-1430,-29575
