TimeSinceCollection,Timestamp,AccX,AccY,AccZ,AngleRoll,AnglePitch,AngleYaw,AngularVelX,AngularVelY,AngularVelZ,Q1,Q2,Q3,Q4,MagX,MagY,MagZ,Height,Airpressure
0,873745,-0.210547,-0.961816,9.77129,-5.61401,1.24695,20.061,0,0,0,0.983337,-0.0501099,0.00216675,0.174469,-55.85,88.775,-93.375,-1771,-29534
6,873751,-0.196191,-0.937891,9.7665,-5.61401,1.24695,20.061,0,0,0,0.983337,-0.0501099,0.00216675,0.174469,-55.85,88.7667,-93.3417,-1771,-29534
12,873757,-0.196191,-0.971387,9.75693,-5.61401,1.24695,20.061,0,0,0,0.983337,-0.0501099,0.00216675,0.174469,-55.8417,88.775,-93.325,-1771,-29534
18,873763,-0.224902,-0.952246,9.77607,-5.61401,1.24695,20.061,0,0,0,0.983337,-0.0501099,0.00216675,0.174469,-55.825,88.7833,-93.3583,-1771,-29534
24,873769,-0.210547,-0.933105,9.74258,-5.61401,1.24695,20.061,0,0,0,0.983337,-0.0501099,0.00216675,0.174469,-55.85,88.7833,-93.375,-1771,-29534
30,873775,-0.229688,-0.961816,9.77607,-5.61401,1.24695,20.061,0,0,0,0.983337,-0.0501099,0.00216675,0.174469,-55.8833,88.775,-93.4083,-1771,-29534
36,873781,-0.224902,-0.966602,9.78086,-5.61401,1.24695,20.061,0,0,0,0.983337,-0.0501099,0.00216675,0.174469,-55.9083,88.7667,-93.45,-1771,-29534
42,873787,-0.224902,-0.957031,9.7665,-5.61401,1.24695,20.061,0,0,0,0.983337,-0.0501099,0.00216675,0.174469,-55.9333,88.7417,-93.5167,-1771,-29534
48,873793,-0.215332,-0.952246,9.77607,-5.61401,1.24695,20.061,0,0,0,0.983337,-0.0501099,0.00216675,0.174469,-55.9667,88.7333,-93.55,-1771,-29534
54,873799,-0.196191,-0.966602,9.74736,-5.61401,1.24695,20.061,0,0,0,0.983337,-0.0501099,0.00216675,0.174469,-55.95,88.7333,-93.5083,-1771,-29534
60,873805,-0.224902,-0.947461,9.79521,-5.61401,1.24695,20.061,0,0,0,0.983337,-0.0501099,0.00216675,0.174469,-55.925,88.75,-93.4583,-1771,-29534
66,873811,-0.196191,-0.952246,9.7665,-5.61401,1.24695,20.061,0,0,0,0.983337,-0.0501099,0.00216675,0.174469,-55.8833,88.7583,-93.45,-1771,-29534
72,873817,-0.229688,-0.957031,9.78564,-5.61401,1.24695,20.061,0,0,0,0.983337,-0.0501099,0.00216675,0.174469,-55.85,88.7583,-93.45,-1771,-29534
78,873823,-0.229688,-0.985742,9.75215,-5.60852,1.24695,20.0555,0.244141,0.244141,-0.244141,0.983337,-0.0501099,0.00216675,0.174469,-55.8083,88.7667,-93.4917,-1771,-29534
84,873829,-0.210547,-0.961816,9.79043,-5.60852,1.24695,20.0555,0.0610352,0,0.0610352,0.983337,-0.0501099,0.00219727,0.174438,-55.8083,88.7917,-93.4667,-1771,-29534
90,873835,-0.186621,-0.966602,9.77129,-5.60852,1.24695,20.0555,0.0610352,0,0.0610352,0.983337,-0.0501099,0.00219727,0.174438,-55.8333,88.7917,-93.425,-1771,-29534
96,873841,-0.224902,-0.961816,9.74258,-5.60852,1.24695,20.0555,0.305176,0.0610352,-0.183105,0.983337,-0.0501099,0.00219727,0.174438,-55.8583,88.7917,-93.35,-1771,-29534
102,873847,-0.196191,-0.961816,9.75693,-5.60852,1.24695,20.0555,0.183105,0.12207,-0.244141,0.983337,-0.0500793,0.00219727,0.174438,-55.875,88.7917,-93.3083,-1771,-29534
108,873853,-0.191406,-0.957031,9.7665,-5.60852,1.24695,20.0555,-0.0610352,0.0610352,0,0.983337,-0.0500793,0.00219727,0.174438,-55.9167,88.7833,-93.2417,-1771,-29534
114,873859,-0.191406,-0.952246,9.74258,-5.60852,1.25244,20.0555,-0.0610352,0.183105,0.0610352,0.983337,-0.0500793,0.00219727,0.174438,-55.9,88.7833,-93.2583,-1771,-29534
120,873865,-0.220117,-0.947461,9.7665,-5.60852,1.25244,20.0555,0,0.0610352,0,0.983337,-0.0500793,0.00222778,0.174438,-55.8917,88.7833,-93.2833,-1771,-29534
126,873871,-0.200977,-0.947461,9.7665,-5.60852,1.25244,20.0555,0,0.183105,0.12207,0.983337,-0.0500793,0.00222778,0.174438,-55.8583,88.7833,-93.3167,-1771,-29534
132,873877,-0.224902,-0.937891,9.74736,-5.60852,1.25244,20.0555,-0.0610352,0.0610352,0,0.983337,-0.0500793,0.00222778,0.174438,-55.85,88.7667,-93.325,-1771,-29534
138,873883,-0.200977,-0.952246,9.75693,-5.60852,1.25244,20.0555,-0.183105,0,0,0.983337,-0.0500793,0.00222778,0.174438,-55.825,88.7417,-93.3083,-1771,-29534
144,873889,-0.220117,-0.937891,9.73779,-5.60852,1.25244,20.0555,0,-0.0610352,0,0.983337,-0.0501099,0.00222778,0.174438,-55.8167,88.7333,-93.3083,-1771,-29534
150,873895,-0.210547,-0.942676,9.74736,-5.60852,1.25244,20.0555,-0.12207,-0.12207,-0.183105,0.983337,-0.0501099,0.00222778,0.174438,-55.8083,88.7333,-93.3083,-1771,-29534
156,873901,-0.200977,-0.971387,9.75693,-5.60852,1.25244,20.0555,-0.0610352,0.0610352,0.183105,0.983337,-0.0501099,0.00222778,0.174438,-55.8,88.75,-93.3167,-1771,-29534
162,873907,-0.224902,-0.952246,9.76172,-5.61401,1.25244,20.0555,-0.12207,0.12207,-0.244141,0.983337,-0.0501099,0.00219727,0.174438,-55.7833,88.7667,-93.325,-1771,-29534
168,873913,-0.220117,-0.952246,9.74258,-5.61401,1.24695,20.0555,0,-0.244141,0.0610352,0.983337,-0.0501099,0.00219727,0.174438,-55.775,88.8167,-93.3333,-1771,-29534
174,873919,-0.220117,-0.957031,9.74736,-5.61401,1.24695,20.0555,-0.0610352,-0.244141,0,0.983337,-0.0501099,0.00219727,0.174438,-55.775,88.8167,-93.3417,-1771,-29534
180,873925,-0.200977,-0.966602,9.77129,-5.61401,1.24695,20.0555,0.0610352,-0.183105,0.0610352,0.983337,-0.0501099,0.00219727,0.174438,-55.775,88.8167,-93.35,-1771,-29534
186,873931,-0.172266,-0.961816,9.77129,-5.61401,1.24695,20.0555,0,0,-0.0610352,0.983337,-0.0501099,0.00216675,0.174438,-55.7667,88.7917,-93.3417,-1771,-29534
192,873937,-0.191406,-0.966602,9.78086,-5.61401,1.24695,20.0555,0,0,-0.244141,0.983337,-0.0501099,0.00216675,0.174438,-55.7667,88.7667,-93.3333,-1771,-29534
198,873943,-0.191406,-0.971387,9.79521,-5.61401,1.24695,20.0555,0.0610352,0.0610352,0.0610352,0.983337,-0.0501099,0.00216675,0.174438,-55.7917,88.75,-93.2833,-1771,-29534
204,873949,-0.186621,-0.942676,9.73301,-5.61401,1.24695,20.0555,0,0.244141,0,0.983337,-0.0501099,0.00216675,0.174438,-55.8083,88.7417,-93.2417,-1771,-29534
210,873955,-0.220117,-0.957031,9.76172,-5.61401,1.24695,20.0555,0,0.0610352,0.0610352,0.983337,-0.0501099,0.00219727,0.174438,-55.825,88.7167,-93.2167,-1771,-29534
216,873961,-0.210547,-0.933105,9.7665,-5.60852,1.24695,20.0555,0.0610352,0.305176,0,0.983337,-0.0501099,0.00219727,0.174438,-55.825,88.6917,-93.175,-1771,-29534
222,873967,-0.220117,-0.961816,9.74258,-5.61401,1.25244,20.0555,-0.0610352,0.244141,0.0610352,0.983337,-0.0501099,0.00222778,0.174438,-55.8167,88.6583,-93.1417,-1771,-29534
228,873973,-0.224902,-0.966602,9.76172,-5.60852,1.25244,20.0555,0.0610352,0.366211,-0.12207,0.983337,-0.0501099,0.00222778,0.174438,-55.8333,88.6333,-93.125,-1771,-29534
234,873979,-0.210547,-0.961816,9.75693,-5.60852,1.25244,20.0555,0.0610352,0.305176,0,0.983337,-0.0501099,0.00222778,0.174438,-55.8583,88.6333,-93.1083,-1771,-29534
240,873985,-0.210547,-0.952246,9.73779,-5.60852,1.25793,20.0555,0.12207,0.12207,0,0.983337,-0.0501099,0.0022583,0.174438,-55.8833,88.625,-93.0833,-1780,-29533
246,873991,-0.229688,-0.952246,9.75215,-5.60852,1.25793,20.0555,0.12207,0.12207,0.244141,0.983337,-0.0501099,0.0022583,0.174438,-55.9,88.625,-93.075,-1780,-29533
252,873997,-0.200977,-0.952246,9.74258,-5.60852,1.25793,20.0555,0,-0.0610352,0.427246,0.983337,-0.0500793,0.0022583,0.174438,-55.9083,88.625,-93.0667,-1771,-29534
258,874003,-0.215332,-0.980957,9.74736,-5.60852,1.25244,20.0555,0,-0.183105,0,0.983337,-0.0500793,0.0022583,0.174438,-55.925,88.6417,-93.1,-1771,-29534
264,874009,-0.186621,-0.952246,9.77607,-5.60852,1.25244,20.0555,0.0610352,-0.244141,-0.12207,0.983337,-0.0500793,0.0022583,0.174438,-55.9333,88.65,-93.125,-1771,-29534
270,874015,-0.196191,-0.952246,9.75215,-5.60852,1.25244,20.0555,0,-0.427246,0,0.983337,-0.0500793,0.0022583,0.174438,-55.95,88.6583,-93.15,-1771,-29534
276,874021,-0.234473,-0.961816,9.76172,-5.60852,1.25244,20.0555,0,-0.305176,0,0.983337,-0.0500793,0.00222778,0.174438,-55.9667,88.6667,-93.15,-1771,-29534
282,874027,-0.224902,-0.971387,9.76172,-5.60852,1.24695,20.0555,-0.12207,-0.0610352,0.0610352,0.983337,-0.0500793,0.00219727,0.174438,-55.9833,88.675,-93.125,-1771,-29534
288,874033,-0.200977,-0.976172,9.7665,-5.60852,1.24695,20.0555,-0.183105,-0.12207,0.0610352,0.983337,-0.0500793,0.00219727,0.174438,-55.95,88.6667,-93.1417,-1771,-29534
294,874039,-0.215332,-0.952246,9.77129,-5.60852,1.24695,20.061,-0.183105,0,0.244141,0.983337,-0.0500793,0.00219727,0.174438,-55.9,88.6667,-93.175,-1771,-29534
300,874045,-0.205762,-0.961816,9.75215,-5.60852,1.24695,20.0555,-0.0610352,0,-0.0610352,0.983337,-0.0501099,0.00219727,0.174469,-55.8333,88.675,-93.2333,-1771,-29534
306,874051,-0.224902,-0.966602,9.73301,-5.61401,1.24695,20.061,-0.0610352,0,0.12207,0.983337,-0.0501099,0.00219727,0.174469,-55.7583,88.6833,-93.2667,-1771,-29534
312,874057,-0.215332,-0.971387,9.77607,-5.60852,1.24695,20.061,0.12207,-0.12207,0.244141,0.983337,-0.0501099,0.00219727,0.174469,-55.7,88.675,-93.2917,-1771,-29534
318,874063,-0.210547,-0.947461,9.74258,-5.60852,1.24695,20.061,0,0.0610352,-0.12207,0.983337,-0.0501099,0.00219727,0.174469,-55.675,88.6583,-93.275,-1771,-29534
324,874069,-0.210547,-0.966602,9.79043,-5.60852,1.24695,20.061,0,0,0,0.983337,-0.0501099,0.00219727,0.174469,-55.7,88.6333,-93.2583,-1771,-29534
330,874075,-0.210547,-0.937891,9.75693,-5.60852,1.24695,20.061,0.244141,0.12207,0.0610352,0.983337,-0.0501099,0.00219727,0.174469,-55.7583,88.6167,-93.25,-1771,-29534
336,874081,-0.200977,-0.937891,9.71387,-5.60852,1.24695,20.061,-0.0610352,0.12207,0,0.983337,-0.0500793,0.00219727,0.174469,-55.8083,88.5833,-93.225,-1771,-29534
342,874087,-0.210547,-0.957031,9.73301,-5.60852,1.25244,20.061,0.0610352,0.244141,0.0610352,0.983337,-0.0501099,0.00219727,0.174469,-55.85,88.5667,-93.225,-1771,-29534
348,874093,-0.215332,-0.957031,9.75215,-5.60852,1.25244,20.0555,0.0610352,0.12207,-0.12207,0.983337,-0.0500793,0.00222778,0.174469,-55.9083,88.5667,-93.2083,-1771,-29534
354,874099,-0.215332,-0.952246,9.77129,-5.60852,1.25244,20.0555,0.12207,0.183105,0,0.983337,-0.0500793,0.00222778,0.174469,-55.9083,88.5667,-93.2,-1771,-29534
360,874105,-0.210547,-0.952246,9.73779,-5.60852,1.25244,20.0555,-0.0610352,0.0610352,-0.0610352,0.983337,-0.0500793,0.00222778,0.174469,-55.9,88.5917,-93.225,-1771,-29534
366,874111,-0.210547,-0.971387,9.78086,-5.60852,1.25244,20.0555,0.0610352,0.0610352,0.0610352,0.983337,-0.0500793,0.00222778,0.174469,-55.8917,88.6083,-93.2667,-1771,-29534
372,874117,-0.244043,-0.961816,9.73779,-5.60852,1.25244,20.0555,0.244141,0.12207,-0.0610352,0.983337,-0.0500793,0.00222778,0.174469,-55.8833,88.65,-93.3083,-1771,-29534
378,874123,-0.220117,-0.947461,9.7665,-5.60852,1.25244,20.0555,0.0610352,-0.12207,0.12207,0.983337,-0.0500793,0.0022583,0.174438,-55.9,88.65,-93.2833,-1771,-29534
384,874129,-0.215332,-0.947461,9.77607,-5.60852,1.25244,20.0555,0,-0.12207,-0.12207,0.983337,-0.0500793,0.00222778,0.174469,-55.9167,88.6417,-93.2417,-1771,-29534
390,874135,-0.215332,-0.957031,9.75215,-5.60852,1.25244,20.0555,0,0,-0.0610352,0.983337,-0.0500793,0.00222778,0.174469,-55.95,88.65,-93.1417,-1771,-29534
396,874141,-0.234473,-0.937891,9.77607,-5.60852,1.25244,20.0555,0.12207,-0.12207,0,0.983337,-0.0500793,0.00222778,0.174438,-55.9667,88.6417,-93.075,-1771,-29534
402,874147,-0.215332,-0.976172,9.73779,-5.60852,1.25244,20.0555,-0.0610352,0,-0.12207,0.983337,-0.0500793,0.00222778,0.174438,-55.9583,88.6333,-93.05,-1771,-29534
408,874153,-0.220117,-0.971387,9.76172,-5.60852,1.25244,20.0555,0,0,-0.12207,0.983337,-0.0500793,0.00222778,0.174438,-55.95,88.6083,-93.05,-1771,-29534
414,874159,-0.186621,-0.952246,9.77129,-5.60852,1.25244,20.0555,0,-0.12207,0.12207,0.983337,-0.0500793,0.00222778,0.174438,-55.9333,88.6167,-93.075,-1771,-29534
420,874165,-0.191406,-0.937891,9.7043,-5.60852,1.25244,20.0555,0.183105,-0.12207,-0.12207,0.983337,-0.0500793,0.00222778,0.174438,-55.9167,88.65,-93.1167,-1771,-29534
426,874171,-0.224902,-0.957031,9.80957,-5.60303,1.25244,20.0555,0.183105,0.0610352,0,0.983337,-0.0500488,0.00222778,0.174438,-55.8917,88.6833,-93.1333,-1771,-29534
432,874177,-0.200977,-0.966602,9.73301,-5.60303,1.25244,20.0555,0.0610352,-0.0610352,-0.0610352,0.983337,-0.0500488,0.00222778,0.174438,-55.8833,88.7583,-93.1833,-1771,-29534
438,874183,-0.205762,-0.966602,9.81914,-5.60303,1.25244,20.0555,0,-0.0610352,0.0610352,0.983337,-0.0500488,0.00222778,0.174438,-55.9,88.7667,-93.1833,-1771,-29534
444,874189,-0.215332,-0.961816,9.74736,-5.60303,1.25244,20.0555,0.183105,0.0610352,0,0.983337,-0.0500488,0.00222778,0.174438,-55.9333,88.75,-93.1583,-1771,-29534
450,874195,-0.210547,-0.966602,9.76172,-5.60303,1.25244,20.0555,0.0610352,0.12207,0,0.983337,-0.0500488,0.00222778,0.174438,-55.9667,88.7167,-93.175,-1771,-29534
456,874201,-0.205762,-0.942676,9.77607,-5.60303,1.25244,20.0555,-0.0610352,0.0610352,0,0.983337,-0.0500488,0.00222778,0.174438,-55.9833,88.6833,-93.1667,-1771,-29534
462,874207,-0.210547,-0.976172,9.73779,-5.60303,1.25244,20.0555,-0.0610352,0.244141,0.12207,0.983337,-0.0500488,0.00222778,0.174438,-55.9833,88.6667,-93.2417,-1771,-29534
468,874213,-0.200977,-0.961816,9.78564,-5.60303,1.25244,20.0555,0.0610352,0.244141,0.0610352,0.983337,-0.0500488,0.0022583,0.174438,-55.9667,88.65,-93.275,-1771,-29534
474,874219,-0.191406,-0.961816,9.74736,-5.60303,1.25793,20.0555,0,0.183105,0,0.983337,-0.0500488,0.0022583,0.174438,-55.975,88.65,-93.325,-1771,-29534
480,874225,-0.210547,-0.933105,9.73779,-5.60303,1.25793,20.0555,0.0610352,0.0610352,-0.183105,0.983337,-0.0500488,0.0022583,0.174438,-55.975,88.625,-93.375,-1771,-29534
486,874231,-0.220117,-0.957031,9.8,-5.60303,1.25793,20.0555,0,0,0.183105,0.983337,-0.0500488,0.0022583,0.174438,-55.9667,88.6083,-93.425,-1771,-29534
492,874237,-0.239258,-0.942676,9.72344,-5.60303,1.25793,20.0555,0,0.12207,0.12207,0.983337,-0.0500488,0.0022583,0.174438,-55.9667,88.575,-93.4333,-1771,-29534
498,874243,-0.200977,-0.961816,9.81436,-5.60303,1.25793,20.0555,0.12207,0,0.0610352,0.983337,-0.0500488,0.00228882,0.174469,-55.9667,88.5667,-93.425,-1771,-29534
504,874249,-0.224902,-0.942676,9.71387,-5.60303,1.25793,20.0555,0.12207,0,-0.0610352,0.983337,-0.0500488,0.00228882,0.174469,-55.9583,88.55,-93.4167,-1771,-29534
510,874255,-0.215332,-0.980957,9.75215,-5.60303,1.25793,20.0555,0,-0.0610352,0.0610352,0.983337,-0.0500183,0.00228882,0.174469,-55.95,88.5167,-93.3833,-1771,-29534
516,874261,-0.196191,-0.961816,9.80957,-5.60303,1.25793,20.0555,0,0.183105,-0.183105,0.983337,-0.0500183,0.00228882,0.174438,-55.9417,88.5083,-93.4167,-1771,-29534
522,874267,-0.205762,-0.957031,9.72822,-5.60303,1.25793,20.0555,-0.183105,0,-0.305176,0.983337,-0.0500183,0.00228882,0.174469,-55.925,88.5417,-93.4917,-1771,-29534
528,874273,-0.220117,-0.966602,9.78564,-5.60303,1.25793,20.0555,-0.0610352,0.0610352,0.0610352,0.983337,-0.0500488,0.00228882,0.174438,-55.9,88.5917,-93.5083,-1771,-29534
534,874279,-0.215332,-0.957031,9.74258,-5.60303,1.25793,20.0555,-0.12207,0,0,0.983337,-0.0500488,0.00228882,0.174438,-55.8917,88.6167,-93.4917,-1771,-29534
540,874285,-0.229688,-0.966602,9.77607,-5.60303,1.25793,20.0555,-0.0610352,0.0610352,0,0.983337,-0.0500488,0.00228882,0.174438,-55.875,88.6333,-93.45,-1771,-29534
546,874291,-0.224902,-0.976172,9.80479,-5.60303,1.25793,20.0555,-0.0610352,0.0610352,0.12207,0.983337,-0.0500488,0.00228882,0.174438,-55.8833,88.6583,-93.4417,-1771,-29534
552,874297,-0.215332,-0.933105,9.7665,-5.60303,1.25793,20.0555,0,-0.0610352,0.0610352,0.983337,-0.0500488,0.00228882,0.174469,-55.9417,88.7167,-93.4583,-1771,-29534
558,874303,-0.215332,-0.942676,9.78564,-5.60303,1.25793,20.061,0.12207,0,0.488281,0.983337,-0.0500488,0.00228882,0.174469,-55.95,88.75,-93.5083,-1771,-29534
564,874309,-0.215332,-0.961816,9.73301,-5.60303,1.25793,20.061,0.0610352,0,-0.183105,0.983337,-0.0500488,0.00228882,0.174469,-55.95,88.7833,-93.5417,-1771,-29534
570,874315,-0.205762,-0.961816,9.73301,-5.60303,1.25793,20.061,0.244141,0.12207,0.183105,0.983337,-0.0500488,0.00228882,0.174469,-55.95,88.8167,-93.5833,-1771,-29534
576,874321,-0.224902,-0.961816,9.71865,-5.60303,1.25793,20.061,0.0610352,0.12207,-0.0610352,0.983337,-0.0500183,0.00228882,0.174469,-55.9583,88.8333,-93.6167,-1771,-29534
582,874327,-0.220117,-0.947461,9.78086,-5.60303,1.25793,20.061,-0.0610352,-0.0610352,0,0.983337,-0.0500488,0.00228882,0.1745,-55.975,88.7917,-93.6167,-1771,-29534
588,874333,-0.210547,-0.957031,9.78564,-5.60303,1.25793,20.061,-0.0610352,0.12207,0.12207,0.983337,-0.0500488,0.00228882,0.1745,-55.9667,88.775,-93.575,-1771,-29534
594,874339,-0.196191,-0.961816,9.73301,-5.60303,1.26343,20.061,-0.244141,0.305176,-0.12207,0.983337,-0.0500488,0.00228882,0.1745,-55.9333,88.75,-93.5167,-1771,-29534
600,874345,-0.234473,-0.971387,9.78564,-5.60303,1.26343,20.061,0,0.305176,0.244141,0.983337,-0.0500488,0.00231934,0.174469,-55.9083,88.725,-93.4667,-1771,-29534
606,874351,-0.210547,-0.961816,9.73301,-5.60303,1.26343,20.061,-0.0610352,0.183105,-0.305176,0.983337,-0.0500488,0.00231934,0.174469,-55.9,88.7083,-93.425,-1771,-29534
612,874357,-0.224902,-0.966602,9.79521,-5.60852,1.26343,20.061,-0.244141,0.0610352,0.0610352,0.983337,-0.0500793,0.00231934,0.174469,-55.9167,88.725,-93.4417,-1771,-29534
618,874363,-0.224902,-0.980957,9.75215,-5.60852,1.26343,20.061,-0.0610352,-0.0610352,0.244141,0.983337,-0.0500793,0.00234985,0.1745,-55.9333,88.7333,-93.475,-1771,-29534
624,874369,-0.224902,-0.980957,9.7665,-5.60852,1.26343,20.061,0.0610352,-0.0610352,0,0.983337,-0.0500793,0.00231934,0.1745,-55.9333,88.7417,-93.5333,-1771,-29534
630,874375,-0.220117,-0.952246,9.74258,-5.60852,1.26343,20.061,0.12207,-0.183105,0.0610352,0.983337,-0.0500793,0.00231934,0.1745,-55.9417,88.7583,-93.55,-1771,-29534
636,874381,-0.215332,-0.957031,9.79043,-5.60852,1.26343,20.061,0.0610352,-0.12207,-0.12207,0.983337,-0.0500793,0.00231934,0.1745,-55.925,88.7667,-93.575,-1771,-29534
642,874387,-0.196191,-0.952246,9.71865,-5.60303,1.26343,20.061,0.366211,-0.0610352,0.305176,0.983337,-0.0500793,0.00231934,0.1745,-55.925,88.7917,-93.575,-1771,-29534
648,874393,-0.181836,-0.976172,9.75693,-5.60303,1.26343,20.061,0.244141,0,0,0.983337,-0.0500488,0.00231934,0.1745,-55.9333,88.8,-93.5667,-1771,-29534
654,874399,-0.196191,-0.942676,9.7665,-5.60303,1.26343,20.061,0.12207,0.0610352,0.0610352,0.983337,-0.0500488,0.00231934,0.1745,-55.925,88.8,-93.5833,-1771,-29534
660,874405,-0.210547,-0.937891,9.7665,-5.60303,1.26343,20.061,0.12207,0.244141,0.0610352,0.983337,-0.0500488,0.00231934,0.1745,-55.9167,88.8083,-93.5833,-1771,-29534
666,874411,-0.205762,-0.942676,9.73301,-5.60303,1.26343,20.061,-0.0610352,0.244141,0,0.983337,-0.0500488,0.00234985,0.1745,-55.925,88.8083,-93.5583,-1771,-29534
672,874417,-0.205762,-0.957031,9.88135,-5.60303,1.26343,20.061,-0.0610352,0.244141,-0.244141,0.983337,-0.0500488,0.00234985,0.17453,-55.8917,88.8,-93.4667,-1771,-29534
678,874423,-0.200977,-0.933105,9.68037,-5.60303,1.26892,20.0665,0.12207,0.305176,0.427246,0.983337,-0.0500488,0.00234985,0.1745,-55.8917,88.7833,-93.4,-1771,-29534
684,874429,-0.220117,-0.933105,9.52725,-5.60303,1.26892,20.0665,-0.0610352,0.183105,-0.244141,0.983337,-0.0500488,0.00238037,0.17453,-55.8667,88.7583,-93.3583,-1771,-29534
690,874435,-0.200977,-0.961816,10.0345,-5.60303,1.26892,20.0665,0.0610352,-0.12207,0.0610352,0.983337,-0.0500488,0.00238037,0.1745,-55.8417,88.725,-93.3333,-1771,-29534
696,874441,-0.200977,-0.942676,9.58467,-5.60303,1.26892,20.0665,0.0610352,0.0610352,-0.0610352,0.983337,-0.0500488,0.00238037,0.1745,-55.825,88.7167,-93.3083,-1771,-29534
702,874447,-0.224902,-0.971387,9.95313,-5.60303,1.26892,20.061,-0.0610352,0.0610352,-0.0610352,0.983337,-0.0500488,0.00238037,0.17453,-55.7917,88.7,-93.3,-1771,-29534
708,874453,-0.210547,-0.942676,9.68037,-5.60303,1.26892,20.0665,-0.183105,0.12207,0.0610352,0.983337,-0.0500488,0.00238037,0.1745,-55.7917,88.7083,-93.25,-1771,-29534
714,874459,-0.191406,-0.961816,9.66123,-5.60303,1.26892,20.061,-0.305176,-0.0610352,-0.0610352,0.983337,-0.0500488,0.00238037,0.17453,-55.7833,88.7083,-93.2083,-1771,-29534
720,874465,-0.215332,-0.966602,9.90527,-5.60303,1.26892,20.061,-0.183105,-0.0610352,-0.183105,0.983337,-0.0500793,0.00238037,0.1745,-55.7917,88.7083,-93.175,-1771,-29534
726,874471,-0.239258,-0.952246,9.67559,-5.60303,1.26892,20.061,-0.0610352,-0.305176,0,0.983337,-0.0500793,0.00234985,0.1745,-55.8,88.7167,-93.15,-1771,-29534
732,874477,-0.224902,-0.980957,9.87178,-5.60852,1.26343,20.061,-0.183105,-0.0610352,0.0610352,0.983337,-0.0500793,0.00234985,0.1745,-55.8667,88.7083,-93.1833,-1771,-29534
738,874483,-0.210547,-0.961816,9.72822,-5.60852,1.26343,20.061,0.183105,-0.183105,0.0610352,0.983337,-0.0500793,0.00234985,0.1745,-55.8833,88.7083,-93.2083,-1771,-29534
744,874489,-0.229688,-0.957031,9.73779,-5.60303,1.26343,20.061,0.183105,-0.244141,0.0610352,0.983337,-0.0500793,0.00234985,0.1745,-55.9083,88.7083,-93.2167,-1771,-29534
750,874495,-0.200977,-0.961816,9.87178,-5.60303,1.26343,20.0665,0.0610352,-0.244141,0.0610352,0.983337,-0.0500793,0.00231934,0.1745,-55.9333,88.7167,-93.2167,-1771,-29534
756,874501,-0.191406,-0.947461,9.6708,-5.60303,1.26343,20.0665,0,-0.244141,-0.0610352,0.983337,-0.0500488,0.00231934,0.17453,-55.9667,88.725,-93.225,-1771,-29534
762,874507,-0.215332,-0.942676,9.8335,-5.60303,1.25793,20.0665,0,0,0,0.983337,-0.0500488,0.00231934,0.17453,-56.0167,88.7667,-93.2083,-1771,-29534
768,874513,-0.181836,-0.957031,9.74736,-5.60303,1.26343,20.0665,0.12207,0.366211,-0.12207,0.983337,-0.0500488,0.00231934,0.17453,-56.025,88.775,-93.2083,-1771,-29534
774,874519,-0.220117,-0.937891,9.68994,-5.60303,1.26343,20.061,-0.0610352,0.305176,-0.0610352,0.983337,-0.0500488,0.00231934,0.1745,-56.0167,88.7833,-93.1833,-1771,-29534
780,874525,-0.215332,-0.966602,9.80479,-5.60303,1.26343,20.0665,0.12207,0.183105,0.12207,0.983337,-0.0500488,0.00231934,0.1745,-56.0083,88.8,-93.1667,-1771,-29534
786,874531,-0.215332,-0.957031,9.77129,-5.60303,1.26343,20.061,0,0.183105,-0.0610352,0.983337,-0.0500488,0.00234985,0.1745,-56.0083,88.8167,-93.2083,-1771,-29534
792,874537,-0.215332,-0.971387,9.78086,-5.60303,1.26892,20.061,0.0610352,0.183105,0.0610352,0.983337,-0.0500488,0.00234985,0.1745,-56.0417,88.8583,-93.2667,-1771,-29534
798,874543,-0.210547,-0.961816,9.78564,-5.60303,1.26892,20.061,0.0610352,0.12207,0.12207,0.983337,-0.0500488,0.00238037,0.1745,-56.075,88.8583,-93.2917,-1771,-29534
804,874549,-0.229688,-0.961816,9.73779,-5.60303,1.26892,20.061,0.12207,0,0,0.983337,-0.0500488,0.00238037,0.1745,-56.1,88.8667,-93.2917,-1771,-29534
810,874555,-0.220117,-0.952246,9.77129,-5.60303,1.26892,20.061,0,0.12207,-0.12207,0.983337,-0.0500488,0.00238037,0.1745,-56.1333,88.8583,-93.275,-1771,-29534
816,874561,-0.224902,-0.942676,9.7665,-5.60303,1.26892,20.061,-0.0610352,0.0610352,0.244141,0.983337,-0.0500488,0.00238037,0.1745,-56.1583,88.8667,-93.2583,-1771,-29534
822,874567,-0.220117,-0.966602,9.7665,-5.60303,1.26892,20.061,0,-0.0610352,-0.0610352,0.983337,-0.0500488,0.00238037,0.1745,-56.15,88.875,-93.2667,-1771,-29534
828,874573,-0.229688,-0.966602,9.71865,-5.60303,1.26892,20.061,-0.0610352,0,0,0.983337,-0.0500488,0.00238037,0.1745,-56.1083,88.8917,-93.2583,-1771,-29534
834,874579,-0.220117,-0.947461,9.7665,-5.60303,1.26892,20.061,-0.12207,0,-0.183105,0.983337,-0.0500488,0.00238037,0.1745,-56.0667,88.9083,-93.25,-1771,-29534
840,874585,-0.205762,-0.952246,9.74736,-5.60303,1.26892,20.061,0,-0.12207,0,0.983337,-0.0500488,0.00238037,0.1745,-56.0167,88.9333,-93.2417,-1771,-29534
846,874591,-0.220117,-0.952246,9.73779,-5.60303,1.26892,20.061,-0.0610352,-0.12207,-0.366211,0.983337,-0.0500793,0.00238037,0.1745,-55.9667,88.9417,-93.2417,-1771,-29534
852,874597,-0.191406,-0.966602,9.76172,-5.60303,1.26343,20.061,-0.12207,-0.183105,0,0.983337,-0.0500793,0.00234985,0.174469,-55.9333,88.925,-93.2583,-1771,-29534
858,874603,-0.224902,-0.971387,9.77129,-5.60303,1.26343,20.061,-0.0610352,-0.244141,0,0.983337,-0.0500793,0.00234985,0.174469,-55.9417,88.9083,-93.2667,-1771,-29534
864,874609,-0.191406,-0.957031,9.78086,-5.60852,1.26343,20.061,-0.0610352,-0.244141,-0.244141,0.983337,-0.0500793,0.00234985,0.174469,-55.95,88.8917,-93.25,-1771,-29534
870,874615,-0.200977,-0.947461,9.75215,-5.60303,1.26343,20.061,0.12207,-0.183105,0,0.983337,-0.0500793,0.00231934,0.174469,-55.95,88.9083,-93.25,-1771,-29534
876,874621,-0.210547,-0.966602,9.78086,-5.60303,1.26343,20.061,0.0610352,-0.12207,-0.0610352,0.983337,-0.0500793,0.00231934,0.174469,-55.9583,88.925,-93.2583,-1771,-29534
882,874627,-0.196191,-0.947461,9.75215,-5.60303,1.26343,20.061,0.183105,0,0,0.983337,-0.0500793,0.00231934,0.174469,-55.9417,88.925,-93.3667,-1771,-29534
888,874633,-0.196191,-0.966602,9.74258,-5.60303,1.26343,20.061,0.305176,0,0.244141,0.983337,-0.0500488,0.00231934,0.174469,-55.95,88.925,-93.375,-1771,-29534
894,874639,-0.200977,-0.976172,9.79521,-5.60303,1.26343,20.061,0.305176,0.183105,0.183105,0.983337,-0.0500488,0.00231934,0.174469,-55.9583,88.9167,-93.4083,-1771,-29534
900,874645,-0.220117,-0.957031,9.77129,-5.60303,1.26343,20.061,0.12207,0.183105,-0.183105,0.983337,-0.0500488,0.00231934,0.1745,-55.9583,88.9083,-93.4167,-1771,-29534
906,874651,-0.220117,-0.947461,9.74258,-5.59753,1.26343,20.061,0.183105,0.427246,0,0.983337,-0.0500183,0.00234985,0.174469,-55.95,88.8917,-93.4167,-1771,-29534
912,874657,-0.205762,-0.957031,9.72344,-5.59753,1.26892,20.061,0.12207,0.366211,0.0610352,0.983337,-0.0500183,0.00234985,0.174469,-55.925,88.85,-93.4083,-1771,-29534
918,874663,-0.229688,-0.937891,9.74258,-5.59753,1.26892,20.061,0.0610352,0.305176,0.0610352,0.983337,-0.0500183,0.00238037,0.174469,-55.925,88.8333,-93.4,-1771,-29534
924,874669,-0.224902,-0.937891,9.73301,-5.59753,1.26892,20.061,0.0610352,0.366211,0.0610352,0.983337,-0.0500183,0.00238037,0.1745,-55.9167,88.8167,-93.375,-1771,-29534
930,874675,-0.220117,-0.966602,9.72822,-5.59753,1.27441,20.061,-0.0610352,0.244141,0,0.983337,-0.0500183,0.00241089,0.1745,-55.9,88.7917,-93.3417,-1771,-29534
936,874681,-0.229688,-0.971387,9.73301,-5.59753,1.27441,20.061,-0.12207,0.12207,0.12207,0.983337,-0.0500488,0.00241089,0.1745,-55.9,88.775,-93.3083,-1771,-29534
942,874687,-0.210547,-0.971387,9.72822,-5.60303,1.27441,20.061,-0.12207,0,-0.0610352,0.983337,-0.0500488,0.00244141,0.1745,-55.9167,88.7667,-93.2,-1771,-29534
948,874693,-0.229688,-0.971387,9.73301,-5.60303,1.27441,20.061,-0.0610352,-0.183105,0,0.983337,-0.0500488,0.00244141,0.1745,-55.925,88.7833,-93.1917,-1771,-29534
954,874699,-0.224902,-0.976172,9.7665,-5.60303,1.27441,20.061,0,-0.244141,0.0610352,0.983337,-0.0500488,0.00241089,0.1745,-55.9167,88.7833,-93.175,-1771,-29534
960,874705,-0.224902,-0.957031,9.76172,-5.60303,1.26892,20.061,-0.0610352,-0.305176,0.0610352,0.983337,-0.0500488,0.00241089,0.1745,-55.8917,88.775,-93.2,-1771,-29534
966,874711,-0.220117,-0.942676,9.7665,-5.60303,1.26343,20.061,0.0610352,-0.488281,0,0.983337,-0.0500488,0.00238037,0.1745,-55.8667,88.7667,-93.2167,-1771,-29534
972,874717,-0.220117,-0.947461,9.72822,-5.60303,1.26343,20.061,0,-0.427246,0,0.983337,-0.0500488,0.00234985,0.1745,-55.8583,88.725,-93.1917,-1771,-29534
978,874723,-0.186621,-0.947461,9.77129,-5.60303,1.25793,20.061,-0.0610352,-0.549316,-0.244141,0.983337,-0.0500488,0.00231934,0.1745,-55.8583,88.7167,-93.2083,-1771,-29534
984,874729,-0.196191,-0.966602,9.75693,-5.60303,1.25793,20.061,0.0610352,-0.366211,0,0.983337,-0.0500488,0.00231934,0.1745,-55.8583,88.7083,-93.1917,-1771,-29534
990,874735,-0.205762,-0.942676,9.74736,-5.60303,1.25793,20.061,-0.244141,-0.427246,0.0610352,0.983337,-0.0500488,0.00228882,0.1745,-55.825,88.6917,-93.175,-1771,-29534
996,874741,-0.196191,-0.92832,9.77129,-5.60303,1.25793,20.061,-0.0610352,-0.0610352,-0.12207,0.983337,-0.0500488,0.0022583,0.1745,-55.8167,88.675,-93.175,-1771,-29534
1002,874747,-0.196191,-0.961816,9.7665,-5.60303,1.25793,20.061,-0.12207,0,0,0.983337,-0.0500488,0.0022583,0.1745,-55.8333,88.6833,-93.1167,-1771,-29534
1008,874753,-0.210547,-0.966602,9.73301,-5.60303,1.25793,20.061,0,0.305176,0,0.983337,-0.0500488,0.0022583,0.1745,-55.8583,88.7083,-93.1167,-1771,-29534
1014,874759,-0.220117,-0.947461,9.79043,-5.60303,1.25793,20.061,-0.183105,0.183105,-0.0610352,0.983337,-0.0500488,0.00228882,0.1745,-55.875,88.725,-93.1167,-1771,-29534
1020,874765,-0.205762,-0.957031,9.75693,-5.60303,1.25793,20.061,0,0.244141,0.0610352,0.983337,-0.0500793,0.00228882,0.1745,-55.8833,88.725,-93.1333,-1771,-29534
1026,874771,-0.220117,-0.952246,9.77129,-5.60303,1.26343,20.061,0.12207,0.183105,0.12207,0.983337,-0.0500793,0.00231934,0.1745,-55.875,88.7333,-93.2,-1771,-29534
1032,874777,-0.248828,-0.961816,9.77129,-5.60303,1.26343,20.061,0.12207,0.366211,0,0.983337,-0.0500793,0.00231934,0.1745,-55.85,88.7333,-93.2917,-1771,-29534
1038,874783,-0.220117,-0.961816,9.7665,-5.60303,1.26343,20.061,0,0.12207,0.0610352,0.983337,-0.0500488,0.00234985,0.1745,-55.8333,88.75,-93.3,-1771,-29534
1044,874789,-0.229688,-0.971387,9.73301,-5.60303,1.26343,20.061,0.244141,0.244141,0,0.983337,-0.0500488,0.00234985,0.1745,-55.825,88.7583,-93.2833,-1771,-29534
1050,874795,-0.229688,-0.952246,9.74736,-5.60303,1.26892,20.061,0.183105,0.12207,0,0.983337,-0.0500488,0.00234985,0.1745,-55.8167,88.7583,-93.2333,-1771,-29534
1056,874801,-0.234473,-0.92832,9.7665,-5.60303,1.26892,20.061,0.12207,0,0.0610352,0.983337,-0.0500488,0.00234985,0.1745,-55.8083,88.775,-93.1917,-1771,-29534
1062,874807,-0.248828,-0.952246,9.74258,-5.60303,1.26892,20.061,0.0610352,0,-0.183105,0.983337,-0.0500488,0.00234985,0.1745,-55.775,88.7917,-93.2,-1771,-29534
1068,874813,-0.224902,-0.942676,9.73779,-5.59753,1.26343,20.061,0.305176,-0.305176,0.0610352,0.983337,-0.0500488,0.00238037,0.1745,-55.75,88.8167,-93.225,-1771,-29534
1074,874819,-0.220117,-0.971387,9.77129,-5.59753,1.26343,20.061,0,0,0.183105,0.983337,-0.0500183,0.00234985,0.1745,-55.7417,88.825,-93.2667,-1771,-29534
1080,874825,-0.224902,-0.937891,9.79043,-5.59753,1.26343,20.061,0,-0.244141,0,0.983337,-0.0500183,0.00234985,0.1745,-55.725,88.8333,-93.3083,-1771,-29534
1086,874831,-0.224902,-0.92832,9.76172,-5.59753,1.26343,20.061,0,-0.305176,0.0610352,0.983337,-0.0500183,0.00234985,0.1745,-55.7167,88.8583,-93.4,-1771,-29534
1092,874837,-0.181836,-0.933105,9.73779,-5.59753,1.26343,20.061,0,-0.305176,-0.244141,0.983337,-0.0500183,0.00231934,0.1745,-55.7083,88.8583,-93.4083,-1771,-29534
1098,874843,-0.205762,-0.942676,9.77129,-5.59753,1.25793,20.061,-0.183105,-0.12207,-0.0610352,0.983337,-0.0500183,0.00231934,0.1745,-55.7167,88.8583,-93.3667,-1771,-29534
1104,874849,-0.200977,-0.937891,9.77607,-5.60303,1.25793,20.061,-0.366211,-0.244141,0.0610352,0.983337,-0.0500183,0.00231934,0.1745,-55.7167,88.85,-93.3417,-1771,-29534
1110,874855,-0.200977,-0.942676,9.7665,-5.60303,1.25793,20.061,-0.366211,0,0.0610352,0.983337,-0.0500488,0.00228882,0.1745,-55.7333,88.8333,-93.2833,-1771,-29534
1116,874861,-0.196191,-0.976172,9.76172,-5.60852,1.25793,20.061,-0.244141,-0.0610352,0,0.983337,-0.0500488,0.00228882,0.1745,-55.7667,88.8167,-93.2583,-1771,-29534
1122,874867,-0.215332,-0.933105,9.73779,-5.60852,1.25793,20.061,-0.0610352,0,0.0610352,0.983337,-0.0500793,0.00228882,0.1745,-55.8667,88.8,-93.2333,-1771,-29534
1128,874873,-0.229688,-0.966602,9.75693,-5.60852,1.25793,20.061,-0.0610352,0.183105,0.0610352,0.983337,-0.0500793,0.00228882,0.1745,-55.8833,88.8,-93.2917,-1771,-29534
1134,874879,-0.229688,-0.976172,9.7665,-5.60852,1.26343,20.061,0,0.244141,0.0610352,0.983337,-0.0500793,0.00228882,0.1745,-55.8667,88.8,-93.3167,-1771,-29534
1140,874885,-0.200977,-0.976172,9.7665,-5.60303,1.26343,20.0665,0.183105,0.183105,0.0610352,0.983337,-0.0500793,0.00231934,0.1745,-55.8417,88.8,-93.3417,-1771,-29534
1146,874891,-0.229688,-0.976172,9.78086,-5.60303,1.26343,20.0665,0.366211,0.183105,0.0610352,0.983337,-0.0500793,0.00231934,0.17453,-55.8,88.7833,-93.4167,-1771,-29534
1152,874897,-0.210547,-0.961816,9.74736,-5.60303,1.26343,20.0665,0.244141,0.12207,0,0.983337,-0.0500488,0.00234985,0.17453,-55.7917,88.7667,-93.4583,-1771,-29534
1158,874903,-0.210547,-0.957031,9.76172,-5.59753,1.26343,20.0665,0.305176,0.0610352,0.12207,0.983337,-0.0500488,0.00234985,0.17453,-55.775,88.75,-93.5167,-1771,-29534
1164,874909,-0.200977,-0.952246,9.75215,-5.59753,1.26343,20.0665,0.244141,0.12207,0.12207,0.983337,-0.0500183,0.00234985,0.17453,-55.7417,88.725,-93.5583,-1771,-29534
1170,874915,-0.210547,-0.966602,9.8,-5.59753,1.26343,20.0665,0.305176,0.0610352,0,0.983337,-0.0500183,0.00234985,0.17453,-55.725,88.6917,-93.5667,-1771,-29534
1176,874921,-0.210547,-0.937891,9.71865,-5.59753,1.26892,20.0665,0.0610352,0.0610352,-0.12207,0.983337,-0.0500183,0.00234985,0.17453,-55.7333,88.65,-93.5583,-1771,-29534
1182,874927,-0.210547,-0.933105,9.76172,-5.59753,1.26892,20.0665,0,0.244141,-0.0610352,0.983337,-0.0500183,0.00238037,0.17453,-55.7583,88.6333,-93.5333,-1771,-29534
1188,874933,-0.196191,-0.966602,9.77607,-5.59753,1.26892,20.0665,-0.0610352,0.12207,0.12207,0.983337,-0.0500183,0.00238037,0.17453,-55.7833,88.6333,-93.5083,-1771,-29534
1194,874939,-0.215332,-0.952246,9.77129,-5.59753,1.26892,20.0665,0,0.12207,0,0.983337,-0.0500183,0.00238037,0.17453,-55.8083,88.6333,-93.4917,-1771,-29534
1200,874945,-0.210547,-0.942676,9.75693,-5.59753,1.26892,20.0665,-0.12207,0,0.244141,0.983337,-0.0500183,0.00238037,0.17453,-55.8333,88.625,-93.4583,-1771,-29534
1206,874951,-0.200977,-0.933105,9.77607,-5.59753,1.26892,20.0665,-0.183105,-0.244141,0,0.983337,-0.0500183,0.00238037,0.17453,-55.9,88.6167,-93.45,-1771,-29534
1212,874957,-0.200977,-0.957031,9.76172,-5.59753,1.26892,20.0665,-0.183105,0,0,0.983337,-0.0500183,0.00238037,0.17453,-55.8917,88.6083,-93.45,-1771,-29534
1218,874963,-0.200977,-0.966602,9.78086,-5.59753,1.26892,20.0665,0,-0.0610352,0,0.983337,-0.0500183,0.00238037,0.17453,-55.8917,88.6167,-93.475,-1771,-29534
1224,874969,-0.215332,-0.957031,9.76172,-5.59753,1.26343,20.061,-0.0610352,-0.183105,-0.244141,0.983337,-0.0500183,0.00234985,0.17453,-55.875,88.6,-93.4833,-1771,-29534
1230,874975,-0.210547,-0.966602,9.75693,-5.60303,1.26343,20.061,-0.244141,-0.244141,-0.183105,0.983337,-0.0500488,0.00234985,0.1745,-55.8667,88.5917,-93.4667,-1771,-29534
1236,874981,-0.205762,-0.961816,9.76172,-5.60303,1.26343,20.061,-0.12207,0,0.0610352,0.983337,-0.0500488,0.00234985,0.1745,-55.9083,88.5917,-93.4417,-1771,-29534
1242,874987,-0.210547,-0.971387,9.78564,-5.60303,1.26343,20.061,-0.12207,-0.12207,0.0610352,0.983337,-0.0500488,0.00234985,0.1745,-55.95,88.5917,-93.4167,-1771,-29534
1248,874993,-0.220117,-0.966602,9.74258,-5.60303,1.26343,20.061,-0.12207,-0.12207,0,0.983337,-0.0500488,0.00231934,0.1745,-55.9917,88.6083,-93.4083,-1771,-29534
1254,874999,-0.210547,-0.966602,9.73779,-5.60303,1.26343,20.061,-0.0610352,-0.0610352,-0.366211,0.983337,-0.0500488,0.00231934,0.1745,-56.025,88.6083,-93.4,-1771,-29534
1260,875005,-0.205762,-0.995313,9.75693,-5.60303,1.26343,20.061,0,-0.0610352,0.183105,0.983337,-0.0500793,0.00231934,0.1745,-56.05,88.625,-93.3833,-1771,-29534
1266,875011,-0.224902,-0.976172,9.7665,-5.60303,1.26343,20.061,-0.0610352,0.0610352,0,0.983337,-0.0500793,0.00231934,0.1745,-56.05,88.6167,-93.3833,-1771,-29534
1272,875017,-0.200977,-0.976172,9.73301,-5.60303,1.26343,20.061,0.183105,0.183105,0.0610352,0.983337,-0.0500793,0.00231934,0.1745,-56.0583,88.6083,-93.375,-1771,-29534
1278,875023,-0.205762,-0.961816,9.74258,-5.60303,1.26343,20.061,0.12207,0.183105,0.244141,0.983337,-0.0500793,0.00231934,0.1745,-56.0583,88.6083,-93.375,-1771,-29534
1284,875029,-0.215332,-0.966602,9.76172,-5.60303,1.26343,20.061,0.183105,0.305176,-0.0610352,0.983337,-0.0500488,0.00234985,0.1745,-56.0667,88.625,-93.3583,-1771,-29534
1290,875035,-0.205762,-0.952246,9.7665,-5.60303,1.26892,20.061,0.12207,0.12207,0.0610352,0.983337,-0.0500488,0.00234985,0.1745,-56.0667,88.6583,-93.325,-1771,-29534
1296,875041,-0.224902,-0.937891,9.78086,-5.60303,1.26892,20.0665,0.12207,0.12207,0.0610352,0.983337,-0.0500488,0.00238037,0.17453,-56.0167,88.6167,-93.2167,-1771,-29534
1302,875047,-0.191406,-0.942676,9.74736,-5.60303,1.26892,20.0665,0.183105,0.0610352,0.0610352,0.983337,-0.0500488,0.00238037,0.17453,-55.9833,88.5667,-93.1917,-1771,-29534
1308,875053,-0.215332,-0.947461,9.75693,-5.59753,1.26892,20.061,0.183105,0.183105,-0.183105,0.983337,-0.0500488,0.00238037,0.17453,-55.9583,88.525,-93.1667,-1771,-29534
1314,875059,-0.215332,-0.947461,9.7665,-5.60303,1.26892,20.061,-0.183105,0.12207,0,0.983337,-0.0500488,0.00238037,0.1745,-55.9417,88.4917,-93.1917,-1771,-29534
1320,875065,-0.215332,-0.952246,9.73779,-5.59753,1.26892,20.0665,0.0610352,0.0610352,0.12207,0.983337,-0.0500488,0.00238037,0.17453,-55.9083,88.475,-93.2,-1771,-29534
1326,875071,-0.224902,-0.961816,9.76172,-5.60303,1.26892,20.0665,-0.12207,-0.12207,0,0.983337,-0.0500488,0.00241089,0.17453,-55.9167,88.5167,-93.2333,-1771,-29534
1332,875077,-0.181836,-0.952246,9.78086,-5.60303,1.26892,20.0665,0,0,0.0610352,0.983337,-0.0500488,0.00238037,0.17453,-55.9,88.525,-93.225,-1771,-29534
1338,875083,-0.224902,-0.947461,9.76172,-5.60303,1.26892,20.0665,-0.183105,0,0.12207,0.983337,-0.0500488,0.00238037,0.17453,-55.9,88.5417,-93.2333,-1771,-29534
1344,875089,-0.215332,-0.957031,9.74736,-5.60303,1.26892,20.0665,-0.0610352,-0.183105,0,0.983337,-0.0500488,0.00238037,0.17453,-55.8917,88.55,-93.2417,-1771,-29534
1350,875095,-0.215332,-0.947461,9.73779,-5.60303,1.26892,20.0665,-0.0610352,-0.0610352,0,0.983337,-0.0500488,0.00238037,0.17453,-55.8583,88.55,-93.225,-1771,-29534
1356,875101,-0.224902,-0.952246,9.74258,-5.60303,1.26892,20.0665,-0.0610352,-0.183105,0,0.983337,-0.0500793,0.00238037,0.17453,-55.8,88.5583,-93.25,-1771,-29534
1362,875107,-0.200977,-0.971387,9.74736,-5.60303,1.26343,20.0665,-0.0610352,-0.12207,0.12207,0.983337,-0.0500793,0.00234985,0.17453,-55.7667,88.5667,-93.2417,-1771,-29534
1368,875113,-0.205762,-0.976172,9.76172,-5.60303,1.26343,20.0665,-0.0610352,-0.183105,-0.12207,0.983337,-0.0500793,0.00234985,0.17453,-55.75,88.5833,-93.2333,-1771,-29534
1374,875119,-0.215332,-0.976172,9.76172,-5.60303,1.26343,20.0665,0,0,0.12207,0.983337,-0.0500793,0.00234985,0.17453,-55.725,88.6,-93.225,-1771,-29534
1380,875125,-0.220117,-0.937891,9.74736,-5.60303,1.26343,20.0665,0.0610352,-0.244141,-0.0610352,0.983337,-0.0500793,0.00234985,0.17453,-55.7,88.6167,-93.225,-1771,-29534
1386,875131,-0.224902,-0.947461,9.76172,-5.60303,1.26343,20.0665,0.12207,0,-0.0610352,0.983337,-0.0500793,0.00234985,0.17453,-55.6667,88.6833,-93.25,-1771,-29534
1392,875137,-0.200977,-0.980957,9.75693,-5.60303,1.26343,20.0665,0.244141,-0.183105,0.12207,0.983337,-0.0500488,0.00234985,0.17453,-55.6417,88.7,-93.2667,-1771,-29534
1398,875143,-0.210547,-0.952246,9.75693,-5.60303,1.26343,20.0665,0,0,-0.183105,0.983337,-0.0500488,0.00231934,0.17453,-55.6167,88.725,-93.3,-1771,-29534
1404,875149,-0.196191,-0.961816,9.7665,-5.60303,1.26343,20.0665,0,0.183105,0.0610352,0.983337,-0.0500488,0.00231934,0.17453,-55.5833,88.7333,-93.2917,-1771,-29534
1410,875155,-0.224902,-0.961816,9.76172,-5.60303,1.26343,20.0665,0.12207,0.244141,-0.0610352,0.983337,-0.0500488,0.00234985,0.17453,-55.5417,88.75,-93.2833,-1771,-29534
1416,875161,-0.200977,-0.947461,9.74258,-5.60303,1.26892,20.0665,0,0.244141,0,0.983337,-0.0500488,0.00234985,0.17453,-55.475,88.7333,-93.1833,-1771,-29534
1422,875167,-0.181836,-0.937891,9.77607,-5.60303,1.26892,20.0665,0.12207,0,0.0610352,0.983337,-0.0500488,0.00234985,0.17453,-55.475,88.7333,-93.1167,-1771,-29534
1428,875173,-0.239258,-0.952246,9.76172,-5.60303,1.26892,20.0665,0.0610352,0.12207,0,0.983337,-0.0500488,0.00234985,0.17453,-55.475,88.7167,-93.0333,-1771,-29534
1434,875179,-0.200977,-0.966602,9.76172,-5.60303,1.26892,20.0665,-0.0610352,0.12207,-0.183105,0.983337,-0.0500488,0.00234985,0.17453,-55.5,88.7083,-92.9417,-1771,-29534
1440,875185,-0.196191,-0.942676,9.7665,-5.60303,1.26892,20.0665,0,0.244141,0,0.983337,-0.0500488,0.00238037,0.17453,-55.5167,88.7,-92.8667,-1771,-29534
1446,875191,-0.220117,-0.957031,9.78086,-5.60303,1.26892,20.0665,0.0610352,0.12207,0.12207,0.983337,-0.0500488,0.00238037,0.17453,-55.5,88.6583,-92.7167,-1771,-29534
1452,875197,-0.196191,-0.947461,9.76172,-5.60303,1.26892,20.0665,-0.0610352,0.12207,0,0.983337,-0.0500488,0.00238037,0.17453,-55.5,88.6583,-92.6917,-1771,-29534
1458,875203,-0.234473,-0.961816,9.77129,-5.60303,1.26892,20.0665,0,-0.244141,0.183105,0.983337,-0.0500488,0.00238037,0.17453,-55.4917,88.6667,-92.675,-1771,-29534
1464,875209,-0.224902,-0.947461,9.7665,-5.60303,1.26892,20.0665,0.0610352,0,0.0610352,0.983337,-0.0500488,0.00238037,0.17453,-55.4833,88.6833,-92.6667,-1771,-29534
1470,875215,-0.191406,-0.966602,9.77129,-5.60303,1.26892,20.0665,0,-0.0610352,0,0.983337,-0.0500488,0.00238037,0.17453,-55.4833,88.7083,-92.625,-1771,-29534
1476,875221,-0.196191,-0.952246,9.73301,-5.60303,1.26892,20.0665,-0.0610352,0,-0.12207,0.983337,-0.0500488,0.00238037,0.17453,-55.4667,88.75,-92.5667,-1771,-29534
1482,875227,-0.220117,-0.947461,9.76172,-5.60303,1.26892,20.0665,-0.0610352,-0.183105,0.12207,0.983337,-0.0500488,0.00238037,0.17453,-55.4417,88.775,-92.5417,-1771,-29534
1488,875233,-0.224902,-0.957031,9.74736,-5.60303,1.26892,20.0665,-0.0610352,0,-0.0610352,0.983337,-0.0500488,0.00238037,0.17453,-55.425,88.7833,-92.5917,-1771,-29534
1494,875239,-0.210547,-0.961816,9.78086,-5.60303,1.26892,20.0665,-0.12207,0,0.0610352,0.983337,-0.0500488,0.00234985,0.17453,-55.4083,88.8,-92.6333,-1771,-29534
1500,875245,-0.205762,-0.961816,9.74258,-5.60303,1.26892,20.0665,-0.0610352,0,0.12207,0.983337,-0.0500488,0.00234985,0.174561,-55.3833,88.7917,-92.6667,-1771,-29534
1506,875251,-0.253613,-0.942676,9.73301,-5.60303,1.26343,20.0665,0,-0.244141,-0.12207,0.983337,-0.0500488,0.00234985,0.17453,-55.35,88.7833,-92.75,-1771,-29534
1512,875257,-0.186621,-0.971387,9.75215,-5.60303,1.26343,20.0665,0,0,0.183105,0.983337,-0.0500488,0.00234985,0.17453,-55.325,88.7917,-92.7333,-1771,-29534
1518,875263,-0.224902,-0.937891,9.73301,-5.60303,1.26343,20.0665,0.183105,0,-0.12207,0.983337,-0.0500488,0.00234985,0.17453,-55.2917,88.8167,-92.6917,-1771,-29534
1524,875269,-0.186621,-0.952246,9.75693,-5.60303,1.26343,20.0665,0,0,-0.0610352,0.983337,-0.0500488,0.00234985,0.17453,-55.25,88.8333,-92.6417,-1771,-29534
1530,875275,-0.191406,-0.952246,9.73301,-5.60303,1.26343,20.0665,0.12207,0.183105,0.0610352,0.983337,-0.0500488,0.00234985,0.17453,-55.2333,88.8333,-92.5667,-1771,-29534
1536,875281,-0.200977,-0.952246,9.75215,-5.59753,1.26343,20.0665,0.12207,0.0610352,0.244141,0.983337,-0.0500183,0.00234985,0.17453,-55.1667,88.8417,-92.5333,-1771,-29534
1542,875287,-0.224902,-0.942676,9.74258,-5.59753,1.26892,20.0665,0,0.12207,-0.244141,0.983337,-0.0500183,0.00234985,0.174561,-55.1417,88.8583,-92.55,-1771,-29534
1548,875293,-0.224902,-0.971387,9.76172,-5.59753,1.26892,20.0665,0.0610352,0.305176,-0.0610352,0.983337,-0.0500183,0.00234985,0.17453,-55.075,88.8667,-92.5667,-1771,-29534
1554,875299,-0.229688,-0.966602,9.7665,-5.59753,1.26892,20.0665,0.12207,0.183105,0.305176,0.983337,-0.0500183,0.00238037,0.17453,-55.025,88.8583,-92.5917,-1771,-29534
1560,875305,-0.215332,-0.952246,9.73301,-5.59753,1.26892,20.0665,0.0610352,0,0,0.983337,-0.0500183,0.00238037,0.174561,-55.0083,88.8583,-92.6,-1771,-29534
1566,875311,-0.224902,-0.952246,9.75215,-5.59753,1.26892,20.0665,0,0.183105,-0.0610352,0.983337,-0.0500183,0.00238037,0.174561,-54.975,88.8417,-92.525,-1771,-29534
1572,875317,-0.234473,-0.937891,9.75693,-5.59753,1.26892,20.0665,0.183105,-0.0610352,0.0610352,0.983337,-0.0500183,0.00241089,0.174561,-54.9583,88.8417,-92.4583,-1771,-29534
1578,875323,-0.229688,-0.957031,9.76172,-5.59753,1.26892,20.0665,0,-0.0610352,0.244141,0.983337,-0.0500183,0.00241089,0.174561,-54.925,88.8417,-92.4,-1771,-29534
1584,875329,-0.215332,-0.971387,9.78086,-5.59753,1.26892,20.0665,0,0.0610352,0,0.983337,-0.0500183,0.00241089,0.174561,-54.875,88.8333,-92.3083,-1771,-29534
1590,875335,-0.234473,-0.952246,9.77607,-5.59753,1.26892,20.0665,-0.0610352,0,-0.0610352,0.983337,-0.0500183,0.00241089,0.174561,-54.825,88.8333,-92.25,-1771,-29534
1596,875341,-0.215332,-0.966602,9.77129,-5.59753,1.26892,20.0665,-0.0610352,-0.183105,-0.12207,0.983337,-0.0500183,0.00241089,0.174561,-54.7167,88.85,-92.2333,-1771,-29534
1602,875347,-0.215332,-0.966602,9.79043,-5.59753,1.26892,20.0665,-0.12207,-0.0610352,-0.183105,0.983337,-0.0500183,0.00238037,0.174561,-54.6833,88.875,-92.275,-1771,-29534
1608,875353,-0.220117,-0.961816,9.74736,-5.59753,1.26892,20.0665,-0.0610352,-0.0610352,0,0.983337,-0.0500183,0.00238037,0.17453,-54.6417,88.8917,-92.3167,-1771,-29534
1614,875359,-0.191406,-0.961816,9.74258,-5.59753,1.26892,20.0665,0,0,0,0.983337,-0.0500183,0.00238037,0.17453,-54.6,88.9,-92.3083,-1771,-29534
1620,875365,-0.229688,-0.971387,9.73779,-5.59753,1.26892,20.0665,-0.0610352,-0.183105,0,0.983337,-0.0500183,0.00238037,0.17453,-54.55,88.9,-92.3083,-1771,-29534
1626,875371,-0.220117,-0.957031,9.7665,-5.59753,1.26892,20.0665,0,0,-0.183105,0.983337,-0.0500183,0.00238037,0.17453,-54.4167,88.8917,-92.3167,-1771,-29534
1632,875377,-0.186621,-0.937891,9.77129,-5.59753,1.26892,20.0665,0,0,0,0.983337,-0.0500183,0.00238037,0.17453,-54.3583,88.9,-92.3083,-1771,-29534
1638,875383,-0.220117,-0.957031,9.74736,-5.59753,1.26892,20.0665,0.0610352,0,-0.0610352,0.983337,-0.0500183,0.00238037,0.17453,-54.325,88.9,-92.3083,-1771,-29534
1644,875389,-0.210547,-0.952246,9.77129,-5.59753,1.26892,20.0665,0.0610352,0.0610352,0,0.983337,-0.0500183,0.00238037,0.17453,-54.3,88.9083,-92.3,-1771,-29534
1650,875395,-0.191406,-0.933105,9.76172,-5.59753,1.26892,20.0665,0,0.12207,0.0610352,0.983337,-0.0500183,0.00238037,0.17453,-54.2833,88.925,-92.2917,-1771,-29534
1656,875401,-0.196191,-0.966602,9.74258,-5.59753,1.26892,20.0665,0,0.12207,0.0610352,0.983337,-0.0500183,0.00238037,0.17453,-54.2333,88.95,-92.2917,-1771,-29534
1662,875407,-0.196191,-0.957031,9.75215,-5.59753,1.26892,20.0665,0.183105,0.244141,0.244141,0.983337,-0.0500183,0.00238037,0.17453,-54.1833,88.9583,-92.275,-1771,-29534
1668,875413,-0.210547,-0.947461,9.76172,-5.59753,1.26892,20.0665,0,0.366211,0.0610352,0.983337,-0.0499878,0.00238037,0.17453,-54.1417,88.9833,-92.275,-1771,-29534
1674,875419,-0.224902,-0.966602,9.76172,-5.59753,1.26892,20.0665,0.0610352,0.183105,0,0.983337,-0.0500183,0.00241089,0.17453,-54.0917,89.0083,-92.2833,-1771,-29534
1680,875425,-0.239258,-0.966602,9.76172,-5.59753,1.27441,20.0665,0,0.244141,0,0.983337,-0.0499878,0.00244141,0.17453,-54.05,89.025,-92.3167,-1771,-29534
1686,875431,-0.224902,-0.933105,9.72344,-5.59753,1.27441,20.0665,0,0.12207,0.0610352,0.983337,-0.0499878,0.00244141,0.17453,-53.9833,89.0083,-92.3833,-1771,-29534
1692,875437,-0.229688,-0.933105,9.7665,-5.59753,1.27441,20.0665,0,0,-0.183105,0.983337,-0.0500183,0.00244141,0.17453,-53.95,89.0083,-92.3917,-1771,-29534
1698,875443,-0.224902,-0.957031,9.76172,-5.59204,1.27441,20.0665,0.183105,0.12207,0,0.983337,-0.0500183,0.00244141,0.17453,-53.9167,89,-92.3833,-1771,-29534
1704,875449,-0.220117,-0.961816,9.77607,-5.59204,1.27441,20.0665,0.12207,0.0610352,0.0610352,0.983337,-0.0499878,0.00244141,0.17453,-53.8833,88.9833,-92.3917,-1771,-29534
1710,875455,-0.224902,-0.961816,9.7665,-5.59204,1.27441,20.0665,-0.0610352,0,-0.0610352,0.983337,-0.0499878,0.00244141,0.17453,-53.8417,88.9917,-92.3833,-1771,-29534
1716,875461,-0.229688,-0.957031,9.77607,-5.59204,1.27441,20.0665,-0.0610352,-0.12207,0.0610352,0.983337,-0.0499878,0.00244141,0.17453,-53.7417,88.9917,-92.4083,-1771,-29534
1722,875467,-0.220117,-0.961816,9.74258,-5.59204,1.27441,20.0665,0,-0.244141,0,0.983337,-0.0499878,0.00244141,0.17453,-53.7083,89.0083,-92.4,-1771,-29534
1728,875473,-0.200977,-0.942676,9.76172,-5.59204,1.27441,20.0665,-0.0610352,-0.183105,0.0610352,0.983337,-0.0499878,0.00244141,0.17453,-53.6583,89.0167,-92.3917,-1771,-29534
1734,875479,-0.191406,-0.957031,9.75215,-5.59204,1.26892,20.0665,-0.0610352,-0.244141,0,0.983337,-0.0499878,0.00241089,0.17453,-53.6083,89.0333,-92.3917,-1771,-29534
1740,875485,-0.239258,-0.942676,9.77129,-5.59753,1.26892,20.0665,-0.183105,-0.305176,0,0.983337,-0.0499878,0.00241089,0.174561,-53.5417,89.0083,-92.3417,-1771,-29534
1746,875491,-0.220117,-0.957031,9.77607,-5.59753,1.26892,20.0665,-0.244141,-0.183105,0,0.983337,-0.0499878,0.00238037,0.174561,-53.4333,89.0333,-92.3083,-1771,-29534
1752,875497,-0.200977,-0.937891,9.7665,-5.59753,1.26892,20.0665,-0.0610352,-0.183105,-0.0610352,0.983337,-0.0500183,0.00238037,0.174561,-53.3917,89.05,-92.325,-1771,-29534
1758,875503,-0.205762,-0.947461,9.7665,-5.59753,1.26892,20.0665,-0.183105,-0.12207,0.0610352,0.983337,-0.0500183,0.00238037,0.17453,-53.3333,89.05,-92.3,-1771,-29534
1764,875509,-0.224902,-0.947461,9.74258,-5.59753,1.26892,20.0665,0.0610352,0,0.0610352,0.983337,-0.0500183,0.00234985,0.174561,-53.3083,89.05,-92.3333,-1771,-29534
1770,875515,-0.215332,-0.976172,9.78086,-5.59753,1.26892,20.0665,0.0610352,0.12207,0.0610352,0.983337,-0.0500183,0.00238037,0.174561,-53.2667,89.0333,-92.35,-1771,-29534
1776,875521,-0.191406,-0.961816,9.73779,-5.59753,1.26892,20.0665,0.0610352,0.244141,0,0.983337,-0.0500183,0.00238037,0.174561,-53.2167,89.0167,-92.3833,-1771,-29534
1782,875527,-0.220117,-0.942676,9.74258,-5.59753,1.26892,20.072,0.12207,0.183105,0.183105,0.983337,-0.0500183,0.00238037,0.174561,-53.1833,89.025,-92.4333,-1771,-29534
1788,875533,-0.220117,-0.957031,9.78086,-5.59753,1.26892,20.0665,0.183105,0.12207,-0.183105,0.983337,-0.0500183,0.00238037,0.174561,-53.15,89.05,-92.4583,-1771,-29534
1794,875539,-0.200977,-0.947461,9.75693,-5.59753,1.26892,20.0665,0.183105,0.12207,-0.0610352,0.983337,-0.0500183,0.00241089,0.174561,-53.1167,89.0667,-92.5,-1771,-29534
1800,875545,-0.215332,-0.957031,9.74736,-5.59204,1.27441,20.0665,0.12207,0.305176,0.0610352,0.983337,-0.0499878,0.00241089,0.174561,-53.0833,89.0917,-92.5667,-1771,-29534
1806,875551,-0.210547,-0.933105,9.74736,-5.59204,1.27441,20.0665,0.305176,0.244141,-0.366211,0.983337,-0.0499878,0.00241089,0.174561,-53,89.1083,-92.6667,-1771,-29534
1812,875557,-0.220117,-0.933105,9.75693,-5.59204,1.27441,20.0665,0.0610352,0.305176,0.0610352,0.983337,-0.0499878,0.00244141,0.17453,-52.9583,89.1083,-92.6583,-1771,-29534
1818,875563,-0.224902,-0.952246,9.7665,-5.59204,1.27441,20.0665,0.12207,0.305176,0,0.983337,-0.0499878,0.00244141,0.17453,-52.9,89.1083,-92.625,-1771,-29534
1824,875569,-0.224902,-0.947461,9.75693,-5.59204,1.27441,20.0665,0.12207,0.0610352,0.427246,0.983337,-0.0499573,0.00247192,0.17453,-52.85,89.1,-92.6083,-1771,-29534
1830,875575,-0.220117,-0.961816,9.76172,-5.59204,1.27991,20.0665,-0.0610352,0,0.12207,0.983337,-0.0499573,0.00247192,0.174561,-52.7833,89.075,-92.6083,-1771,-29534
1836,875581,-0.220117,-0.961816,9.76172,-5.59204,1.27991,20.0665,-0.0610352,0,-0.183105,0.983337,-0.0499573,0.00247192,0.174561,-52.7583,89.0833,-92.6333,-1771,-29534
1842,875587,-0.220117,-0.957031,9.76172,-5.59204,1.27991,20.0665,-0.244141,0.0610352,0.0610352,0.983337,-0.0499573,0.00247192,0.174561,-52.7417,89.0833,-92.65,-1771,-29534
1848,875593,-0.220117,-0.947461,9.77607,-5.59204,1.27441,20.0665,0,-0.183105,0,0.983337,-0.0499878,0.00247192,0.174561,-52.725,89.075,-92.6667,-1771,-29534
1854,875599,-0.210547,-0.990527,9.75693,-5.59204,1.27441,20.0665,-0.183105,-0.12207,0,0.983337,-0.0499878,0.00247192,0.174561,-52.7083,89.0583,-92.6417,-1771,-29534
1860,875605,-0.220117,-0.971387,9.77607,-5.59204,1.27441,20.0665,-0.0610352,-0.244141,-0.12207,0.983337,-0.0499878,0.00244141,0.174561,-52.6667,89.0333,-92.675,-1771,-29534
1866,875611,-0.186621,-0.966602,9.77607,-5.59204,1.27441,20.0665,-0.0610352,-0.183105,-0.0610352,0.983337,-0.0499878,0.00244141,0.174561,-52.625,89.025,-92.6667,-1771,-29534
1872,875617,-0.210547,-0.961816,9.8,-5.59204,1.27441,20.0665,0.0610352,-0.0610352,0.12207,0.983337,-0.0499878,0.00244141,0.17453,-52.5917,89.0333,-92.7,-1771,-29534
1878,875623,-0.181836,-0.942676,9.77129,-5.59204,1.27441,20.0665,-0.0610352,0,-0.366211,0.983337,-0.0499878,0.00241089,0.174561,-52.5667,89.0333,-92.7083,-1771,-29534
1884,875629,-0.210547,-0.947461,9.75693,-5.59204,1.26892,20.0665,0.0610352,-0.305176,0.244141,0.983337,-0.0499878,0.00241089,0.17453,-52.5333,89.0333,-92.7,-1771,-29534
1890,875635,-0.215332,-0.961816,9.74258,-5.59204,1.26892,20.0665,0,-0.0610352,0.0610352,0.983337,-0.0499878,0.00241089,0.174561,-52.525,89.0083,-92.5583,-1771,-29534
1896,875641,-0.191406,-0.976172,9.7665,-5.59204,1.26892,20.072,-0.0610352,0.0610352,0.0610352,0.983337,-0.0499878,0.00241089,0.174561,-52.525,88.9917,-92.5,-1771,-29534
1902,875647,-0.210547,-0.942676,9.75215,-5.59204,1.27441,20.072,0,0.244141,0.0610352,0.983337,-0.0499878,0.00241089,0.174561,-52.5417,88.9833,-92.475,-1771,-29534
1908,875653,-0.200977,-0.961816,9.74736,-5.59204,1.27441,20.072,0.12207,0.244141,0.0610352,0.983337,-0.0499878,0.00241089,0.174561,-52.55,89,-92.5167,-1771,-29534
1914,875659,-0.205762,-0.952246,9.73779,-5.59204,1.27441,20.072,0,0.244141,0.0610352,0.983337,-0.0499878,0.00244141,0.174561,-52.55,89,-92.55,-1771,-29534
1920,875665,-0.224902,-0.961816,9.76172,-5.59204,1.27991,20.0665,0,0.366211,-0.244141,0.983337,-0.0499878,0.00244141,0.174561,-52.5417,89.0333,-92.575,-1771,-29534
1926,875671,-0.196191,-0.952246,9.74736,-5.59204,1.27991,20.072,0,0.244141,0.305176,0.983337,-0.0499878,0.00247192,0.174561,-52.55,89.05,-92.5833,-1771,-29534
1932,875677,-0.234473,-0.961816,9.76172,-5.59204,1.27991,20.072,0.12207,0.366211,-0.12207,0.983307,-0.0499878,0.00247192,0.174561,-52.55,89.05,-92.6083,-1771,-29534
1938,875683,-0.224902,-0.966602,9.73779,-5.59204,1.27991,20.072,0.0610352,0.0610352,0.244141,0.983337,-0.0499878,0.00250244,0.174561,-52.55,89.0583,-92.6417,-1771,-29534
1944,875689,-0.239258,-0.961816,9.73779,-5.59204,1.27991,20.072,0,0,-0.0610352,0.983307,-0.0499878,0.00250244,0.174591,-52.5333,89.0417,-92.6667,-1771,-29534
1950,875695,-0.196191,-0.966602,9.77129,-5.59204,1.27991,20.072,0.12207,0.12207,0,0.983307,-0.0499878,0.00250244,0.174591,-52.5083,89,-92.6667,-1771,-29534
1956,875701,-0.210547,-0.952246,9.7665,-5.59204,1.27991,20.072,-0.0610352,-0.183105,0,0.983307,-0.0499878,0.00250244,0.174591,-52.5083,89,-92.65,-1771,-29534
1962,875707,-0.200977,-0.937891,9.77607,-5.59204,1.27991,20.072,0.0610352,0.0610352,0.0610352,0.983307,-0.0499878,0.00250244,0.174591,-52.525,88.9917,-92.6167,-1771,-29534
1968,875713,-0.210547,-0.976172,9.73779,-5.59204,1.27991,20.072,-0.0610352,-0.0610352,0,0.983307,-0.0499878,0.00250244,0.174591,-52.55,89,-92.5833,-1771,-29534
1974,875719,-0.205762,-0.961816,9.75215,-5.59204,1.27991,20.072,0.0610352,-0.0610352,0,0.983307,-0.0499878,0.00247192,0.174591,-52.5667,89.0083,-92.5667,-1771,-29534
1980,875725,-0.186621,-0.966602,9.75693,-5.59204,1.27991,20.072,-0.0610352,-0.244141,0.12207,0.983307,-0.0499878,0.00247192,0.174591,-52.6,89.025,-92.55,-1771,-29534
1986,875731,-0.210547,-0.942676,9.74736,-5.59204,1.27441,20.072,-0.0610352,-0.183105,0,0.983307,-0.0499878,0.00247192,0.174591,-52.6083,89.025,-92.5917,-1771,-29534
1992,875737,-0.205762,-0.942676,9.73301,-5.59204,1.27441,20.072,-0.244141,-0.244141,-0.183105,0.983307,-0.0499878,0.00247192,0.174591,-52.6083,89.0167,-92.6,-1771,-29534
1998,875743,-0.200977,-0.966602,9.73301,-5.59204,1.27441,20.072,-0.12207,-0.183105,-0.183105,0.983307,-0.0499878,0.00244141,0.174591,-52.6,89.025,-92.6167,-1771,-29534
2004,875749,-0.220117,-0.980957,9.77129,-5.59204,1.27441,20.072,0,-0.12207,0,0.983307,-0.0499878,0.00244141,0.174561,-52.5917,89.025,-92.6083,-1771,-29534
2010,875755,-0.200977,-0.966602,9.71865,-5.59753,1.27441,20.072,-0.0610352,0,0.305176,0.983307,-0.0499878,0.00244141,0.174561,-52.55,89.0417,-92.5917,-1771,-29534
2016,875761,-0.196191,-0.957031,9.76172,-5.59753,1.27441,20.072,-0.12207,0,-0.0610352,0.983307,-0.0500183,0.00241089,0.174591,-52.525,89.0417,-92.6333,-1771,-29534
2022,875767,-0.210547,-0.952246,9.75215,-5.59753,1.27441,20.072,0.0610352,0.12207,0,0.983307,-0.0500183,0.00241089,0.174591,-52.5,89.0583,-92.6917,-1771,-29534
2028,875773,-0.215332,-0.957031,9.75693,-5.59753,1.27441,20.072,0,0.12207,-0.183105,0.983307,-0.0500183,0.00244141,0.174591,-52.4667,89.0667,-92.7083,-1771,-29534
2034,875779,-0.196191,-0.971387,9.73779,-5.59753,1.27441,20.072,0,0.183105,0.0610352,0.983307,-0.0500183,0.00244141,0.174561,-52.4417,89.0583,-92.7083,-1771,-29534
2040,875785,-0.224902,-0.961816,9.77129,-5.59204,1.27441,20.072,0.244141,0.12207,0.183105,0.983307,-0.0500183,0.00244141,0.174561,-52.4083,89.0583,-92.6333,-1771,-29534
2046,875791,-0.200977,-0.980957,9.77129,-5.59204,1.27441,20.072,0.12207,0.244141,-0.12207,0.983307,-0.0499878,0.00244141,0.174591,-52.4,89.05,-92.6333,-1771,-29534
2052,875797,-0.200977,-0.947461,9.74258,-5.59204,1.27991,20.072,0.12207,0.12207,0.0610352,0.983307,-0.0499878,0.00247192,0.174591,-52.3917,89.0417,-92.6083,-1771,-29534
2058,875803,-0.220117,-0.947461,9.73301,-5.59204,1.27991,20.072,0.183105,0.0610352,0.0610352,0.983307,-0.0499878,0.00247192,0.174591,-52.3917,89.05,-92.625,-1771,-29534
2064,875809,-0.215332,-0.961816,9.75693,-5.59204,1.27991,20.072,0.12207,0.366211,0,0.983307,-0.0499878,0.00247192,0.174591,-52.3917,89.0833,-92.6,-1771,-29534
2070,875815,-0.200977,-0.947461,9.75215,-5.59204,1.27991,20.072,0.12207,0.12207,0,0.983307,-0.0499878,0.00247192,0.174591,-52.425,89.1333,-92.55,-1771,-29534
2076,875821,-0.181836,-0.947461,9.73779,-5.59204,1.27991,20.072,0.0610352,0,-0.183105,0.983307,-0.0499878,0.00250244,0.174591,-52.4417,89.1583,-92.55,-1771,-29534
2082,875827,-0.220117,-0.937891,9.73301,-5.59204,1.27991,20.072,0.12207,-0.0610352,0.183105,0.983307,-0.0499878,0.00250244,0.174591,-52.45,89.1667,-92.5583,-1771,-29534
2088,875833,-0.224902,-0.980957,9.78086,-5.59204,1.27991,20.072,-0.0610352,0,0.0610352,0.983307,-0.0499878,0.00247192,0.174591,-52.45,89.1583,-92.5667,-1771,-29534
2094,875839,-0.220117,-0.952246,9.75693,-5.59204,1.27991,20.072,-0.0610352,0,0,0.983307,-0.0499878,0.00247192,0.174591,-52.4583,89.1667,-92.5667,-1771,-29534
2100,875845,-0.186621,-0.933105,9.76172,-5.59204,1.27991,20.072,0,-0.12207,0,0.983307,-0.0499878,0.00247192,0.174591,-52.45,89.1583,-92.525,-1771,-29534
2106,875851,-0.220117,-0.971387,9.75693,-5.59204,1.27991,20.072,-0.0610352,-0.12207,0.305176,0.983307,-0.0499878,0.00247192,0.174591,-52.45,89.1667,-92.5083,-1771,-29534
2112,875857,-0.210547,-0.961816,9.77129,-5.59204,1.27991,20.072,-0.12207,0,0.0610352,0.983307,-0.0499878,0.00247192,0.174591,-52.45,89.1833,-92.525,-1771,-29534
2118,875863,-0.186621,-0.957031,9.73779,-5.59204,1.27441,20.072,0,-0.183105,0.0610352,0.983307,-0.0499878,0.00247192,0.174591,-52.4417,89.2083,-92.5583,-1771,-29534
2124,875869,-0.200977,-0.957031,9.72344,-5.59204,1.27441,20.072,-0.12207,-0.12207,-0.0610352,0.983307,-0.0499878,0.00244141,0.174591,-52.4333,89.2333,-92.6167,-1771,-29534
2130,875875,-0.191406,-0.952246,9.7665,-5.59204,1.27441,20.072,0,-0.183105,0.0610352,0.983307,-0.0499878,0.00244141,0.174591,-52.4083,89.3,-92.7333,-1771,-29534
2136,875881,-0.215332,-0.971387,9.75215,-5.59204,1.27441,20.072,0,-0.244141,0.0610352,0.983307,-0.0499878,0.00244141,0.174622,-52.4,89.3083,-92.7917,-1771,-29534
2142,875887,-0.210547,-0.985742,9.76172,-5.59204,1.27441,20.072,-0.12207,0,0,0.983307,-0.0499878,0.00244141,0.174622,-52.4083,89.2917,-92.7917,-1771,-29534
2148,875893,-0.191406,-0.976172,9.74736,-5.59204,1.27441,20.0775,0,-0.0610352,0.0610352,0.983307,-0.0499878,0.00244141,0.174622,-52.4,89.2667,-92.8083,-1771,-29534
2154,875899,-0.215332,-0.976172,9.75693,-5.59204,1.27441,20.0775,-0.0610352,0,0,0.983307,-0.0499878,0.00241089,0.174622,-52.3833,89.2417,-92.825,-1771,-29534
2160,875905,-0.220117,-0.971387,9.74258,-5.59204,1.27441,20.0775,0,-0.12207,0.0610352,0.983307,-0.0499878,0.00241089,0.174622,-52.325,89.2083,-92.8917,-1771,-29534
2166,875911,-0.172266,-0.957031,9.77129,-5.59204,1.27441,20.0775,0.12207,0,-0.12207,0.983307,-0.0499878,0.00241089,0.174622,-52.3083,89.2,-92.9167,-1771,-29534
2172,875917,-0.224902,-0.976172,9.73779,-5.59204,1.26892,20.0775,0.0610352,-0.12207,0.12207,0.983307,-0.0499878,0.00241089,0.174622,-52.2833,89.1833,-92.9833,-1771,-29534
2178,875923,-0.181836,-0.957031,9.74736,-5.59204,1.26892,20.0775,0.0610352,0,-0.0610352,0.983307,-0.0499878,0.00241089,0.174622,-52.275,89.15,-93.0333,-1771,-29534
2184,875929,-0.181836,-0.952246,9.71387,-5.59204,1.26892,20.0775,0.244141,0.0610352,0.0610352,0.983307,-0.0499878,0.00241089,0.174622,-52.275,89.1333,-93.0667,-1771,-29534
2190,875935,-0.196191,-0.933105,9.77129,-5.59204,1.26892,20.0775,0.305176,0.12207,0,0.983307,-0.0499878,0.00241089,0.174622,-52.2583,89.1,-93.1167,-1771,-29534
2196,875941,-0.215332,-0.980957,9.78086,-5.59204,1.27441,20.0775,0.183105,0.12207,0,0.983307,-0.0499573,0.00241089,0.174622,-52.25,89.075,-93.1,-1771,-29534
