TimeSinceCollection,Timestamp,AccX,AccY,AccZ,AngleRoll,AnglePitch,AngleYaw,AngularVelX,AngularVelY,AngularVelZ,Q1,Q2,Q3,Q4,MagX,MagY,MagZ,Height,Airpressure
0,3671455,9.66602,1.40205,-0.0143555,90.5383,-81.7603,54.9042,0.12207,0.0610352,-0.244141,0.257782,0.688965,-0.161072,0.657898,-141.408,-61.6083,-58.875,-1381,-29581
6,3671461,9.71387,1.40684,-0.00478516,90.5273,-81.7603,54.9152,-0.12207,0.305176,-0.12207,0.257782,0.688965,-0.161072,0.657898,-141.433,-61.6083,-58.8083,-1381,-29581
12,3671467,9.70908,1.41641,0,90.5054,-81.7603,54.9371,-0.0610352,0.244141,0,0.257782,0.688934,-0.161072,0.657898,-141.433,-61.6417,-58.7583,-1381,-29581
18,3671473,9.70908,1.43076,-0.0239258,90.4999,-81.7603,54.9481,0.183105,0.244141,-0.0610352,0.257782,0.688934,-0.161041,0.657928,-141.408,-61.6583,-58.7083,-1381,-29581
24,3671479,9.71865,1.43076,-0.00957031,90.4834,-81.7603,54.9591,0,0.366211,0.0610352,0.257782,0.688934,-0.161041,0.657928,-141.383,-61.675,-58.7,-1381,-29581
30,3671485,9.7043,1.39727,-0.00478516,90.4834,-81.7603,54.9591,0,0,-0.0610352,0.257782,0.688934,-0.161041,0.657928,-141.358,-61.6583,-58.7083,-1381,-29581
36,3671491,9.71865,1.39727,0,90.4779,-81.7603,54.9646,0,0.183105,0.183105,0.257782,0.688934,-0.161041,0.657928,-141.342,-61.6417,-58.6917,-1381,-29581
42,3671497,9.71387,1.38291,0.00478516,90.4779,-81.7603,54.9701,0,0,0.183105,0.257782,0.688934,-0.161041,0.657959,-141.325,-61.6333,-58.6583,-1381,-29581
48,3671503,9.70908,1.38291,-0.0287109,90.4834,-81.7603,54.9646,0,-0.0610352,0.183105,0.257751,0.688934,-0.161041,0.657959,-141.325,-61.625,-58.6917,-1381,-29581
54,3671509,9.72344,1.41641,-0.00478516,90.4944,-81.7603,54.9536,0,-0.305176,0,0.257751,0.688934,-0.161041,0.657928,-141.325,-61.6333,-58.6833,-1381,-29581
60,3671515,9.69473,1.38291,0,90.4999,-81.7603,54.9481,0.0610352,-0.183105,0,0.257751,0.688934,-0.161041,0.657928,-141.325,-61.6417,-58.725,-1381,-29581
66,3671521,9.67559,1.39727,-0.0382813,90.5054,-81.7603,54.9426,0,-0.244141,0.0610352,0.257751,0.688934,-0.161041,0.657928,-141.317,-61.625,-58.7917,-1381,-29581
72,3671527,9.71387,1.39248,0,90.5273,-81.7603,54.9207,0,-0.183105,-0.0610352,0.257751,0.688965,-0.161041,0.657928,-141.283,-61.6333,-58.825,-1381,-29581
78,3671533,9.72344,1.42598,-0.0143555,90.5328,-81.7603,54.9152,0,-0.183105,0,0.257751,0.688965,-0.161041,0.657898,-141.275,-61.65,-58.8167,-1381,-29581
84,3671539,9.71865,1.39727,0,90.5383,-81.7603,54.9097,0,-0.12207,0.244141,0.257721,0.688965,-0.161041,0.657898,-141.3,-61.6833,-58.8,-1381,-29581
90,3671545,9.7043,1.42598,-0.0191406,90.5383,-81.7603,54.9097,0,0,-0.244141,0.257721,0.688965,-0.161041,0.657898,-141.308,-61.7083,-58.8,-1381,-29581
96,3671551,9.73779,1.41162,-0.0287109,90.5383,-81.7603,54.9152,0.0610352,0.0610352,-0.0610352,0.257721,0.688965,-0.161041,0.657898,-141.317,-61.7167,-58.775,-1381,-29581
102,3671557,9.74258,1.43076,0.00957031,90.5383,-81.7603,54.9152,0,0,-0.183105,0.257721,0.688965,-0.161011,0.657898,-141.267,-61.6833,-58.7583,-1381,-29581
108,3671563,9.69951,1.40684,-0.0191406,90.5328,-81.7603,54.9207,0,0.12207,-0.183105,0.257721,0.688965,-0.161011,0.657898,-141.233,-61.6583,-58.7583,-1381,-29581
114,3671569,9.70908,1.41162,-0.0191406,90.5328,-81.7603,54.9207,-0.0610352,0,-0.0610352,0.257751,0.688965,-0.161011,0.657898,-141.217,-61.6333,-58.7333,-1381,-29581
120,3671575,9.7043,1.41162,-0.0239258,90.5328,-81.7548,54.9207,0,0.0610352,-0.183105,0.257751,0.688965,-0.161011,0.657898,-141.192,-61.6167,-58.7167,-1381,-29581
126,3671581,9.69473,1.39727,-0.0334961,90.5273,-81.7548,54.9261,0,0.183105,0,0.257751,0.688965,-0.161011,0.657928,-141.183,-61.6167,-58.7083,-1381,-29581
132,3671587,9.71865,1.41641,0.00957031,90.5219,-81.7548,54.9316,-0.0610352,0.0610352,-0.0610352,0.257751,0.688965,-0.16098,0.657928,-141.167,-61.6333,-58.7,-1381,-29581
138,3671593,9.71865,1.39727,-0.0239258,90.5219,-81.7548,54.9316,-0.12207,0,0.12207,0.257751,0.688965,-0.16098,0.657928,-141.175,-61.6333,-58.75,-1381,-29581
144,3671599,9.70908,1.39248,-0.00957031,90.5219,-81.7548,54.9316,-0.0610352,0,0.0610352,0.257751,0.688965,-0.161011,0.657928,-141.192,-61.6333,-58.8083,-1381,-29581
150,3671605,9.7043,1.39727,-0.0191406,90.5219,-81.7548,54.9316,-0.0610352,0,0.0610352,0.257751,0.688965,-0.161011,0.657928,-141.208,-61.6417,-58.8667,-1381,-29581
156,3671611,9.69951,1.39727,0,90.5219,-81.7603,54.9316,0,-0.0610352,0.183105,0.257721,0.688965,-0.161011,0.657928,-141.225,-61.65,-58.9167,-1381,-29581
162,3671617,9.70908,1.41162,-0.0287109,90.5328,-81.7603,54.9207,0,-0.244141,0.0610352,0.257721,0.688965,-0.161011,0.657898,-141.233,-61.675,-58.9417,-1381,-29581
168,3671623,9.68994,1.38291,-0.0143555,90.5383,-81.7603,54.9152,0.12207,-0.183105,0.0610352,0.257721,0.688995,-0.161011,0.657898,-141.225,-61.6833,-58.9417,-1381,-29581
174,3671629,9.71387,1.42119,-0.00957031,90.5493,-81.7603,54.9097,0.12207,-0.183105,0.427246,0.25769,0.688995,-0.161011,0.657898,-141.2,-61.675,-58.9417,-1381,-29581
180,3671635,9.72344,1.38291,-0.00957031,90.5493,-81.7603,54.9042,-0.0610352,-0.12207,0.12207,0.25769,0.688995,-0.161011,0.657898,-141.183,-61.6667,-58.9417,-1381,-29581
186,3671641,9.72344,1.44512,0,90.5603,-81.7603,54.8932,0,-0.244141,0.12207,0.25769,0.688995,-0.161011,0.657898,-141.192,-61.65,-58.95,-1381,-29581
192,3671647,9.68994,1.39727,-0.0143555,90.5658,-81.7603,54.8877,0.0610352,-0.183105,0,0.25769,0.688995,-0.161011,0.657898,-141.175,-61.625,-59.0167,-1381,-29581
198,3671653,9.71387,1.43076,-0.0239258,90.5658,-81.7603,54.8877,0,0,0,0.25769,0.688995,-0.161011,0.657898,-141.167,-61.6083,-59.0167,-1381,-29581
204,3671659,9.7043,1.40684,-0.0191406,90.5713,-81.7603,54.8877,0,-0.0610352,-0.0610352,0.25769,0.688995,-0.161011,0.657898,-141.142,-61.625,-58.9917,-1381,-29581
210,3671665,9.68994,1.41641,-0.00478516,90.5713,-81.7603,54.8877,0.0610352,0,0.183105,0.25769,0.688995,-0.161011,0.657898,-141.133,-61.6333,-58.9917,-1381,-29581
216,3671671,9.71865,1.44033,0,90.5548,-81.7603,54.8987,0,0.366211,0.0610352,0.25769,0.688995,-0.161011,0.657898,-141.133,-61.6333,-58.9583,-1381,-29581
222,3671677,9.71387,1.40684,-0.0287109,90.5493,-81.7603,54.9042,-0.0610352,0.0610352,-0.12207,0.25769,0.688995,-0.161011,0.657898,-141.142,-61.6167,-58.975,-1381,-29581
228,3671683,9.69473,1.40684,0,90.5493,-81.7603,54.9042,-0.0610352,0,-0.244141,0.25769,0.688995,-0.161011,0.657898,-141.142,-61.6083,-58.9917,-1381,-29581
234,3671689,9.69473,1.41641,-0.00478516,90.5438,-81.7603,54.9152,0,0.183105,0,0.25769,0.688995,-0.161011,0.657898,-141.15,-61.6083,-58.9917,-1381,-29581
240,3671695,9.73301,1.39248,-0.0239258,90.5383,-81.7603,54.9152,0,0.12207,0,0.257721,0.688995,-0.161011,0.657928,-141.167,-61.6167,-58.9583,-1381,-29581
246,3671701,9.7043,1.39727,-0.0191406,90.5438,-81.7603,54.9097,0,-0.244141,0.12207,0.25769,0.688995,-0.161011,0.657898,-141.192,-61.6083,-58.9333,-1381,-29581
252,3671707,9.71387,1.3877,0.00478516,90.5493,-81.7603,54.9042,-0.12207,-0.0610352,0.305176,0.25769,0.688995,-0.161011,0.657898,-141.217,-61.5583,-58.9167,-1381,-29581
258,3671713,9.69473,1.40205,-0.00478516,90.5493,-81.7603,54.9042,0,-0.0610352,0.183105,0.25769,0.688995,-0.161011,0.657898,-141.233,-61.5417,-58.925,-1381,-29581
264,3671719,9.70908,1.37813,-0.0143555,90.5548,-81.7657,54.8987,0,-0.12207,0.366211,0.25769,0.688995,-0.161041,0.657898,-141.233,-61.55,-58.9417,-1381,-29581
270,3671725,9.69473,1.39727,-0.0143555,90.5603,-81.7657,54.8932,-0.12207,-0.12207,0,0.25769,0.688995,-0.161041,0.657898,-141.233,-61.575,-58.9833,-1381,-29581
276,3671731,9.70908,1.40205,-0.00478516,90.5658,-81.7657,54.8877,-0.12207,-0.244141,0.0610352,0.25769,0.688995,-0.161041,0.657898,-141.233,-61.6,-59.0167,-1381,-29581
282,3671737,9.70908,1.39248,-0.0382813,90.5768,-81.7657,54.8712,0,-0.12207,-0.12207,0.25769,0.688995,-0.161041,0.657898,-141.25,-61.6083,-59.05,-1381,-29581
288,3671743,9.72344,1.41162,-0.0382813,90.5768,-81.7603,54.8712,-0.12207,0,-0.183105,0.25769,0.688995,-0.161041,0.657867,-141.242,-61.6167,-59.0667,-1381,-29581
294,3671749,9.73779,1.44512,0,90.5768,-81.7603,54.8712,-0.0610352,0,-0.12207,0.25769,0.688995,-0.161041,0.657867,-141.242,-61.6083,-59.0667,-1381,-29581
300,3671755,9.71387,1.39248,-0.00478516,90.5713,-81.7603,54.8767,0,0.12207,0,0.25769,0.688995,-0.161041,0.657898,-141.225,-61.625,-59.0583,-1381,-29581
306,3671761,9.71387,1.40684,0,90.5713,-81.7603,54.8767,0,0.305176,0.0610352,0.25769,0.688995,-0.161041,0.657898,-141.217,-61.6333,-59.0417,-1381,-29581
312,3671767,9.68516,1.41641,0.00957031,90.5548,-81.7603,54.8987,0.183105,0.305176,0,0.25769,0.688995,-0.161041,0.657898,-141.233,-61.6167,-59.0167,-1381,-29581
318,3671773,9.7043,1.42598,-0.0287109,90.5438,-81.7603,54.9097,-0.12207,0.244141,-0.366211,0.257721,0.688995,-0.161041,0.657898,-141.225,-61.6,-59.0083,-1381,-29581
324,3671779,9.72344,1.42119,-0.00957031,90.5383,-81.7603,54.9152,-0.0610352,0.12207,0.12207,0.257721,0.688965,-0.161041,0.657898,-141.242,-61.5833,-59.0083,-1381,-29581
330,3671785,9.69951,1.40684,-0.00478516,90.5273,-81.7603,54.9207,0,0.305176,-0.12207,0.257721,0.688965,-0.161041,0.657928,-141.242,-61.575,-58.9833,-1381,-29581
336,3671791,9.70908,1.41162,0.0143555,90.5164,-81.7603,54.9316,-0.0610352,0.12207,-0.305176,0.257721,0.688965,-0.161011,0.657928,-141.233,-61.575,-58.975,-1381,-29581
342,3671797,9.69951,1.42119,-0.00957031,90.5109,-81.7603,54.9371,0.183105,0,0,0.257751,0.688965,-0.161011,0.657928,-141.2,-61.575,-58.875,-1381,-29581
348,3671803,9.69951,1.42598,0,90.5109,-81.7548,54.9371,0,0,-0.183105,0.257751,0.688965,-0.161011,0.657928,-141.167,-61.5833,-58.8583,-1381,-29581
354,3671809,9.71387,1.41162,-0.00478516,90.5164,-81.7603,54.9371,0,-0.0610352,0.0610352,0.257751,0.688965,-0.161011,0.657928,-141.142,-61.5917,-58.85,-1381,-29581
360,3671815,9.71865,1.39727,0.0239258,90.5109,-81.7603,54.9371,0.0610352,0,0.0610352,0.257751,0.688965,-0.161011,0.657928,-141.142,-61.6083,-58.8417,-1381,-29581
366,3671821,9.69951,1.40684,-0.0191406,90.5164,-81.7603,54.9371,0.0610352,-0.183105,0.12207,0.257751,0.688965,-0.161011,0.657928,-141.142,-61.625,-58.8333,-1381,-29581
372,3671827,9.72822,1.40205,-0.0239258,90.5328,-81.7603,54.9152,0.12207,-0.366211,0.305176,0.257721,0.688965,-0.161041,0.657898,-141.167,-61.625,-58.775,-1381,-29581
378,3671833,9.68516,1.3877,-0.0191406,90.5438,-81.7603,54.9042,-0.0610352,-0.366211,0.427246,0.257721,0.688965,-0.161072,0.657898,-141.2,-61.6167,-58.8,-1381,-29581
384,3671839,9.69951,1.39727,-0.0239258,90.5548,-81.7657,54.8932,-0.12207,-0.305176,0.183105,0.257721,0.688995,-0.161072,0.657898,-141.225,-61.6083,-58.8333,-1381,-29581
390,3671845,9.71865,1.38291,-0.0239258,90.5658,-81.7657,54.8822,0.12207,-0.305176,0.183105,0.257721,0.688995,-0.161072,0.657898,-141.258,-61.6083,-58.8667,-1381,-29581
396,3671851,9.73301,1.3877,-0.00957031,90.5713,-81.7657,54.8712,0,-0.12207,-0.0610352,0.257721,0.688995,-0.161102,0.657898,-141.283,-61.6083,-58.9,-1381,-29581
402,3671857,9.72344,1.40684,0,90.5768,-81.7657,54.8712,0.12207,-0.0610352,0.244141,0.25769,0.688995,-0.161102,0.657867,-141.275,-61.625,-58.9667,-1381,-29581
408,3671863,9.72344,1.42598,-0.00957031,90.5768,-81.7657,54.8712,0,0,0,0.25769,0.688995,-0.161102,0.657867,-141.275,-61.6333,-59.0083,-1381,-29581
414,3671869,9.71387,1.42598,-0.0478516,90.5768,-81.7657,54.8712,0,0,-0.305176,0.257721,0.688995,-0.161102,0.657867,-141.275,-61.6417,-59.05,-1381,-29581
420,3671875,9.73301,1.42119,0,90.5713,-81.7657,54.8767,0,0.12207,0,0.257721,0.688995,-0.161102,0.657867,-141.267,-61.6333,-59.0917,-1381,-29581
426,3671881,9.67559,1.40684,-0.00478516,90.5438,-81.7657,54.9042,-0.12207,0.427246,0.0610352,0.257721,0.688995,-0.161102,0.657898,-141.25,-61.6333,-59.1167,-1381,-29581
432,3671887,9.69951,1.42598,-0.00478516,90.5328,-81.7657,54.9152,-0.0610352,0.244141,-0.244141,0.257751,0.688965,-0.161072,0.657898,-141.225,-61.6333,-59.1167,-1381,-29581
438,3671893,9.69951,1.40684,-0.00478516,90.5273,-81.7603,54.9207,0.0610352,0.244141,-0.183105,0.257751,0.688965,-0.161072,0.657928,-141.242,-61.6333,-59.1167,-1381,-29581
444,3671899,9.7043,1.43076,0,90.5164,-81.7603,54.9316,-0.12207,0.305176,-0.244141,0.257751,0.688934,-0.161072,0.657928,-141.258,-61.625,-59.1,-1381,-29581
450,3671905,9.71387,1.40684,-0.0287109,90.4944,-81.7603,54.9536,0,0.549316,0,0.257751,0.688934,-0.161041,0.657928,-141.267,-61.6167,-59.0667,-1381,-29581
456,3671911,9.72822,1.42119,0.0287109,90.4779,-81.7603,54.9701,0,0.244141,0,0.257782,0.688934,-0.161041,0.657928,-141.275,-61.6,-59.0083,-1381,-29581
462,3671917,9.66602,1.40684,0,90.4724,-81.7603,54.9701,-0.0610352,0,0,0.257782,0.688904,-0.161041,0.657959,-141.258,-61.6083,-58.925,-1381,-29581
468,3671923,9.69473,1.40684,0.00957031,90.4779,-81.7603,54.9701,0.0610352,-0.0610352,0.0610352,0.257782,0.688904,-0.161041,0.657959,-141.267,-61.6083,-58.9333,-1381,-29581
474,3671929,9.71865,1.40684,-0.00478516,90.4834,-81.7603,54.9591,0.0610352,-0.244141,0.427246,0.257751,0.688934,-0.161072,0.657928,-141.258,-61.6,-58.95,-1381,-29581
480,3671935,9.72822,1.39727,0.0143555,90.4889,-81.7603,54.9536,0.0610352,-0.183105,0.0610352,0.257751,0.688934,-0.161072,0.657928,-141.258,-61.575,-58.9833,-1381,-29581
486,3671941,9.69473,1.40205,-0.0334961,90.5273,-81.7603,54.9152,0,-0.488281,0.12207,0.257751,0.688934,-0.161072,0.657928,-141.267,-61.5583,-59.025,-1381,-29581
492,3671947,9.71387,1.3877,-0.0239258,90.5438,-81.7657,54.9042,0.0610352,-0.427246,0.183105,0.257751,0.688965,-0.161102,0.657898,-141.275,-61.5417,-59.0667,-1381,-29581
498,3671953,9.70908,1.42119,-0.0382813,90.5603,-81.7657,54.8822,0.183105,-0.549316,0.0610352,0.257751,0.688995,-0.161102,0.657867,-141.283,-61.5417,-59.0833,-1381,-29581
504,3671959,9.71387,1.42119,-0.0239258,90.5768,-81.7657,54.8657,0,-0.488281,0.0610352,0.257721,0.688995,-0.161102,0.657867,-141.3,-61.5417,-59.1,-1381,-29581
510,3671965,9.69473,1.40205,-0.0382813,90.5823,-81.7657,54.8602,0,-0.183105,0.183105,0.257721,0.688995,-0.161102,0.657867,-141.3,-61.5583,-59.15,-1381,-29581
516,3671971,9.7043,1.42598,-0.0287109,90.5988,-81.7657,54.8492,0.0610352,-0.183105,0.183105,0.257721,0.688995,-0.161102,0.657867,-141.308,-61.575,-59.2,-1381,-29581
522,3671977,9.7043,1.41162,-0.0143555,90.5988,-81.7657,54.8492,0,0,-0.305176,0.257721,0.689026,-0.161102,0.657837,-141.283,-61.5917,-59.2583,-1381,-29581
528,3671983,9.71387,1.43555,-0.00957031,90.5878,-81.7657,54.8547,-0.0610352,0.183105,0,0.257721,0.688995,-0.161102,0.657867,-141.267,-61.6,-59.2667,-1372,-29582
534,3671989,9.70908,1.44033,-0.0287109,90.5823,-81.7603,54.8602,0,0.183105,-0.488281,0.257751,0.688995,-0.161072,0.657867,-141.242,-61.6083,-59.225,-1372,-29582
540,3671995,9.71387,1.41162,-0.00478516,90.5823,-81.7603,54.8657,0.183105,0.0610352,0,0.257751,0.688995,-0.161072,0.657867,-141.233,-61.625,-59.2083,-1372,-29582
546,3672001,9.69473,1.42119,-0.00957031,90.5493,-81.7548,54.8987,-0.0610352,0.427246,-0.427246,0.257751,0.688995,-0.161041,0.657867,-141.25,-61.6417,-59.1667,-1372,-29582
552,3672007,9.75215,1.35898,-0.00957031,90.5328,-81.7548,54.9152,-0.12207,0.427246,-0.488281,0.257782,0.688965,-0.161011,0.657898,-141.25,-61.7083,-59.1333,-1372,-29582
558,3672013,9.80957,1.41641,-0.00957031,90.5164,-81.7548,54.9261,0,0.427246,0.0610352,0.257813,0.688965,-0.161011,0.657898,-141.25,-61.7417,-59.1583,-1372,-29582
564,3672019,9.41719,1.36377,0,90.5054,-81.7493,54.9426,0,0.427246,-0.305176,0.257813,0.688965,-0.161011,0.657898,-141.242,-61.7667,-59.1667,-1372,-29582
570,3672025,9.80957,1.42598,0.00957031,90.4999,-81.7493,54.9481,-0.12207,0.0610352,-0.0610352,0.257813,0.688965,-0.16098,0.657898,-141.233,-61.7917,-59.175,-1372,-29582
576,3672031,9.85264,1.43076,0,90.5054,-81.7548,54.9426,0.183105,-0.244141,0,0.257813,0.688934,-0.161011,0.657928,-141.233,-61.7833,-59.1833,-1372,-29582
582,3672037,9.63252,1.36377,-0.0191406,90.5109,-81.7493,54.9371,0,-0.0610352,-0.427246,0.257813,0.688965,-0.16098,0.657898,-141.217,-61.7583,-59.1583,-1372,-29582
588,3672043,9.80479,1.4499,-0.0191406,90.5164,-81.7493,54.9316,0,-0.244141,0.0610352,0.257813,0.688965,-0.16098,0.657898,-141.217,-61.7333,-59.1167,-1372,-29582
594,3672049,9.61338,1.40205,-0.00478516,90.5273,-81.7493,54.9207,0,-0.366211,0,0.257813,0.688965,-0.16098,0.657898,-141.225,-61.7167,-59.0833,-1372,-29582
600,3672055,9.68994,1.44033,-0.0382813,90.5438,-81.7493,54.9042,-0.183105,-0.366211,-0.183105,0.257813,0.688995,-0.161011,0.657867,-141.208,-61.7083,-59.05,-1372,-29582
606,3672061,9.78086,1.41641,-0.00478516,90.5548,-81.7493,54.8932,0,-0.305176,0,0.257813,0.688995,-0.16098,0.657867,-141.225,-61.725,-59.075,-1372,-29582
612,3672067,9.64209,1.41162,-0.00957031,90.5603,-81.7493,54.8822,0.12207,-0.183105,-0.0610352,0.257813,0.688995,-0.16098,0.657867,-141.233,-61.7333,-59.1167,-1372,-29582
618,3672073,9.79521,1.42598,-0.00478516,90.5713,-81.7493,54.8767,0,-0.183105,0,0.257813,0.689026,-0.161011,0.657837,-141.258,-61.7167,-59.1333,-1372,-29582
624,3672079,9.71387,1.42119,-0.0191406,90.5768,-81.7493,54.8712,0.12207,-0.183105,0.0610352,0.257813,0.689026,-0.161011,0.657837,-141.292,-61.7083,-59.1667,-1372,-29582
630,3672085,9.68037,1.38291,-0.0143555,90.5768,-81.7493,54.8712,0,0,0.0610352,0.257813,0.689026,-0.161011,0.657837,-141.342,-61.7,-59.1583,-1372,-29582
636,3672091,9.72822,1.44512,-0.00957031,90.5713,-81.7493,54.8767,0,0.183105,0.12207,0.257813,0.689026,-0.16098,0.657837,-141.383,-61.6917,-59.0083,-1372,-29582
642,3672097,9.65166,1.42598,-0.00957031,90.5658,-81.7493,54.8767,-0.12207,0.0610352,-0.183105,0.257813,0.689026,-0.16098,0.657837,-141.392,-61.7,-58.9083,-1372,-29582
648,3672103,9.72822,1.43076,0.00957031,90.5603,-81.7493,54.8877,0,0.183105,0.0610352,0.257813,0.688995,-0.16098,0.657837,-141.392,-61.7083,-58.8167,-1372,-29582
654,3672109,9.68994,1.41162,-0.0382813,90.5493,-81.7438,54.8987,0.0610352,0.305176,-0.366211,0.257843,0.688995,-0.16098,0.657867,-141.383,-61.7083,-58.775,-1372,-29582
660,3672115,9.69473,1.41641,0.00957031,90.5328,-81.7438,54.9097,0,0.427246,0.0610352,0.257843,0.688995,-0.16098,0.657867,-141.367,-61.7167,-58.7917,-1372,-29582
666,3672121,9.71865,1.42119,0,90.5164,-81.7438,54.9316,0,0.366211,-0.0610352,0.257843,0.688995,-0.16098,0.657867,-141.35,-61.7417,-58.85,-1372,-29582
672,3672127,9.68037,1.38291,0,90.5054,-81.7438,54.9426,0.12207,0.305176,0.244141,0.257843,0.688965,-0.16098,0.657898,-141.35,-61.7417,-58.8667,-1372,-29582
678,3672133,9.71387,1.40684,0,90.4999,-81.7438,54.9426,-0.12207,0.0610352,0,0.257843,0.688965,-0.16098,0.657898,-141.342,-61.7417,-58.8917,-1372,-29582
684,3672139,9.73779,1.40684,0.0143555,90.4999,-81.7438,54.9426,-0.0610352,0,0.0610352,0.257874,0.688965,-0.16098,0.657898,-141.35,-61.7167,-58.8917,-1372,-29582
690,3672145,9.71387,1.38291,0,90.5054,-81.7493,54.9371,0.0610352,-0.183105,0.488281,0.257843,0.688965,-0.16098,0.657898,-141.358,-61.6917,-58.925,-1372,-29582
696,3672151,9.71387,1.40205,-0.00478516,90.5328,-81.7493,54.9097,0.0610352,-0.366211,0,0.257843,0.688965,-0.161011,0.657867,-141.375,-61.6583,-58.9833,-1372,-29582
702,3672157,9.69473,1.43076,-0.00478516,90.5548,-81.7493,54.8877,-0.0610352,-0.610352,0.0610352,0.257843,0.688995,-0.161041,0.657837,-141.358,-61.675,-58.9917,-1372,-29582
708,3672163,9.68516,1.40684,0,90.5658,-81.7493,54.8767,0.12207,-0.305176,0.366211,0.257813,0.688995,-0.161041,0.657837,-141.342,-61.7,-59.0417,-1372,-29582
714,3672169,9.69951,1.41641,-0.0382813,90.5768,-81.7493,54.8657,0.0610352,-0.366211,0.0610352,0.257813,0.688995,-0.161041,0.657837,-141.325,-61.7167,-59.075,-1372,-29582
720,3672175,9.69951,1.41162,-0.0334961,90.5988,-81.7548,54.8438,-0.0610352,-0.610352,0.0610352,0.257813,0.689026,-0.161072,0.657806,-141.308,-61.75,-59.125,-1372,-29582
726,3672181,9.70908,1.41162,-0.0191406,90.5988,-81.7493,54.8438,0,0.12207,0.12207,0.257813,0.689026,-0.161072,0.657806,-141.267,-61.7833,-59.2417,-1372,-29582
732,3672187,9.72344,1.42119,-0.0287109,90.5933,-81.7493,54.8438,-0.0610352,0.0610352,-0.183105,0.257843,0.689026,-0.161072,0.657806,-141.258,-61.8,-59.2583,-1372,-29582
738,3672193,9.7043,1.41162,-0.00957031,90.5933,-81.7493,54.8492,0,0.12207,-0.0610352,0.257843,0.689026,-0.161072,0.657806,-141.258,-61.8167,-59.2083,-1372,-29582
744,3672199,9.7043,1.42598,-0.0143555,90.5823,-81.7493,54.8602,0,0.305176,0.0610352,0.257843,0.688995,-0.161041,0.657837,-141.275,-61.8167,-59.15,-1372,-29582
750,3672205,9.71865,1.41641,-0.00957031,90.5713,-81.7493,54.8657,0,0.244141,-0.305176,0.257843,0.688995,-0.161041,0.657837,-141.283,-61.8167,-59.1083,-1372,-29582
756,3672211,9.68516,1.41162,-0.00957031,90.5438,-81.7438,54.8932,0,0.427246,-0.427246,0.257874,0.688995,-0.161041,0.657837,-141.3,-61.7833,-59.0583,-1372,-29582
762,3672217,9.68994,1.39248,0,90.5273,-81.7438,54.9097,0,0.427246,0,0.257874,0.688965,-0.161011,0.657867,-141.317,-61.775,-59.0417,-1381,-29581
768,3672223,9.69951,1.40205,0.00478516,90.5219,-81.7438,54.9207,0,0.244141,0,0.257874,0.688965,-0.161011,0.657867,-141.333,-61.75,-59,-1381,-29581
774,3672229,9.70908,1.40205,0.00478516,90.5054,-81.7438,54.9316,0.0610352,0.427246,0.12207,0.257874,0.688965,-0.161011,0.657867,-141.342,-61.7333,-58.9583,-1381,-29581
780,3672235,9.7043,1.41641,-0.0239258,90.4944,-81.7438,54.9481,0,0.366211,0,0.257874,0.688934,-0.161011,0.657898,-141.35,-61.7167,-58.9417,-1381,-29581
786,3672241,9.68994,1.39248,0.0191406,90.4889,-81.7438,54.9481,0.0610352,0.0610352,0.0610352,0.257874,0.688934,-0.161011,0.657898,-141.342,-61.7,-58.9917,-1381,-29581
792,3672247,9.68994,1.39727,-0.0143555,90.4944,-81.7438,54.9481,0,-0.0610352,-0.0610352,0.257874,0.688934,-0.161011,0.657898,-141.333,-61.7083,-59.0083,-1381,-29581
798,3672253,9.71387,1.40205,-0.00478516,90.4999,-81.7493,54.9426,-0.12207,-0.183105,0.183105,0.257874,0.688934,-0.161011,0.657898,-141.342,-61.7083,-59.0167,-1381,-29581
804,3672259,9.71387,1.3877,-0.0287109,90.5054,-81.7493,54.9316,0,-0.244141,0.305176,0.257874,0.688965,-0.161011,0.657867,-141.35,-61.6917,-59.0167,-1381,-29581
810,3672265,9.71387,1.40684,-0.0143555,90.5109,-81.7493,54.9261,-0.0610352,-0.183105,0,0.257874,0.688965,-0.161041,0.657867,-141.35,-61.6667,-59.0417,-1381,-29581
816,3672271,9.71387,1.42598,-0.0143555,90.5383,-81.7493,54.8987,0.0610352,-0.488281,0.183105,0.257874,0.688965,-0.161041,0.657867,-141.308,-61.6583,-59.0667,-1381,-29581
822,3672277,9.69473,1.42598,-0.00957031,90.5603,-81.7493,54.8767,0.0610352,-0.671387,0.244141,0.257843,0.688995,-0.161072,0.657837,-141.283,-61.6667,-59.0333,-1381,-29581
828,3672283,9.72344,1.39727,-0.0143555,90.5768,-81.7548,54.8602,0,-0.488281,0.0610352,0.257843,0.688995,-0.161072,0.657837,-141.283,-61.675,-58.9833,-1381,-29581
834,3672289,9.69951,1.42119,-0.0239258,90.5878,-81.7548,54.8492,0,-0.305176,0.0610352,0.257843,0.689026,-0.161072,0.657806,-141.283,-61.6583,-58.9583,-1381,-29581
840,3672295,9.7043,1.3877,-0.00478516,90.5933,-81.7548,54.8438,-0.0610352,-0.183105,0.0610352,0.257843,0.689026,-0.161102,0.657806,-141.3,-61.6583,-58.9833,-1381,-29581
846,3672301,9.69473,1.39248,-0.00478516,90.5933,-81.7493,54.8438,-0.0610352,0.0610352,-0.12207,0.257843,0.689026,-0.161072,0.657806,-141.342,-61.6833,-59.0417,-1381,-29581
852,3672307,9.69951,1.41162,-0.0287109,90.5878,-81.7493,54.8438,0,0.12207,-0.12207,0.257843,0.689026,-0.161072,0.657806,-141.35,-61.7,-59.025,-1381,-29581
858,3672313,9.70908,1.39727,-0.00478516,90.5823,-81.7493,54.8547,-0.12207,0.183105,0,0.257843,0.688995,-0.161072,0.657806,-141.358,-61.7083,-59.0083,-1381,-29581
864,3672319,9.7043,1.43076,-0.00957031,90.5658,-81.7493,54.8657,0,0.427246,-0.305176,0.257874,0.688995,-0.161072,0.657837,-141.35,-61.7083,-58.9917,-1381,-29581
870,3672325,9.69473,1.42119,-0.0191406,90.5493,-81.7493,54.8822,0,0.488281,0,0.257874,0.688995,-0.161072,0.657837,-141.333,-61.7,-58.9917,-1381,-29581
876,3672331,9.68037,1.41641,-0.0239258,90.5273,-81.7493,54.9097,-0.0610352,0.366211,0,0.257874,0.688965,-0.161041,0.657867,-141.308,-61.6583,-59.025,-1381,-29581
882,3672337,9.68994,1.40205,0,90.5164,-81.7493,54.9207,0,0.305176,-0.0610352,0.257874,0.688965,-0.161041,0.657867,-141.3,-61.6417,-59.05,-1381,-29581
888,3672343,9.72344,1.39727,0.00478516,90.4999,-81.7493,54.9371,0,0.427246,0,0.257904,0.688934,-0.161041,0.657867,-141.283,-61.625,-59.0417,-1381,-29581
894,3672349,9.7043,1.41641,0,90.4944,-81.7493,54.9426,-0.12207,0.12207,0,0.257904,0.688934,-0.161041,0.657867,-141.258,-61.6333,-59,-1381,-29581
900,3672355,9.7043,1.39248,-0.00478516,90.4944,-81.7493,54.9426,0,0.0610352,0,0.257904,0.688934,-0.161041,0.657867,-141.25,-61.6417,-58.9667,-1381,-29581
906,3672361,9.69951,1.42119,0,90.4889,-81.7493,54.9426,0,0.0610352,0.183105,0.257904,0.688934,-0.161041,0.657898,-141.242,-61.65,-58.925,-1381,-29581
912,3672367,9.70908,1.39248,0,90.4944,-81.7493,54.9426,0,-0.0610352,0.12207,0.257874,0.688934,-0.161041,0.657898,-141.25,-61.65,-58.95,-1381,-29581
918,3672373,9.70908,1.42119,0,90.5054,-81.7493,54.9316,0,-0.366211,0.0610352,0.257874,0.688934,-0.161041,0.657867,-141.242,-61.65,-58.9667,-1381,-29581
924,3672379,9.71865,1.3877,-0.00957031,90.5219,-81.7493,54.9152,0.244141,-0.427246,0.244141,0.257874,0.688965,-0.161072,0.657867,-141.242,-61.6333,-58.9917,-1381,-29581
930,3672385,9.7043,1.40205,-0.00957031,90.5328,-81.7548,54.9042,0,-0.305176,0.305176,0.257874,0.688965,-0.161072,0.657867,-141.225,-61.625,-58.9667,-1381,-29581
936,3672391,9.70908,1.39248,-0.00478516,90.5548,-81.7548,54.8822,0,-0.305176,0.0610352,0.257843,0.688965,-0.161102,0.657837,-141.217,-61.6,-58.925,-1381,-29581
942,3672397,9.69951,1.42598,-0.0191406,90.5548,-81.7548,54.8767,0,-0.0610352,0,0.257874,0.688965,-0.161102,0.657837,-141.242,-61.6,-58.8583,-1381,-29581
948,3672403,9.68994,1.44512,-0.00478516,90.5548,-81.7548,54.8767,0,-0.0610352,-0.0610352,0.257874,0.688965,-0.161102,0.657837,-141.267,-61.6,-58.8083,-1381,-29581
954,3672409,9.68516,1.40684,0,90.5603,-81.7548,54.8767,0,-0.0610352,0,0.257874,0.688995,-0.161102,0.657837,-141.3,-61.6,-58.75,-1381,-29581
960,3672415,9.74736,1.40684,0,90.5548,-81.7548,54.8767,0.0610352,0.0610352,-0.0610352,0.257874,0.688965,-0.161102,0.657837,-141.35,-61.6083,-58.7,-1381,-29581
966,3672421,9.69473,1.40684,-0.0239258,90.5438,-81.7493,54.8932,0,0.305176,-0.244141,0.257874,0.688965,-0.161072,0.657837,-141.392,-61.6333,-58.6917,-1381,-29581
972,3672427,9.7043,1.42119,-0.0478516,90.5328,-81.7493,54.8987,0.0610352,0.183105,-0.0610352,0.257874,0.688965,-0.161072,0.657837,-141.4,-61.625,-58.7167,-1381,-29581
978,3672433,9.71387,1.41162,-0.0191406,90.5219,-81.7493,54.9097,0,0.366211,-0.12207,0.257904,0.688965,-0.161072,0.657867,-141.4,-61.625,-58.7333,-1381,-29581
984,3672439,9.71387,1.42119,0,90.5164,-81.7493,54.9152,0,0.12207,0,0.257904,0.688965,-0.161072,0.657867,-141.408,-61.6083,-58.7917,-1381,-29581
990,3672445,9.69951,1.41641,-0.0143555,90.5109,-81.7493,54.9207,0.183105,0.244141,0,0.257904,0.688934,-0.161072,0.657867,-141.425,-61.5833,-58.8667,-1381,-29581
996,3672451,9.71387,1.41162,-0.0191406,90.4999,-81.7493,54.9316,0,0.0610352,0,0.257904,0.688934,-0.161041,0.657867,-141.433,-61.575,-58.9333,-1381,-29581
1002,3672457,9.69951,1.42119,-0.00957031,90.5054,-81.7493,54.9316,0,-0.0610352,-0.366211,0.257904,0.688934,-0.161041,0.657867,-141.433,-61.5833,-58.9417,-1381,-29581
1008,3672463,9.68516,1.40684,-0.00478516,90.5054,-81.7493,54.9316,0,0,0,0.257904,0.688934,-0.161041,0.657867,-141.425,-61.5833,-58.9583,-1381,-29581
1014,3672469,9.68037,1.41162,-0.00957031,90.5109,-81.7493,54.9261,0,-0.12207,0.305176,0.257904,0.688934,-0.161041,0.657867,-141.417,-61.5917,-58.975,-1381,-29581
1020,3672475,9.71865,1.42119,-0.00957031,90.5109,-81.7493,54.9261,0,-0.366211,0.0610352,0.257874,0.688934,-0.161041,0.657867,-141.4,-61.6,-59.0083,-1381,-29581
1026,3672481,9.71387,1.40205,-0.0239258,90.5328,-81.7493,54.9042,0.0610352,-0.183105,0.244141,0.257874,0.688965,-0.161072,0.657867,-141.392,-61.6083,-59.05,-1381,-29581
1032,3672487,9.7043,1.41162,-0.0334961,90.5383,-81.7493,54.8987,0,-0.183105,0.12207,0.257874,0.688965,-0.161072,0.657867,-141.383,-61.6167,-59.05,-1381,-29581
1038,3672493,9.69951,1.39248,-0.0191406,90.5438,-81.7493,54.8932,-0.0610352,-0.244141,0.12207,0.257874,0.688965,-0.161072,0.657837,-141.383,-61.6,-59.0667,-1381,-29581
1044,3672499,9.71387,1.3877,-0.00478516,90.5493,-81.7493,54.8877,-0.0610352,-0.0610352,0,0.257874,0.688965,-0.161072,0.657837,-141.383,-61.5917,-59.0917,-1381,-29581
1050,3672505,9.72822,1.41162,-0.00957031,90.5548,-81.7548,54.8822,0,-0.183105,0.305176,0.257843,0.688995,-0.161072,0.657837,-141.375,-61.575,-59.1333,-1381,-29581
1056,3672511,9.68037,1.41162,-0.0287109,90.5658,-81.7548,54.8712,0.0610352,-0.12207,0,0.257843,0.688995,-0.161102,0.657837,-141.325,-61.55,-59.1583,-1381,-29581
1062,3672517,9.71865,1.39727,0.00478516,90.5713,-81.7548,54.8657,0.0610352,-0.183105,0.12207,0.257843,0.688995,-0.161102,0.657837,-141.308,-61.55,-59.15,-1381,-29581
1068,3672523,9.68994,1.40684,-0.00957031,90.5713,-81.7548,54.8657,0,0.0610352,0.0610352,0.257843,0.688995,-0.161102,0.657837,-141.308,-61.5667,-59.1417,-1381,-29581
1074,3672529,9.71865,1.42598,-0.0191406,90.5658,-81.7548,54.8712,0.0610352,0.183105,-0.366211,0.257843,0.688995,-0.161072,0.657837,-141.325,-61.5917,-59.1167,-1381,-29581
1080,3672535,9.70908,1.40205,0,90.5603,-81.7548,54.8767,0,0.244141,-0.305176,0.257843,0.688995,-0.161072,0.657837,-141.35,-61.6083,-59.1,-1381,-29581
1086,3672541,9.72822,1.41162,-0.0143555,90.5383,-81.7493,54.8987,0,0.366211,-0.12207,0.257874,0.688965,-0.161041,0.657867,-141.392,-61.6333,-59.0667,-1381,-29581
1092,3672547,9.71865,1.41162,-0.0191406,90.5219,-81.7493,54.9152,-0.12207,0.427246,0,0.257874,0.688965,-0.161041,0.657867,-141.392,-61.6417,-59.0333,-1381,-29581
1098,3672553,9.71387,1.43555,-0.0239258,90.5109,-81.7493,54.9261,0.0610352,0.305176,0,0.257874,0.688965,-0.161041,0.657867,-141.375,-61.6417,-59.0083,-1381,-29581
1104,3672559,9.68516,1.3877,0,90.5054,-81.7493,54.9316,0,0.244141,0.0610352,0.257874,0.688934,-0.161041,0.657898,-141.35,-61.6417,-59.0083,-1381,-29581
1110,3672565,9.71387,1.39727,0.0191406,90.4889,-81.7493,54.9481,-0.0610352,0.0610352,0,0.257874,0.688934,-0.161041,0.657898,-141.317,-61.6333,-59,-1381,-29581
1116,3672571,9.71387,1.39248,-0.00478516,90.4944,-81.7493,54.9426,0,-0.12207,0.12207,0.257843,0.688934,-0.161041,0.657898,-141.242,-61.6167,-58.9833,-1381,-29581
1122,3672577,9.69951,1.43076,-0.00478516,90.4999,-81.7548,54.9426,0,-0.12207,0.244141,0.257843,0.688934,-0.161041,0.657898,-141.217,-61.6167,-58.9667,-1381,-29581
1128,3672583,9.71865,1.41641,0.00957031,90.5054,-81.7548,54.9371,0,-0.12207,0.244141,0.257843,0.688934,-0.161041,0.657898,-141.208,-61.6167,-58.9583,-1381,-29581
1134,3672589,9.68037,1.40684,-0.00478516,90.5164,-81.7548,54.9207,0,-0.427246,0.12207,0.257843,0.688965,-0.161041,0.657898,-141.192,-61.625,-58.95,-1381,-29581
1140,3672595,9.72822,1.41162,-0.00957031,90.5438,-81.7548,54.8932,-0.0610352,-0.366211,0.12207,0.257843,0.688965,-0.161072,0.657867,-141.2,-61.6333,-58.9417,-1381,-29581
1146,3672601,9.71387,1.40684,-0.00957031,90.5548,-81.7548,54.8822,0.12207,-0.305176,0.183105,0.257813,0.688995,-0.161072,0.657867,-141.192,-61.6333,-58.9417,-1381,-29581
1152,3672607,9.71387,1.41641,-0.00478516,90.5658,-81.7548,54.8712,0,-0.366211,0,0.257813,0.688995,-0.161072,0.657837,-141.183,-61.6333,-58.9667,-1381,-29581
1158,3672613,9.70908,1.39248,-0.0239258,90.5713,-81.7548,54.8712,0.0610352,-0.0610352,0.0610352,0.257813,0.688995,-0.161102,0.657837,-141.175,-61.625,-58.9583,-1381,-29581
1164,3672619,9.72344,1.40684,-0.0382813,90.5713,-81.7548,54.8657,0.0610352,-0.0610352,0.0610352,0.257813,0.688995,-0.161102,0.657837,-141.158,-61.625,-58.9583,-1381,-29581
1170,3672625,9.71387,1.39248,-0.00478516,90.5823,-81.7548,54.8602,0,-0.244141,0.0610352,0.257813,0.688995,-0.161102,0.657837,-141.158,-61.6333,-58.975,-1381,-29581
1176,3672631,9.71865,1.39727,-0.0287109,90.5823,-81.7603,54.8602,0,0,0.305176,0.257813,0.688995,-0.161102,0.657837,-141.192,-61.6667,-59.0667,-1381,-29581
1182,3672637,9.69473,1.41162,-0.0239258,90.5823,-81.7603,54.8547,-0.0610352,-0.0610352,0,0.257813,0.688995,-0.161102,0.657837,-141.208,-61.6833,-59.1167,-1381,-29581
1188,3672643,9.69951,1.40684,-0.0143555,90.5823,-81.7603,54.8547,-0.0610352,0,0.0610352,0.257813,0.688995,-0.161102,0.657837,-141.233,-61.7083,-59.1583,-1381,-29581
1194,3672649,9.71387,1.41162,-0.0191406,90.5768,-81.7603,54.8602,0,0.12207,0.0610352,0.257813,0.688995,-0.161102,0.657837,-141.217,-61.725,-59.1583,-1381,-29581
1200,3672655,9.69951,1.39248,0,90.5548,-81.7548,54.8822,0,0.427246,-0.244141,0.257813,0.688995,-0.161102,0.657837,-141.225,-61.7333,-59.15,-1381,-29581
1206,3672661,9.70908,1.40684,0,90.5548,-81.7548,54.8877,-0.12207,0.0610352,-0.366211,0.257843,0.688965,-0.161072,0.657867,-141.208,-61.775,-59.0167,-1381,-29581
1212,3672667,9.69951,1.41641,0,90.5383,-81.7548,54.9042,0,0.427246,-0.183105,0.257843,0.688965,-0.161072,0.657867,-141.2,-61.8,-58.925,-1381,-29581
1218,3672673,9.7043,1.43076,-0.00957031,90.5273,-81.7548,54.9097,-0.0610352,0.305176,-0.0610352,0.257843,0.688965,-0.161072,0.657867,-141.183,-61.8167,-58.8333,-1381,-29581
1224,3672679,9.70908,1.42119,0,90.5219,-81.7548,54.9152,-0.0610352,0.0610352,-0.0610352,0.257843,0.688965,-0.161072,0.657867,-141.167,-61.8417,-58.7167,-1381,-29581
1230,3672685,9.67559,1.40205,0,90.5164,-81.7548,54.9207,-0.0610352,0.183105,0.183105,0.257843,0.688965,-0.161041,0.657867,-141.158,-61.8667,-58.6167,-1381,-29581
1236,3672691,9.71387,1.39727,-0.0143555,90.5164,-81.7548,54.9207,0.0610352,-0.0610352,0.12207,0.257843,0.688965,-0.161072,0.657867,-141.167,-61.8917,-58.4667,-1381,-29581
1242,3672697,9.71387,1.38291,-0.0143555,90.5219,-81.7548,54.9152,0.0610352,-0.183105,0,0.257843,0.688965,-0.161072,0.657867,-141.175,-61.9083,-58.4083,-1381,-29581
1248,3672703,9.68516,1.41162,-0.00957031,90.5328,-81.7548,54.9042,0,-0.305176,0.305176,0.257843,0.688965,-0.161072,0.657867,-141.175,-61.9083,-58.375,-1381,-29581
1254,3672709,9.68994,1.39248,0,90.5438,-81.7548,54.8932,0,-0.244141,0,0.257843,0.688965,-0.161072,0.657867,-141.183,-61.9167,-58.3417,-1381,-29581
1260,3672715,9.7043,1.40684,-0.0191406,90.5548,-81.7548,54.8822,-0.0610352,-0.366211,0.0610352,0.257813,0.688965,-0.161072,0.657867,-141.192,-61.9083,-58.3583,-1381,-29581
1266,3672721,9.72344,1.39727,-0.0287109,90.5658,-81.7548,54.8767,0.0610352,-0.183105,-0.0610352,0.257813,0.688995,-0.161102,0.657837,-141.167,-61.9,-58.4,-1381,-29581
1272,3672727,9.7043,1.41162,-0.00957031,90.5658,-81.7548,54.8712,0.0610352,-0.0610352,0.0610352,0.257813,0.688995,-0.161102,0.657837,-141.183,-61.875,-58.4167,-1381,-29581
1278,3672733,9.69951,1.39248,-0.0239258,90.5768,-81.7603,54.8602,0,-0.305176,0.366211,0.257813,0.688995,-0.161102,0.657837,-141.192,-61.8667,-58.3917,-1381,-29581
1284,3672739,9.71865,1.39248,-0.0143555,90.5768,-81.7603,54.8602,-0.0610352,-0.0610352,0,0.257813,0.688995,-0.161102,0.657837,-141.208,-61.8583,-58.3667,-1381,-29581
1290,3672745,9.68994,1.37813,0,90.5823,-81.7603,54.8547,0,-0.12207,0.0610352,0.257813,0.688995,-0.161102,0.657837,-141.258,-61.8167,-58.3333,-1381,-29581
1296,3672751,9.71387,1.43076,-0.0239258,90.5768,-81.7603,54.8657,0,0.244141,0.0610352,0.257813,0.688995,-0.161102,0.657837,-141.267,-61.8167,-58.3167,-1381,-29581
1302,3672757,9.69473,1.41162,-0.0239258,90.5768,-81.7603,54.8602,0,-0.0610352,0.12207,0.257782,0.688995,-0.161102,0.657837,-141.258,-61.8083,-58.3083,-1381,-29581
1308,3672763,9.7043,1.41162,-0.0287109,90.5713,-81.7603,54.8657,0,0.183105,0,0.257782,0.688995,-0.161102,0.657837,-141.25,-61.8167,-58.35,-1381,-29581
1314,3672769,9.69473,1.40684,-0.00478516,90.5713,-81.7603,54.8657,0,-0.0610352,0,0.257782,0.688995,-0.161102,0.657837,-141.242,-61.8333,-58.375,-1381,-29581
1320,3672775,9.72344,1.41162,0.0143555,90.5658,-81.7548,54.8767,0,0.244141,-0.366211,0.257782,0.688995,-0.161102,0.657837,-141.2,-61.8917,-58.4333,-1381,-29581
1326,3672781,9.69951,1.42119,-0.0143555,90.5603,-81.7603,54.8767,0.0610352,0.12207,0.0610352,0.257813,0.688995,-0.161102,0.657867,-141.2,-61.9167,-58.4583,-1381,-29581
1332,3672787,9.70908,1.42119,-0.0287109,90.5548,-81.7548,54.8822,0,0.12207,-0.12207,0.257813,0.688965,-0.161072,0.657867,-141.208,-61.925,-58.4833,-1381,-29581
1338,3672793,9.71387,1.41641,-0.0143555,90.5548,-81.7548,54.8877,0,0.12207,0,0.257813,0.688965,-0.161072,0.657867,-141.225,-61.9417,-58.4917,-1381,-29581
1344,3672799,9.73301,1.41641,-0.0334961,90.5493,-81.7548,54.8877,0,0.0610352,0,0.257813,0.688965,-0.161072,0.657867,-141.258,-61.975,-58.4583,-1381,-29581
1350,3672805,9.69473,1.40205,-0.0191406,90.5548,-81.7603,54.8822,-0.0610352,-0.12207,0.0610352,0.257813,0.688965,-0.161102,0.657867,-141.275,-62.025,-58.4083,-1372,-29582
1356,3672811,9.73301,1.37813,0,90.5548,-81.7603,54.8877,0.12207,0.12207,0.12207,0.257782,0.688965,-0.161072,0.657867,-141.267,-62.05,-58.375,-1372,-29582
1362,3672817,9.7043,1.41162,-0.0287109,90.5548,-81.7603,54.8877,0.0610352,0,0.0610352,0.257782,0.688965,-0.161072,0.657867,-141.267,-62.0583,-58.3583,-1372,-29582
1368,3672823,9.72822,1.40205,-0.0287109,90.5548,-81.7603,54.8877,0.12207,0,0.183105,0.257782,0.688965,-0.161072,0.657867,-141.25,-62.0667,-58.35,-1372,-29582
1374,3672829,9.71865,1.41641,0,90.5548,-81.7603,54.8877,0.0610352,-0.0610352,0.12207,0.257782,0.688995,-0.161072,0.657867,-141.25,-62.0667,-58.3417,-1372,-29582
1380,3672835,9.71865,1.41641,-0.0239258,90.5603,-81.7603,54.8822,0,-0.183105,-0.0610352,0.257751,0.688965,-0.161072,0.657867,-141.217,-62.1,-58.375,-1372,-29582
1386,3672841,9.69951,1.40684,-0.00478516,90.5658,-81.7603,54.8767,0,-0.12207,0.366211,0.257751,0.688995,-0.161102,0.657867,-141.192,-62.1167,-58.4083,-1372,-29582
1392,3672847,9.71865,1.41162,-0.0239258,90.5658,-81.7603,54.8767,0.0610352,0,0.0610352,0.257751,0.688995,-0.161102,0.657867,-141.208,-62.1417,-58.45,-1372,-29582
1398,3672853,9.71865,1.40205,-0.0143555,90.5658,-81.7657,54.8767,0,0,0.12207,0.257721,0.688995,-0.161102,0.657867,-141.208,-62.1667,-58.4583,-1372,-29582
1404,3672859,9.68994,1.40684,0,90.5713,-81.7657,54.8712,0,-0.12207,0.12207,0.257721,0.688995,-0.161102,0.657867,-141.233,-62.1833,-58.4583,-1372,-29582
1410,3672865,9.68037,1.42119,-0.00957031,90.5713,-81.7657,54.8712,0,-0.12207,-0.12207,0.257721,0.688995,-0.161102,0.657867,-141.267,-62.2,-58.3833,-1372,-29582
1416,3672871,9.69951,1.42119,-0.0334961,90.5768,-81.7657,54.8712,-0.0610352,-0.0610352,0,0.257721,0.688995,-0.161102,0.657867,-141.292,-62.1917,-58.3083,-1372,-29582
1422,3672877,9.73779,1.40684,-0.00478516,90.5768,-81.7657,54.8712,0,0,0.12207,0.257721,0.688995,-0.161102,0.657867,-141.308,-62.1833,-58.2333,-1372,-29582
1428,3672883,9.7043,1.39248,-0.0239258,90.5768,-81.7657,54.8712,0,-0.0610352,-0.183105,0.257721,0.688995,-0.161072,0.657867,-141.325,-62.1583,-58.1667,-1372,-29582
1434,3672889,9.69473,1.41162,0,90.5823,-81.7603,54.8657,0,-0.0610352,-0.12207,0.257721,0.688995,-0.161072,0.657867,-141.325,-62.1417,-58.1333,-1372,-29582
1440,3672895,9.70908,1.40684,-0.0239258,90.5768,-81.7603,54.8712,-0.0610352,0.12207,-0.12207,0.257721,0.688995,-0.161072,0.657867,-141.325,-62.125,-58.0667,-1372,-29582
1446,3672901,9.71865,1.43076,-0.00957031,90.5768,-81.7603,54.8712,-0.12207,0,-0.0610352,0.257721,0.688995,-0.161072,0.657867,-141.342,-62.1083,-58.0167,-1372,-29582
1452,3672907,9.73301,1.41641,-0.0239258,90.5823,-81.7603,54.8657,-0.0610352,-0.0610352,-0.183105,0.257721,0.688995,-0.161072,0.657867,-141.375,-62.1167,-57.9667,-1372,-29582
1458,3672913,9.72822,1.44033,-0.0287109,90.5878,-81.7603,54.8602,0.0610352,-0.12207,0.427246,0.257721,0.688995,-0.161072,0.657867,-141.408,-62.125,-57.9167,-1372,-29582
1464,3672919,9.69473,1.41162,-0.00957031,90.5878,-81.7603,54.8602,0,0,0,0.257721,0.688995,-0.161072,0.657867,-141.45,-62.1417,-57.875,-1372,-29582
1470,3672925,9.70908,1.42119,-0.0287109,90.5878,-81.7657,54.8602,-0.0610352,-0.0610352,0.305176,0.257721,0.689026,-0.161072,0.657867,-141.442,-62.2083,-57.75,-1381,-29581
1476,3672931,9.71387,1.39248,-0.0143555,90.5933,-81.7657,54.8602,-0.12207,-0.0610352,0,0.25769,0.689026,-0.161072,0.657867,-141.433,-62.225,-57.7,-1381,-29581
1482,3672937,9.69473,1.40684,-0.0239258,90.5933,-81.7657,54.8602,0.0610352,0,0,0.25769,0.689026,-0.161072,0.657867,-141.433,-62.2167,-57.6667,-1381,-29581
1488,3672943,9.7043,1.42119,0.00478516,90.5988,-81.7657,54.8547,0,-0.12207,0.0610352,0.25769,0.689026,-0.161072,0.657867,-141.442,-62.2167,-57.6167,-1381,-29581
1494,3672949,9.7043,1.40684,0,90.5988,-81.7657,54.8547,0,0,-0.12207,0.25769,0.689026,-0.161072,0.657867,-141.45,-62.2167,-57.6,-1381,-29581
1500,3672955,9.71865,1.39248,-0.0239258,90.5878,-81.7657,54.8602,0,0.183105,0.0610352,0.25769,0.689026,-0.161072,0.657867,-141.483,-62.225,-57.45,-1381,-29581
1506,3672961,9.68994,1.42598,-0.00478516,90.5878,-81.7657,54.8657,0,0.0610352,0,0.25769,0.689026,-0.161072,0.657867,-141.483,-62.2333,-57.3667,-1381,-29581
1512,3672967,9.70908,1.41641,0.00478516,90.5823,-81.7657,54.8712,-0.12207,0.183105,0,0.25769,0.688995,-0.161072,0.657867,-141.508,-62.2333,-57.2833,-1381,-29581
1518,3672973,9.70908,1.41641,0,90.5768,-81.7657,54.8712,0,0.12207,0.0610352,0.25769,0.688995,-0.161072,0.657867,-141.542,-62.2167,-57.2333,-1381,-29581
1524,3672979,9.70908,1.41162,-0.00957031,90.5768,-81.7657,54.8767,-0.0610352,0.0610352,0.0610352,0.25769,0.688995,-0.161072,0.657898,-141.575,-62.1833,-57.25,-1381,-29581
1530,3672985,9.69473,1.41641,0.00478516,90.5713,-81.7603,54.8822,0.12207,0.244141,0,0.25769,0.688995,-0.161041,0.657867,-141.642,-62.1667,-57.2583,-1381,-29581
1536,3672991,9.70908,1.42119,-0.0239258,90.5658,-81.7603,54.8822,0,0.0610352,0.0610352,0.257721,0.688995,-0.161041,0.657898,-141.667,-62.1833,-57.25,-1381,-29581
1542,3672997,9.69951,1.42598,0.00478516,90.5658,-81.7603,54.8877,0.305176,0.12207,-0.0610352,0.25769,0.688995,-0.161041,0.657898,-141.692,-62.2083,-57.1917,-1381,-29581
1548,3673003,9.7043,1.39248,-0.0334961,90.5658,-81.7603,54.8877,0,0,0.0610352,0.25769,0.688995,-0.161041,0.657898,-141.717,-62.2333,-57.1417,-1381,-29581
1554,3673009,9.73301,1.41641,-0.0239258,90.5658,-81.7603,54.8822,0.0610352,-0.12207,0,0.25769,0.688995,-0.161041,0.657898,-141.742,-62.2333,-57.075,-1381,-29581
1560,3673015,9.69473,1.40205,-0.0239258,90.5768,-81.7603,54.8767,0,-0.12207,0.0610352,0.25769,0.688995,-0.161041,0.657898,-141.8,-62.2167,-56.9667,-1381,-29581
1566,3673021,9.71387,1.39727,-0.00957031,90.5768,-81.7603,54.8767,-0.0610352,-0.0610352,0.12207,0.25769,0.688995,-0.161041,0.657898,-141.842,-62.2,-56.9333,-1381,-29581
1572,3673027,9.71387,1.41641,0.00957031,90.5823,-81.7657,54.8712,0.0610352,-0.0610352,0.12207,0.25769,0.689026,-0.161041,0.657898,-141.875,-62.2,-56.9333,-1381,-29581
1578,3673033,9.70908,1.40205,-0.0287109,90.5988,-81.7657,54.8547,0.0610352,-0.427246,0,0.25769,0.689026,-0.161041,0.657867,-141.925,-62.2167,-56.975,-1381,-29581
1584,3673039,9.7043,1.40205,-0.00478516,90.6097,-81.7657,54.8492,0,-0.305176,0.183105,0.25766,0.689026,-0.161041,0.657867,-141.958,-62.2333,-57.025,-1381,-29581
1590,3673045,9.71865,1.41162,-0.0239258,90.6097,-81.7657,54.8438,0.0610352,0,0,0.25766,0.689026,-0.161041,0.657867,-142.033,-62.2417,-57.0833,-1381,-29581
1596,3673051,9.69473,1.39727,0,90.6097,-81.7657,54.8438,0,0,0,0.25766,0.689026,-0.161041,0.657867,-142.05,-62.2667,-57.0833,-1381,-29581
1602,3673057,9.68994,1.40205,0.00957031,90.6097,-81.7657,54.8438,0.12207,0,0.244141,0.25766,0.689026,-0.161041,0.657867,-142.05,-62.2833,-57.0833,-1381,-29581
1608,3673063,9.68994,1.41162,-0.0382813,90.6097,-81.7657,54.8438,0,0,0,0.25766,0.689026,-0.161041,0.657867,-142.042,-62.325,-57.0417,-1381,-29581
1614,3673069,9.7043,1.41162,-0.0191406,90.6097,-81.7657,54.8438,0,0,0,0.25766,0.689026,-0.161041,0.657867,-142.05,-62.3417,-57.0417,-1381,-29581
1620,3673075,9.70908,1.42119,-0.00478516,90.5878,-81.7603,54.8657,-0.0610352,0.427246,-0.183105,0.25769,0.689026,-0.161041,0.657867,-142.067,-62.3333,-57.0083,-1381,-29581
1626,3673081,9.71387,1.40684,0.00957031,90.5768,-81.7603,54.8767,0.0610352,0.305176,0,0.25769,0.688995,-0.161041,0.657898,-142.1,-62.3333,-56.9917,-1381,-29581
1632,3673087,9.7043,1.40684,0.0143555,90.5658,-81.7603,54.8877,-0.12207,0.244141,0,0.25769,0.688995,-0.161041,0.657898,-142.125,-62.3167,-56.975,-1381,-29581
1638,3673093,9.7043,1.42598,-0.0287109,90.5548,-81.7603,54.8987,0,0.244141,0,0.25769,0.688995,-0.161041,0.657898,-142.158,-62.3,-56.9833,-1381,-29581
1644,3673099,9.71387,1.40205,-0.0191406,90.5548,-81.7603,54.8987,0,0.0610352,-0.0610352,0.25769,0.688995,-0.161041,0.657898,-142.208,-62.2833,-56.975,-1381,-29581
1650,3673105,9.7043,1.41162,-0.0239258,90.5493,-81.7603,54.9042,0.0610352,0.12207,-0.183105,0.257721,0.688995,-0.161041,0.657898,-142.267,-62.275,-56.9917,-1381,-29581
1656,3673111,9.7043,1.41162,-0.0191406,90.5493,-81.7603,54.9042,0,0,0.0610352,0.257721,0.688995,-0.161041,0.657898,-142.308,-62.2833,-56.9833,-1381,-29581
1662,3673117,9.7043,1.40205,-0.0191406,90.5493,-81.7603,54.8987,-0.0610352,-0.0610352,0.183105,0.25769,0.688995,-0.161041,0.657898,-142.342,-62.2917,-56.9583,-1381,-29581
1668,3673123,9.7043,1.41641,-0.0143555,90.5603,-81.7603,54.8932,0,-0.244141,0,0.25769,0.688995,-0.161041,0.657898,-142.35,-62.3167,-56.925,-1381,-29581
1674,3673129,9.71387,1.40684,-0.00957031,90.5658,-81.7603,54.8877,0,-0.183105,0.0610352,0.25769,0.688995,-0.161041,0.657898,-142.367,-62.3417,-56.875,-1381,-29581
1680,3673135,9.72344,1.40205,-0.0239258,90.5823,-81.7657,54.8712,0.183105,-0.12207,0.427246,0.25769,0.689026,-0.161041,0.657867,-142.4,-62.3917,-56.7667,-1381,-29581
1686,3673141,9.7043,1.42119,-0.00957031,90.5878,-81.7657,54.8657,0,-0.183105,0.0610352,0.25769,0.689026,-0.161041,0.657867,-142.425,-62.4,-56.725,-1381,-29581
1692,3673147,9.74258,1.41162,-0.00957031,90.5933,-81.7657,54.8602,0.183105,-0.12207,0.183105,0.25766,0.689026,-0.161041,0.657867,-142.458,-62.4,-56.6833,-1381,-29581
1698,3673153,9.71387,1.40205,-0.0191406,90.5988,-81.7657,54.8547,0,-0.183105,-0.244141,0.25769,0.689026,-0.161041,0.657867,-142.483,-62.4083,-56.6417,-1381,-29581
1704,3673159,9.71387,1.40205,-0.0287109,90.6042,-81.7657,54.8492,0,-0.12207,0.305176,0.25766,0.689026,-0.161072,0.657867,-142.5,-62.4,-56.6083,-1372,-29582
1710,3673165,9.69951,1.40205,-0.00478516,90.6042,-81.7657,54.8492,-0.0610352,0,0.0610352,0.25766,0.689026,-0.161072,0.657867,-142.533,-62.375,-56.5167,-1381,-29581
1716,3673171,9.70908,1.41162,0,90.6042,-81.7657,54.8492,0,0,0.305176,0.25766,0.689026,-0.161072,0.657867,-142.558,-62.3583,-56.5083,-1381,-29581
1722,3673177,9.7043,1.40205,0,90.6042,-81.7657,54.8492,-0.0610352,0,-0.0610352,0.25766,0.689026,-0.161072,0.657867,-142.575,-62.35,-56.475,-1381,-29581
1728,3673183,9.71387,1.42119,-0.0287109,90.5988,-81.7657,54.8547,-0.12207,0.183105,-0.0610352,0.25766,0.689026,-0.161072,0.657867,-142.583,-62.35,-56.5167,-1381,-29581
1734,3673189,9.71865,1.42119,-0.0430664,90.5933,-81.7657,54.8602,-0.12207,0.12207,-0.183105,0.25769,0.689026,-0.161072,0.657867,-142.6,-62.35,-56.55,-1381,-29581
1740,3673195,9.71387,1.41162,-0.0191406,90.5658,-81.7603,54.8877,0.0610352,0.427246,-0.366211,0.25769,0.688995,-0.161041,0.657898,-142.608,-62.3333,-56.5833,-1381,-29581
1746,3673201,9.68516,1.41162,0,90.5548,-81.7603,54.8987,0,0.366211,0,0.25769,0.688995,-0.161041,0.657898,-142.608,-62.3,-56.6167,-1381,-29581
1752,3673207,9.69473,1.40205,-0.0143555,90.5438,-81.7603,54.9097,0,0.244141,-0.0610352,0.25769,0.688995,-0.161011,0.657898,-142.617,-62.2833,-56.6333,-1381,-29581
1758,3673213,9.68994,1.39248,0.00478516,90.5273,-81.7603,54.9261,0,0.427246,0,0.25769,0.688965,-0.161011,0.657928,-142.625,-62.2667,-56.65,-1381,-29581
1764,3673219,9.71387,1.38291,0,90.5273,-81.7603,54.9261,0,0.12207,0.0610352,0.257721,0.688965,-0.161011,0.657928,-142.625,-62.2583,-56.6417,-1381,-29581
1770,3673225,9.68994,1.40205,0.0191406,90.5273,-81.7603,54.9316,0.12207,-0.0610352,0.0610352,0.25769,0.688965,-0.161011,0.657928,-142.65,-62.25,-56.65,-1381,-29581
1776,3673231,9.68516,1.3877,0.0191406,90.5328,-81.7603,54.9207,0.0610352,-0.183105,0,0.25769,0.688965,-0.161011,0.657928,-142.675,-62.25,-56.6417,-1381,-29581
1782,3673237,9.71865,1.42119,0,90.5328,-81.7603,54.9207,0,0,0,0.25769,0.688965,-0.161011,0.657928,-142.708,-62.25,-56.6333,-1381,-29581
1788,3673243,9.69951,1.41162,-0.0287109,90.5383,-81.7603,54.9207,0,-0.12207,0,0.25769,0.688965,-0.161011,0.657928,-142.733,-62.2583,-56.6167,-1381,-29581
1794,3673249,9.69473,1.40684,-0.00478516,90.5438,-81.7603,54.9152,0.0610352,-0.305176,0,0.257721,0.688995,-0.161011,0.657898,-142.758,-62.275,-56.575,-1381,-29581
1800,3673255,9.68516,1.41162,0.0239258,90.5603,-81.7603,54.8932,-0.0610352,-0.183105,0.244141,0.25769,0.688995,-0.161041,0.657898,-142.8,-62.3,-56.4667,-1381,-29581
1806,3673261,9.72344,1.42598,-0.0239258,90.5658,-81.7603,54.8877,0,-0.244141,0.183105,0.25769,0.688995,-0.161041,0.657898,-142.817,-62.3167,-56.4083,-1381,-29581
1812,3673267,9.69473,1.40205,0.00957031,90.5823,-81.7603,54.8712,0.0610352,-0.427246,0,0.25769,0.689026,-0.161041,0.657867,-142.825,-62.3083,-56.3917,-1381,-29581
1818,3673273,9.69951,1.40684,-0.0239258,90.5823,-81.7657,54.8657,0.0610352,-0.12207,0.12207,0.25769,0.689026,-0.161041,0.657867,-142.842,-62.3083,-56.3667,-1372,-29582
1824,3673279,9.71387,1.39248,-0.0430664,90.5878,-81.7603,54.8602,0,-0.244141,0,0.25769,0.689026,-0.161072,0.657867,-142.85,-62.2917,-56.3667,-1372,-29582
1830,3673285,9.69473,1.41641,-0.00478516,90.6042,-81.7657,54.8492,-0.0610352,-0.183105,0.366211,0.25769,0.689026,-0.161072,0.657867,-142.842,-62.2833,-56.3917,-1372,-29582
1836,3673291,9.69473,1.43555,-0.0287109,90.6042,-81.7657,54.8492,0.12207,0,-0.0610352,0.25769,0.689026,-0.161072,0.657867,-142.858,-62.275,-56.3667,-1372,-29582
1842,3673297,9.7043,1.41162,-0.00478516,90.6042,-81.7657,54.8492,-0.0610352,0,0,0.25769,0.689026,-0.161072,0.657867,-142.875,-62.2833,-56.35,-1372,-29582
1848,3673303,9.7043,1.42119,-0.00957031,90.6042,-81.7657,54.8492,-0.12207,0,0.0610352,0.257721,0.689026,-0.161072,0.657867,-142.908,-62.25,-56.35,-1372,-29582
1854,3673309,9.68037,1.38291,-0.0239258,90.5933,-81.7603,54.8547,-0.12207,0.0610352,-0.12207,0.257721,0.689026,-0.161072,0.657867,-142.933,-62.2333,-56.35,-1372,-29582
1860,3673315,9.69473,1.40684,-0.0287109,90.5768,-81.7603,54.8712,0.0610352,0.366211,0,0.257721,0.688995,-0.161072,0.657867,-142.983,-62.1917,-56.4333,-1372,-29582
1866,3673321,9.7043,1.40684,-0.0287109,90.5603,-81.7603,54.8877,-0.12207,0.366211,0,0.257721,0.688995,-0.161072,0.657898,-142.992,-62.175,-56.4917,-1372,-29582
1872,3673327,9.70908,1.41162,-0.00478516,90.5548,-81.7603,54.8932,-0.0610352,0.244141,-0.183105,0.257751,0.688995,-0.161072,0.657898,-143,-62.1833,-56.5583,-1372,-29582
1878,3673333,9.7043,1.40684,-0.00478516,90.5493,-81.7603,54.8987,0,0.183105,-0.0610352,0.257751,0.688995,-0.161041,0.657898,-143.017,-62.175,-56.6167,-1372,-29582
1884,3673339,9.69473,1.42119,0,90.5438,-81.7603,54.9042,0,0.183105,0.244141,0.257751,0.688965,-0.161041,0.657898,-143.025,-62.1583,-56.6833,-1372,-29582
1890,3673345,9.71387,1.39248,0,90.5328,-81.7603,54.9152,-0.183105,0.12207,0,0.257751,0.688965,-0.161041,0.657898,-143.075,-62.1083,-56.7333,-1372,-29582
1896,3673351,9.70908,1.43076,-0.0191406,90.5328,-81.7603,54.9152,0,-0.0610352,0,0.257751,0.688965,-0.161041,0.657898,-143.108,-62.1,-56.6917,-1372,-29582
1902,3673357,9.71865,1.40205,-0.00478516,90.5328,-81.7603,54.9152,0.0610352,0,0.0610352,0.257751,0.688965,-0.161041,0.657898,-143.142,-62.0917,-56.625,-1372,-29582
1908,3673363,9.70908,1.39248,0.0239258,90.5383,-81.7603,54.9097,-0.0610352,-0.183105,-0.0610352,0.257751,0.688965,-0.161041,0.657898,-143.167,-62.0833,-56.6083,-1372,-29582
1914,3673369,9.69473,1.40684,-0.0287109,90.5438,-81.7603,54.9042,0,-0.12207,0,0.257751,0.688965,-0.161072,0.657898,-143.183,-62.075,-56.5833,-1372,-29582
1920,3673375,9.67559,1.39248,-0.00957031,90.5493,-81.7603,54.8987,-0.0610352,-0.183105,0,0.257751,0.688995,-0.161072,0.657898,-143.208,-62.05,-56.5917,-1372,-29582
1926,3673381,9.70908,1.42598,-0.00957031,90.5603,-81.7603,54.8877,0.244141,-0.305176,-0.0610352,0.257751,0.688995,-0.161072,0.657867,-143.217,-62.0333,-56.6333,-1372,-29582
1932,3673387,9.71387,1.42598,0.0191406,90.5713,-81.7603,54.8767,0.0610352,-0.305176,0,0.257751,0.688995,-0.161072,0.657867,-143.217,-62.025,-56.7,-1372,-29582
1938,3673393,9.69473,1.43076,0,90.5823,-81.7603,54.8657,0,-0.305176,-0.0610352,0.257751,0.688995,-0.161072,0.657867,-143.225,-62.0083,-56.7583,-1372,-29582
1944,3673399,9.72344,1.43555,-0.00957031,90.5988,-81.7603,54.8492,-0.0610352,-0.305176,0.12207,0.257751,0.689026,-0.161072,0.657867,-143.242,-61.9833,-56.825,-1372,-29582
1950,3673405,9.68994,1.39727,-0.0191406,90.6097,-81.7603,54.8328,-0.12207,-0.366211,0.0610352,0.257751,0.689026,-0.161102,0.657837,-143.267,-61.95,-56.9,-1372,-29582
1956,3673411,9.7043,1.42119,-0.0143555,90.6097,-81.7603,54.8328,-0.12207,0,0,0.257751,0.689026,-0.161102,0.657837,-143.267,-61.9333,-56.95,-1372,-29582
1962,3673417,9.70908,1.41162,-0.0239258,90.6097,-81.7603,54.8328,-0.12207,0,0,0.257751,0.689026,-0.161102,0.657837,-143.258,-61.9083,-57,-1372,-29582
1968,3673423,9.71865,1.39727,-0.0191406,90.6042,-81.7603,54.8328,0,0,0.0610352,0.257751,0.689026,-0.161102,0.657837,-143.25,-61.9083,-57.0667,-1372,-29582
1974,3673429,9.69951,1.40205,-0.0287109,90.5933,-81.7603,54.8438,0,0.12207,0,0.257751,0.689026,-0.161102,0.657837,-143.233,-61.9083,-57.1333,-1372,-29582
1980,3673435,9.68994,1.41162,0,90.5933,-81.7603,54.8438,0,0,0.0610352,0.257751,0.688995,-0.161102,0.657837,-143.225,-61.925,-57.2333,-1372,-29582
1986,3673441,9.69951,1.40684,-0.0143555,90.5878,-81.7603,54.8547,0.0610352,0.244141,-0.12207,0.257782,0.688995,-0.161102,0.657837,-143.233,-61.9333,-57.275,-1372,-29582
1992,3673447,9.68516,1.39248,-0.0143555,90.5823,-81.7603,54.8547,-0.0610352,0.0610352,0,0.257782,0.688995,-0.161102,0.657837,-143.25,-61.95,-57.2833,-1372,-29582
1998,3673453,9.72344,1.39727,-0.0143555,90.5768,-81.7603,54.8602,-0.0610352,0.183105,-0.12207,0.257782,0.688995,-0.161102,0.657837,-143.233,-61.975,-57.2667,-1372,-29582
2004,3673459,9.7043,1.39248,-0.0287109,90.5713,-81.7603,54.8712,0,0.183105,0,0.257782,0.688995,-0.161102,0.657837,-143.208,-61.9833,-57.2333,-1372,-29582
2010,3673465,9.72344,1.40684,-0.0239258,90.5548,-81.7603,54.8822,-0.0610352,0.366211,0.0610352,0.257782,0.688965,-0.161102,0.657867,-143.167,-62.0083,-57.15,-1372,-29582
2016,3673471,9.70908,1.41162,-0.00957031,90.5548,-81.7603,54.8822,-0.0610352,0,-0.0610352,0.257782,0.688965,-0.161102,0.657867,-143.142,-62.025,-57.1167,-1372,-29582
2022,3673477,9.71387,1.41162,-0.00957031,90.5603,-81.7603,54.8822,0,-0.0610352,0.0610352,0.257782,0.688965,-0.161102,0.657867,-143.125,-62.0417,-57.1,-1372,-29582
2028,3673483,9.70908,1.42598,0,90.5603,-81.7603,54.8822,0.12207,0,0.305176,0.257782,0.688965,-0.161102,0.657867,-143.133,-62.075,-57.125,-1372,-29582
2034,3673489,9.7043,1.39727,-0.00478516,90.5603,-81.7603,54.8822,0,-0.0610352,0,0.257782,0.688995,-0.161102,0.657867,-143.158,-62.0917,-57.15,-1372,-29582
2040,3673495,9.7043,1.43076,0,90.5658,-81.7603,54.8767,0,-0.12207,0,0.257782,0.688995,-0.161102,0.657867,-143.233,-62.1,-57.225,-1372,-29582
2046,3673501,9.7043,1.41641,-0.00957031,90.5713,-81.7603,54.8712,0,-0.183105,0.0610352,0.257782,0.688995,-0.161102,0.657837,-143.267,-62.1083,-57.2583,-1372,-29582
2052,3673507,9.71865,1.42119,-0.0143555,90.5768,-81.7603,54.8602,0,-0.244141,-0.12207,0.257782,0.688995,-0.161102,0.657837,-143.292,-62.1333,-57.2667,-1372,-29582
2058,3673513,9.71387,1.42119,-0.0143555,90.5878,-81.7603,54.8547,0.0610352,-0.183105,0.0610352,0.257782,0.688995,-0.161102,0.657837,-143.3,-62.1417,-57.275,-1372,-29582
2064,3673519,9.68994,1.42598,-0.0287109,90.5878,-81.7603,54.8492,-0.12207,-0.0610352,0.183105,0.257782,0.688995,-0.161102,0.657837,-143.342,-62.1333,-57.1917,-1372,-29582
2070,3673525,9.72344,1.42598,-0.0143555,90.5933,-81.7603,54.8438,0,-0.0610352,0.183105,0.257782,0.688995,-0.161133,0.657837,-143.358,-62.1083,-57.1333,-1372,-29582
2076,3673531,9.69951,1.39248,-0.00478516,90.5988,-81.7603,54.8438,0.0610352,-0.12207,0.366211,0.257782,0.688995,-0.161133,0.657837,-143.367,-62.0917,-57.075,-1372,-29582
2082,3673537,9.7043,1.42119,-0.0143555,90.5988,-81.7603,54.8438,0,0,0,0.257782,0.688995,-0.161133,0.657837,-143.375,-62.05,-57.0667,-1372,-29582
2088,3673543,9.73779,1.41162,-0.00957031,90.5988,-81.7603,54.8438,0,0,0,0.257782,0.688995,-0.161133,0.657837,-143.392,-62.0083,-57.0667,-1372,-29582
2094,3673549,9.72344,1.39248,-0.0334961,90.5933,-81.7603,54.8438,-0.0610352,0,0.0610352,0.257782,0.688995,-0.161133,0.657837,-143.417,-61.95,-57.1333,-1372,-29582
2100,3673555,9.68994,1.41162,-0.0239258,90.5933,-81.7603,54.8438,0,0,-0.12207,0.257782,0.688995,-0.161133,0.657837,-143.425,-61.95,-57.1333,-1372,-29582
2106,3673561,9.70908,1.43076,-0.0143555,90.5933,-81.7603,54.8438,0,0.12207,-0.12207,0.257782,0.688995,-0.161133,0.657837,-143.417,-61.95,-57.1333,-1372,-29582
2112,3673567,9.71387,1.39727,-0.0239258,90.5878,-81.7603,54.8492,-0.0610352,0.12207,-0.0610352,0.257782,0.688995,-0.161133,0.657837,-143.442,-61.9583,-57.1583,-1372,-29582
2118,3673573,9.70908,1.39248,0.00478516,90.5768,-81.7603,54.8602,0.0610352,0.305176,0.12207,0.257782,0.688995,-0.161133,0.657837,-143.475,-61.9667,-57.1833,-1372,-29582
2124,3673579,9.71387,1.39727,0,90.5603,-81.7603,54.8767,-0.12207,0.244141,0.0610352,0.257782,0.688995,-0.161133,0.657867,-143.55,-61.9833,-57.25,-1372,-29582
2130,3673585,9.70908,1.39248,0,90.5548,-81.7603,54.8822,-0.0610352,0.183105,0.0610352,0.257813,0.688965,-0.161133,0.657867,-143.55,-61.9833,-57.25,-1372,-29582
2136,3673591,9.70908,1.3877,-0.0143555,90.5438,-81.7603,54.8932,0,0.244141,0.0610352,0.257813,0.688965,-0.161133,0.657867,-143.542,-61.9583,-57.2333,-1372,-29582
2142,3673597,9.72344,1.41641,-0.00478516,90.5383,-81.7603,54.8987,0,0.12207,0.0610352,0.257782,0.688965,-0.161133,0.657867,-143.533,-61.975,-57.2583,-1372,-29582
2148,3673603,9.70908,1.41162,0,90.5383,-81.7603,54.8987,0.0610352,0,0,0.257782,0.688965,-0.161133,0.657867,-143.525,-61.9833,-57.2583,-1372,-29582
2154,3673609,9.68037,1.41162,-0.0191406,90.5493,-81.7603,54.8877,0,-0.0610352,-0.366211,0.257782,0.688965,-0.161133,0.657867,-143.55,-62.025,-57.225,-1372,-29582
2160,3673615,9.71865,1.40684,-0.0143555,90.5493,-81.7603,54.8877,0,-0.0610352,0.0610352,0.257782,0.688965,-0.161133,0.657867,-143.55,-62.0333,-57.2,-1372,-29582
2166,3673621,9.71387,1.44512,-0.0143555,90.5548,-81.7603,54.8822,-0.12207,-0.183105,-0.12207,0.257813,0.688965,-0.161133,0.657867,-143.542,-62.025,-57.175,-1372,-29582
2172,3673627,9.71865,1.41162,-0.00957031,90.5658,-81.7603,54.8712,-0.0610352,-0.305176,0.0610352,0.257813,0.688995,-0.161133,0.657837,-143.533,-62.0167,-57.125,-1372,-29582
2178,3673633,9.67559,1.43555,-0.0287109,90.5713,-81.7603,54.8657,0,-0.183105,-0.183105,0.257813,0.688995,-0.161133,0.657837,-143.525,-62.0167,-57.0917,-1372,-29582
2184,3673639,9.68994,1.3877,-0.00478516,90.5878,-81.7603,54.8492,0,-0.305176,0.0610352,0.257813,0.688995,-0.161133,0.657837,-143.525,-62.0083,-57,-1372,-29582
2190,3673645,9.69951,1.41162,0,90.5933,-81.7603,54.8438,0,-0.12207,0.0610352,0.257782,0.688995,-0.161133,0.657837,-143.542,-62.0083,-56.9833,-1372,-29582
2196,3673651,9.72344,1.40684,-0.0143555,90.5988,-81.7603,54.8383,0.0610352,-0.183105,0.183105,0.257782,0.688995,-0.161133,0.657837,-143.55,-61.975,-56.975,-1372,-29582
2202,3673657,9.71387,1.41162,-0.00957031,90.6042,-81.7603,54.8328,-0.12207,-0.0610352,0.0610352,0.257782,0.688995,-0.161133,0.657806,-143.567,-61.9667,-56.9417,-1372,-29582
2208,3673663,9.70908,1.42119,-0.0239258,90.6097,-81.7603,54.8273,0.0610352,-0.183105,0.366211,0.257782,0.689026,-0.161163,0.657806,-143.567,-61.95,-56.9167,-1372,-29582
2214,3673669,9.69951,1.40205,-0.0143555,90.6097,-81.7603,54.8218,0,-0.12207,0,0.257782,0.688995,-0.161163,0.657806,-143.575,-61.9417,-56.85,-1372,-29582
2220,3673675,9.70908,1.39727,-0.00957031,90.6152,-81.7603,54.8218,0,-0.12207,-0.183105,0.257782,0.689026,-0.161163,0.657806,-143.558,-61.95,-56.825,-1372,-29582
2226,3673681,9.73301,1.41162,0,90.6152,-81.7657,54.8218,-0.0610352,0.0610352,0.427246,0.257782,0.689026,-0.161163,0.657806,-143.567,-61.9667,-56.8333,-1372,-29582
2232,3673687,9.70908,1.41162,-0.0526367,90.6152,-81.7657,54.8218,0.12207,0,0.0610352,0.257782,0.689026,-0.161163,0.657806,-143.558,-61.9667,-56.8167,-1372,-29582
