TimeSinceCollection,Timestamp,AccX,AccY,AccZ,AngleRoll,AnglePitch,AngleYaw,AngularVelX,AngularVelY,AngularVelZ,Q1,Q2,Q3,Q4,MagX,MagY,MagZ,Height,Airpressure
0,159178,9.8,-0.133984,0.483301,-14.5789,-87.1381,-106.254,0,0,0,0.361237,-0.602051,-0.336639,-0.62738,-111.733,46.0167,-27.4667,-2145,-29489
6,159184,9.8,-0.114844,0.492871,-14.5789,-87.1381,-106.254,0,0,0,0.361237,-0.602051,-0.336639,-0.62738,-111.733,46.0333,-27.475,-2145,-29489
12,159190,9.79521,-0.124414,0.468945,-14.5789,-87.1381,-106.254,0,0,0,0.361237,-0.602051,-0.336639,-0.62738,-111.717,46.0417,-27.4917,-2145,-29489
18,159196,9.81436,-0.124414,0.478516,-14.5789,-87.1381,-106.254,0,0,0,0.361237,-0.602051,-0.336639,-0.62738,-111.675,46.05,-27.5583,-2145,-29489
24,159202,9.78564,-0.129199,0.46416,-14.5844,-87.1381,-106.254,0,0,0,0.361237,-0.602051,-0.336639,-0.62738,-111.625,46.05,-27.6083,-2145,-29489
30,159208,9.81436,-0.119629,0.44502,-14.5844,-87.1381,-106.254,0,0,0,0.361206,-0.602051,-0.336609,-0.62738,-111.583,46.05,-27.7083,-2145,-29489
36,159214,9.8,-0.110059,0.468945,-14.5844,-87.1381,-106.254,0,0,0,0.361206,-0.602051,-0.336609,-0.62738,-111.583,46.0333,-27.7333,-2145,-29489
42,159220,9.80957,-0.143555,0.459375,-14.5844,-87.1381,-106.254,0,0,0,0.361206,-0.602081,-0.336609,-0.62738,-111.592,46.0333,-27.7417,-2145,-29489
48,159226,9.78564,-0.14834,0.468945,-14.5898,-87.1381,-106.254,0,0,0,0.361206,-0.602081,-0.336609,-0.62738,-111.625,46.0333,-27.7583,-2145,-29489
54,159232,9.8,-0.100488,0.468945,-14.5898,-87.1381,-106.254,0,0,0,0.361176,-0.602081,-0.336578,-0.627411,-111.633,46.0417,-27.7417,-2145,-29489
60,159238,9.82393,-0.114844,0.468945,-14.5898,-87.1381,-106.254,0,0,0,0.361176,-0.602081,-0.336578,-0.627411,-111.65,46.075,-27.6583,-2145,-29489
66,159244,9.79521,-0.129199,0.483301,-14.5898,-87.1381,-106.254,0,0,0,0.361176,-0.602081,-0.336578,-0.627411,-111.642,46.0667,-27.5833,-2145,-29489
72,159250,9.79043,-0.110059,0.46416,-14.5953,-87.1381,-106.254,0,0,0,0.361176,-0.602081,-0.336578,-0.627411,-111.633,46.05,-27.5167,-2145,-29489
78,159256,9.8,-0.114844,0.459375,-14.5953,-87.1381,-106.254,0,0,0,0.361176,-0.602081,-0.336578,-0.627411,-111.633,46.025,-27.5,-2145,-29489
84,159262,9.80479,-0.114844,0.492871,-14.5953,-87.1381,-106.254,0,0,0,0.361176,-0.602081,-0.336578,-0.627411,-111.642,46.0083,-27.5167,-2145,-29489
90,159268,9.79521,-0.100488,0.478516,-14.5953,-87.1381,-106.254,0,0,0,0.361145,-0.602112,-0.336548,-0.627411,-111.642,45.9583,-27.5167,-2145,-29489
96,159274,9.78564,-0.119629,0.46416,-14.5953,-87.1381,-106.254,0,0,0,0.361145,-0.602081,-0.336548,-0.627411,-111.65,45.95,-27.4833,-2145,-29489
102,159280,9.8,-0.114844,0.483301,-14.5953,-87.1381,-106.254,0,0,0,0.361145,-0.602081,-0.336548,-0.627411,-111.65,45.95,-27.45,-2145,-29489
108,159286,9.82393,-0.114844,0.468945,-14.5953,-87.1381,-106.254,0,0,0,0.361176,-0.602081,-0.336548,-0.627411,-111.658,45.9833,-27.4167,-2145,-29489
114,159292,9.78564,-0.129199,0.488086,-14.5953,-87.1381,-106.254,0,0,0,0.361176,-0.602081,-0.336578,-0.627411,-111.658,46.0083,-27.3833,-2145,-29489
120,159298,9.80479,-0.0957031,0.449805,-14.5953,-87.1381,-106.254,0,0,0,0.361176,-0.602081,-0.336578,-0.627411,-111.708,46.0417,-27.3833,-2137,-29490
126,159304,9.8,-0.119629,0.488086,-14.5898,-87.1381,-106.249,0,0,0,0.361176,-0.602081,-0.336578,-0.627411,-111.733,46.0417,-27.425,-2137,-29490
132,159310,9.79521,-0.133984,0.468945,-14.5898,-87.1381,-106.254,0,0,0,0.361176,-0.602081,-0.336578,-0.627411,-111.758,46.0167,-27.45,-2137,-29490
138,159316,9.78086,-0.124414,0.492871,-14.5898,-87.1381,-106.254,0,0,0,0.361176,-0.602081,-0.336578,-0.627411,-111.783,46.0083,-27.5083,-2137,-29490
144,159322,9.80479,-0.133984,0.45459,-14.5898,-87.1381,-106.249,0,0,0,0.361176,-0.602081,-0.336578,-0.627411,-111.792,45.975,-27.5333,-2137,-29490
150,159328,9.8,-0.143555,0.488086,-14.5898,-87.1381,-106.249,0,0,0,0.361176,-0.602081,-0.336578,-0.627411,-111.775,45.9,-27.5,-2137,-29490
156,159334,9.80479,-0.124414,0.483301,-14.5898,-87.1381,-106.249,0,0,0,0.361176,-0.602081,-0.336578,-0.627411,-111.767,45.875,-27.475,-2137,-29490
162,159340,9.81914,-0.124414,0.488086,-14.5898,-87.1381,-106.249,0,0,0,0.361176,-0.602081,-0.336578,-0.627411,-111.767,45.8583,-27.4667,-2137,-29490
168,159346,9.79521,-0.110059,0.45459,-14.5898,-87.1381,-106.249,0,0,0,0.361176,-0.602081,-0.336578,-0.627411,-111.758,45.8583,-27.4583,-2137,-29490
174,159352,9.79521,-0.119629,0.459375,-14.5898,-87.1381,-106.249,0,0,0,0.361176,-0.602081,-0.336578,-0.627411,-111.758,45.85,-27.475,-2137,-29490
180,159358,9.81914,-0.124414,0.488086,-14.5953,-87.1381,-106.249,0,0,0,0.361176,-0.602081,-0.336578,-0.627411,-111.733,45.8333,-27.5083,-2137,-29490
186,159364,9.80479,-0.133984,0.449805,-14.5953,-87.1381,-106.249,0,0,0,0.361176,-0.602081,-0.336578,-0.627411,-111.717,45.825,-27.5417,-2137,-29490
192,159370,9.81436,-0.114844,0.449805,-14.5953,-87.1381,-106.249,0,0,0,0.361176,-0.602081,-0.336578,-0.627411,-111.7,45.825,-27.5917,-2137,-29490
198,159376,9.78564,-0.124414,0.478516,-14.5953,-87.1381,-106.249,0,0,0,0.361176,-0.602081,-0.336578,-0.627411,-111.675,45.8167,-27.6333,-2137,-29490
204,159382,9.77607,-0.100488,0.468945,-14.5953,-87.1381,-106.249,0,0,0,0.361176,-0.602081,-0.336578,-0.627411,-111.675,45.8,-27.6583,-2137,-29490
210,159388,9.78564,-0.129199,0.47373,-14.5953,-87.1381,-106.249,0,0,0,0.361176,-0.602081,-0.336578,-0.627411,-111.708,45.7917,-27.725,-2137,-29490
216,159394,9.79521,-0.119629,0.47373,-14.5953,-87.1381,-106.249,0,0,0,0.361176,-0.602081,-0.336548,-0.627411,-111.725,45.8083,-27.7583,-2137,-29490
222,159400,9.79043,-0.119629,0.492871,-14.5953,-87.1381,-106.249,0,0,0,0.361176,-0.602081,-0.336548,-0.627411,-111.708,45.825,-27.7833,-2137,-29490
228,159406,9.80957,-0.129199,0.507227,-14.5953,-87.1381,-106.249,0,0,0,0.361176,-0.602081,-0.336548,-0.627411,-111.7,45.825,-27.7917,-2137,-29490
234,159412,9.79043,-0.119629,0.521582,-14.5953,-87.1381,-106.249,0,0,0,0.361176,-0.602081,-0.336548,-0.627411,-111.675,45.825,-27.7833,-2137,-29490
240,159418,9.80479,-0.105273,0.46416,-14.5953,-87.1381,-106.249,0,0,0,0.361176,-0.602081,-0.336548,-0.627411,-111.658,45.8167,-27.775,-2137,-29490
246,159424,9.79521,-0.119629,0.492871,-14.5953,-87.1381,-106.249,0,0,0,0.361176,-0.602081,-0.336548,-0.627411,-111.675,45.8167,-27.7833,-2137,-29490
252,159430,9.80957,-0.133984,0.488086,-14.5953,-87.1381,-106.249,0,0,0,0.361176,-0.602081,-0.336548,-0.627411,-111.692,45.8167,-27.8083,-2137,-29490
258,159436,9.81914,-0.114844,0.45459,-14.5953,-87.1381,-106.249,0,0,0,0.361176,-0.602081,-0.336548,-0.627411,-111.708,45.825,-27.825,-2137,-29490
264,159442,9.80479,-0.13877,0.488086,-14.5953,-87.1381,-106.249,0,0,0,0.361176,-0.602081,-0.336548,-0.627411,-111.708,45.8167,-27.8583,-2137,-29490
270,159448,9.81914,-0.124414,0.459375,-14.5953,-87.1381,-106.249,0,0,0,0.361145,-0.602081,-0.336548,-0.627411,-111.717,45.8583,-27.8167,-2137,-29490
276,159454,9.80479,-0.129199,0.46416,-14.5953,-87.1381,-106.249,0,0,0,0.361145,-0.602081,-0.336548,-0.627411,-111.733,45.9,-27.7667,-2137,-29490
282,159460,9.80479,-0.124414,0.46416,-14.5953,-87.1381,-106.249,0,0,0,0.361145,-0.602112,-0.336548,-0.627411,-111.733,45.9417,-27.7083,-2137,-29490
288,159466,9.79521,-0.124414,0.483301,-14.6008,-87.1381,-106.249,0,0,0,0.361145,-0.602112,-0.336548,-0.627441,-111.75,45.9583,-27.7,-2137,-29490
294,159472,9.81914,-0.114844,0.488086,-14.6008,-87.1381,-106.249,0,0,0,0.361145,-0.602112,-0.336548,-0.627441,-111.758,45.975,-27.6833,-2137,-29490
300,159478,9.79521,-0.129199,0.478516,-14.6008,-87.1381,-106.249,0,0,0,0.361145,-0.602112,-0.336517,-0.627441,-111.725,45.9833,-27.6667,-2137,-29490
306,159484,9.81436,-0.114844,0.483301,-14.6008,-87.1381,-106.249,0,0,0,0.361145,-0.602112,-0.336517,-0.627441,-111.692,45.9583,-27.6333,-2137,-29490
312,159490,9.81914,-0.133984,0.46416,-14.6008,-87.1381,-106.249,0,0,0,0.361145,-0.602112,-0.336517,-0.627441,-111.642,45.9333,-27.5667,-2137,-29490
318,159496,9.81436,-0.129199,0.478516,-14.6008,-87.1381,-106.249,0,0,0,0.361115,-0.602112,-0.336517,-0.627441,-111.625,45.925,-27.55,-2137,-29490
324,159502,9.80957,-0.124414,0.46416,-14.6063,-87.1381,-106.249,0,0,0,0.361115,-0.602112,-0.336517,-0.627441,-111.642,45.925,-27.5417,-2137,-29490
330,159508,9.79521,-0.119629,0.459375,-14.6063,-87.1381,-106.249,0,0,0,0.361115,-0.602112,-0.336487,-0.627441,-111.683,45.9583,-27.5417,-2137,-29490
336,159514,9.79521,-0.119629,0.47373,-14.6063,-87.1381,-106.249,0,0,0,0.361115,-0.602112,-0.336487,-0.627441,-111.692,45.975,-27.5083,-2137,-29490
342,159520,9.80957,-0.129199,0.497656,-14.6063,-87.1381,-106.249,0,0,0,0.361115,-0.602142,-0.336487,-0.627441,-111.683,45.975,-27.4583,-2137,-29490
348,159526,9.79521,-0.114844,0.478516,-14.6063,-87.1326,-106.249,0,0,0,0.361084,-0.602142,-0.336487,-0.627472,-111.683,45.9667,-27.4167,-2137,-29490
354,159532,9.78564,-0.124414,0.468945,-14.6063,-87.1381,-106.249,0,0,0,0.361084,-0.602142,-0.336487,-0.627472,-111.675,45.95,-27.35,-2137,-29490
360,159538,9.79043,-0.124414,0.478516,-14.6118,-87.1381,-106.249,0,0,0,0.361084,-0.602142,-0.336487,-0.627472,-111.667,45.9667,-27.3333,-2137,-29490
366,159544,9.8335,-0.14834,0.488086,-14.6118,-87.1381,-106.249,0,0,0,0.361084,-0.602142,-0.336487,-0.627472,-111.675,45.975,-27.3583,-2137,-29490
372,159550,9.79043,-0.100488,0.483301,-14.6118,-87.1326,-106.249,0,0,0,0.361084,-0.602142,-0.336456,-0.627472,-111.667,45.9917,-27.375,-2137,-29490
378,159556,9.82393,-0.13877,0.483301,-14.6118,-87.1326,-106.249,0,0,0,0.361084,-0.602142,-0.336456,-0.627472,-111.667,46.0083,-27.425,-2137,-29490
384,159562,9.79043,-0.100488,0.47373,-14.6118,-87.1326,-106.249,0,0,0,0.361084,-0.602142,-0.336456,-0.627472,-111.667,46.0167,-27.4833,-2137,-29490
390,159568,9.78564,-0.119629,0.459375,-14.6118,-87.1326,-106.249,0,0,0,0.361084,-0.602142,-0.336456,-0.627472,-111.617,46.0083,-27.6417,-2137,-29490
396,159574,9.80957,-0.110059,0.44502,-14.6118,-87.1326,-106.249,0,0,0,0.361084,-0.602142,-0.336456,-0.627472,-111.608,46.0333,-27.7083,-2137,-29490
402,159580,9.79043,-0.124414,0.449805,-14.6118,-87.1326,-106.249,0,0,0,0.361084,-0.602142,-0.336456,-0.627472,-111.592,46.0583,-27.7583,-2137,-29490
408,159586,9.79521,-0.129199,0.488086,-14.6118,-87.1326,-106.249,0,0,0,0.361084,-0.602142,-0.336456,-0.627472,-111.583,46.0917,-27.8083,-2137,-29490
414,159592,9.79043,-0.119629,0.440234,-14.6118,-87.1326,-106.249,0,0,0,0.361084,-0.602142,-0.336456,-0.627472,-111.583,46.125,-27.8167,-2137,-29490
420,159598,9.80957,-0.124414,0.47373,-14.6118,-87.1326,-106.249,0,0,0,0.361084,-0.602142,-0.336456,-0.627472,-111.6,46.1333,-27.8,-2137,-29490
426,159604,9.79043,-0.119629,0.483301,-14.6118,-87.1326,-106.249,0,0,0,0.361053,-0.602142,-0.336456,-0.627472,-111.6,46.1417,-27.8083,-2137,-29490
432,159610,9.79043,-0.0957031,0.468945,-14.6118,-87.1381,-106.249,0,0,0,0.361053,-0.602142,-0.336456,-0.627472,-111.6,46.1667,-27.825,-2137,-29490
438,159616,9.78564,-0.129199,0.497656,-14.6118,-87.1381,-106.249,0,0,0,0.361053,-0.602142,-0.336456,-0.627472,-111.6,46.175,-27.8667,-2137,-29490
444,159622,9.79043,-0.124414,0.488086,-14.6118,-87.1381,-106.249,0,0,0,0.361053,-0.602142,-0.336456,-0.627472,-111.6,46.2,-27.875,-2137,-29490
450,159628,9.80479,-0.129199,0.46416,-14.6118,-87.1381,-106.249,0,0,0,0.361053,-0.602142,-0.336456,-0.627472,-111.6,46.175,-27.8667,-2137,-29490
456,159634,9.80957,-0.124414,0.468945,-14.6173,-87.1381,-106.249,0,0,0,0.361053,-0.602142,-0.336456,-0.627472,-111.608,46.175,-27.8417,-2137,-29490
462,159640,9.82393,-0.129199,0.488086,-14.6173,-87.1381,-106.249,0,0,0,0.361053,-0.602142,-0.336456,-0.627472,-111.608,46.1667,-27.8167,-2137,-29490
468,159646,9.79043,-0.133984,0.47373,-14.6173,-87.1381,-106.249,0,0,0,0.361053,-0.602142,-0.336456,-0.627472,-111.642,46.1583,-27.7833,-2137,-29490
474,159652,9.8,-0.129199,0.483301,-14.6173,-87.1381,-106.249,0,0,0,0.361053,-0.602173,-0.336426,-0.627472,-111.675,46.1667,-27.75,-2137,-29490
480,159658,9.79043,-0.105273,0.492871,-14.6173,-87.1326,-106.249,0,0,0,0.361053,-0.602173,-0.336426,-0.627502,-111.758,46.1583,-27.8583,-2137,-29490
486,159664,9.78564,-0.110059,0.46416,-14.6173,-87.1326,-106.249,0,0,0,0.361053,-0.602173,-0.336426,-0.627502,-111.775,46.15,-27.9417,-2137,-29490
492,159670,9.78086,-0.105273,0.488086,-14.6173,-87.1381,-106.249,0,0,0,0.361053,-0.602173,-0.336426,-0.627502,-111.792,46.1417,-28.0083,-2137,-29490
498,159676,9.79521,-0.119629,0.449805,-14.6173,-87.1326,-106.249,0,0,0,0.361053,-0.602173,-0.336426,-0.627502,-111.792,46.125,-28.075,-2137,-29490
504,159682,9.79043,-0.13877,0.483301,-14.6173,-87.1381,-106.249,0,0,0,0.361053,-0.602173,-0.336426,-0.627502,-111.767,46.1083,-28.075,-2137,-29490
510,159688,9.78564,-0.114844,0.483301,-14.6173,-87.1326,-106.249,0,0,0,0.361053,-0.602173,-0.336426,-0.627502,-111.708,46.0833,-28.0583,-2137,-29490
516,159694,9.8,-0.105273,0.45459,-14.6173,-87.1326,-106.249,0,0,0,0.361053,-0.602173,-0.336426,-0.627502,-111.683,46.075,-28.05,-2137,-29490
522,159700,9.78564,-0.133984,0.459375,-14.6173,-87.1326,-106.249,0,0,0,0.361053,-0.602173,-0.336426,-0.627502,-111.683,46.075,-28.05,-2137,-29490
528,159706,9.8,-0.114844,0.44502,-14.6173,-87.1326,-106.249,0,0,0,0.361053,-0.602173,-0.336426,-0.627502,-111.683,46.0583,-28.025,-2137,-29490
534,159712,9.80479,-0.114844,0.492871,-14.6173,-87.1381,-106.249,0,0,0,0.361023,-0.602173,-0.336426,-0.627502,-111.675,46.0417,-28.0083,-2137,-29490
540,159718,9.8,-0.110059,0.47373,-14.6173,-87.1326,-106.249,0,0,0,0.361023,-0.602173,-0.336426,-0.627502,-111.683,45.9917,-27.8833,-2137,-29490
546,159724,9.79043,-0.133984,0.459375,-14.6228,-87.1326,-106.249,0,0,0,0.361023,-0.602173,-0.336426,-0.627502,-111.708,45.9583,-27.8083,-2137,-29490
552,159730,9.78086,-0.119629,0.483301,-14.6228,-87.1381,-106.249,0,0,0,0.361023,-0.602173,-0.336426,-0.627502,-111.733,45.9333,-27.7083,-2137,-29490
558,159736,9.78564,-0.133984,0.483301,-14.6228,-87.1326,-106.249,0,0,0,0.361023,-0.602173,-0.336426,-0.627502,-111.758,45.9,-27.6333,-2137,-29490
564,159742,9.82393,-0.133984,0.478516,-14.6228,-87.1326,-106.249,0,0,0,0.361023,-0.602173,-0.336426,-0.627502,-111.783,45.875,-27.6167,-2137,-29490
570,159748,9.80479,-0.124414,0.440234,-14.6228,-87.1381,-106.249,0,0,0,0.361023,-0.602173,-0.336426,-0.627502,-111.792,45.875,-27.675,-2137,-29490
576,159754,9.79043,-0.133984,0.483301,-14.6228,-87.1326,-106.249,0,0,0,0.361023,-0.602173,-0.336395,-0.627502,-111.783,45.8917,-27.7417,-2137,-29490
582,159760,9.82393,-0.133984,0.430664,-14.6228,-87.1381,-106.249,0,0,0,0.361023,-0.602173,-0.336395,-0.627502,-111.775,45.8917,-27.7583,-2137,-29490
588,159766,9.78086,-0.129199,0.45459,-14.6283,-87.1326,-106.249,0,0,0,0.361023,-0.602173,-0.336395,-0.627502,-111.758,45.9,-27.775,-2137,-29490
594,159772,9.80957,-0.133984,0.468945,-14.6283,-87.1381,-106.249,0,0,0,0.360992,-0.602203,-0.336395,-0.627502,-111.733,45.9,-27.7917,-2137,-29490
600,159778,9.82871,-0.114844,0.449805,-14.6283,-87.1381,-106.249,0,0,0,0.360992,-0.602203,-0.336395,-0.627502,-111.7,45.9333,-27.8167,-2145,-29489
606,159784,9.79521,-0.114844,0.468945,-14.6283,-87.1381,-106.249,0,0,0,0.360992,-0.602203,-0.336365,-0.627502,-111.675,45.9667,-27.8417,-2145,-29489
612,159790,9.78086,-0.129199,0.478516,-14.6283,-87.1381,-106.249,0,0,0,0.360992,-0.602203,-0.336365,-0.627533,-111.667,46,-27.85,-2145,-29489
618,159796,9.79043,-0.13877,0.483301,-14.6283,-87.1381,-106.249,0,0,0,0.360992,-0.602203,-0.336365,-0.627533,-111.683,46.025,-27.85,-2145,-29489
624,159802,9.79043,-0.119629,0.507227,-14.6338,-87.1381,-106.249,0,0,0,0.360962,-0.602203,-0.336365,-0.627533,-111.692,46.0333,-27.85,-2145,-29489
630,159808,9.81436,-0.110059,0.507227,-14.6338,-87.1381,-106.249,0,0,0,0.360962,-0.602203,-0.336365,-0.627533,-111.692,45.9833,-27.8167,-2145,-29489
636,159814,9.81436,-0.119629,0.459375,-14.6338,-87.1381,-106.249,0,0,0,0.360962,-0.602203,-0.336365,-0.627533,-111.692,45.9583,-27.8083,-2145,-29489
642,159820,9.79521,-0.124414,0.47373,-14.6338,-87.1381,-106.249,0,0,0,0.360962,-0.602203,-0.336365,-0.627533,-111.692,45.9417,-27.8,-2145,-29489
648,159826,9.80479,-0.129199,0.45459,-14.6338,-87.1381,-106.249,0,0,0,0.360962,-0.602203,-0.336334,-0.627533,-111.717,45.9583,-27.7917,-2145,-29489
654,159832,9.80479,-0.124414,0.478516,-14.6338,-87.1381,-106.249,0,0,0,0.360962,-0.602203,-0.336334,-0.627533,-111.742,45.9667,-27.7583,-2145,-29489
660,159838,9.81436,-0.13877,0.483301,-14.6338,-87.1381,-106.249,0,0,0,0.360962,-0.602203,-0.336334,-0.627533,-111.775,46,-27.7167,-2145,-29489
666,159844,9.8,-0.119629,0.478516,-14.6338,-87.1381,-106.249,0,0,0,0.360962,-0.602203,-0.336334,-0.627533,-111.775,46.0083,-27.7,-2145,-29489
672,159850,9.78086,-0.114844,0.468945,-14.6393,-87.1381,-106.249,0,0,0,0.360962,-0.602234,-0.336334,-0.627533,-111.775,46.025,-27.6833,-2145,-29489
678,159856,9.80957,-0.129199,0.488086,-14.6393,-87.1326,-106.249,0,0,0,0.360962,-0.602234,-0.336334,-0.627533,-111.767,46.0333,-27.675,-2145,-29489
684,159862,9.78564,-0.124414,0.483301,-14.6393,-87.1326,-106.249,0,0,0,0.360931,-0.602234,-0.336334,-0.627533,-111.742,46.05,-27.675,-2145,-29489
690,159868,9.79521,-0.124414,0.468945,-14.6393,-87.1381,-106.249,0,0,0,0.360931,-0.602234,-0.336304,-0.627563,-111.7,46.0417,-27.6333,-2145,-29489
696,159874,9.81436,-0.105273,0.483301,-14.6393,-87.1326,-106.249,0,0,0,0.360931,-0.602234,-0.336304,-0.627563,-111.7,46.0333,-27.6083,-2145,-29489
702,159880,9.77607,-0.114844,0.45459,-14.6393,-87.1326,-106.249,0,0,0,0.360931,-0.602234,-0.336304,-0.627563,-111.7,46.0083,-27.6,-2145,-29489
708,159886,9.79043,-0.090918,0.47373,-14.6393,-87.1381,-106.249,0,0,0,0.360931,-0.602234,-0.336304,-0.627563,-111.692,45.9917,-27.6167,-2145,-29489
714,159892,9.79043,-0.133984,0.497656,-14.6393,-87.1381,-106.249,0,0,0,0.360931,-0.602234,-0.336304,-0.627563,-111.692,45.9917,-27.6417,-2145,-29489
720,159898,9.78564,-0.129199,0.468945,-14.6393,-87.1326,-106.249,0,0,0,0.360931,-0.602234,-0.336304,-0.627563,-111.675,45.9833,-27.6417,-2137,-29490
726,159904,9.8,-0.114844,0.478516,-14.6393,-87.1381,-106.249,0,0,0,0.360931,-0.602234,-0.336304,-0.627563,-111.658,45.9833,-27.6417,-2137,-29490
732,159910,9.80479,-0.124414,0.449805,-14.6393,-87.1381,-106.249,0,0,0,0.360931,-0.602234,-0.336304,-0.627563,-111.65,45.975,-27.625,-2137,-29490
738,159916,9.81436,-0.13877,0.502441,-14.6393,-87.1326,-106.249,0,0,0,0.360931,-0.602234,-0.336304,-0.627563,-111.658,45.9417,-27.6333,-2137,-29490
744,159922,9.78564,-0.124414,0.468945,-14.6393,-87.1326,-106.249,0,0,0,0.360931,-0.602234,-0.336304,-0.627563,-111.692,45.9167,-27.6167,-2137,-29490
750,159928,9.79521,-0.110059,0.459375,-14.6393,-87.1326,-106.249,0,0,0,0.360931,-0.602234,-0.336304,-0.627563,-111.783,45.8833,-27.575,-2137,-29490
756,159934,9.81914,-0.114844,0.468945,-14.6393,-87.1326,-106.249,0,0,0,0.360931,-0.602234,-0.336304,-0.627563,-111.808,45.8667,-27.5583,-2137,-29490
762,159940,9.81914,-0.124414,0.488086,-14.6393,-87.1381,-106.249,0,0,0,0.360931,-0.602234,-0.336304,-0.627563,-111.825,45.8667,-27.5667,-2137,-29490
768,159946,9.8,-0.13877,0.488086,-14.6448,-87.1326,-106.249,0,0,0,0.360931,-0.602234,-0.336304,-0.627563,-111.833,45.85,-27.5583,-2137,-29490
774,159952,9.79521,-0.105273,0.46416,-14.6448,-87.1381,-106.249,0,0,0,0.360901,-0.602234,-0.336304,-0.627563,-111.808,45.8583,-27.55,-2137,-29490
780,159958,9.78564,-0.110059,0.468945,-14.6448,-87.1326,-106.249,0,0,0,0.360901,-0.602234,-0.336304,-0.627563,-111.75,45.9,-27.525,-2137,-29490
786,159964,9.80479,-0.129199,0.468945,-14.6448,-87.1381,-106.249,0,0,0,0.360901,-0.602234,-0.336304,-0.627563,-111.708,45.9417,-27.5333,-2137,-29490
792,159970,9.79521,-0.129199,0.478516,-14.6448,-87.1326,-106.249,0,0,0,0.360901,-0.602234,-0.336304,-0.627563,-111.692,45.9667,-27.55,-2137,-29490
798,159976,9.80957,-0.124414,0.459375,-14.6448,-87.1326,-106.249,0,0,0,0.360901,-0.602234,-0.336273,-0.627563,-111.7,46,-27.575,-2137,-29490
804,159982,9.79521,-0.129199,0.483301,-14.6448,-87.1381,-106.249,0,0,0,0.360901,-0.602234,-0.336273,-0.627563,-111.717,46.025,-27.575,-2137,-29490
810,159988,9.79521,-0.100488,0.478516,-14.6448,-87.1326,-106.249,0,0,0,0.360901,-0.602234,-0.336273,-0.627563,-111.725,46.0333,-27.5333,-2137,-29490
816,159994,9.79521,-0.133984,0.47373,-14.6448,-87.1326,-106.249,0,0,0,0.360901,-0.602234,-0.336273,-0.627563,-111.733,46.025,-27.475,-2137,-29490
822,160000,9.81914,-0.090918,0.459375,-14.6448,-87.1326,-106.249,0,0,0,0.360901,-0.602234,-0.336273,-0.627563,-111.733,46.025,-27.4083,-2137,-29490
828,160006,9.80479,-0.129199,0.46416,-14.6448,-87.1326,-106.249,0,0,0,0.360901,-0.602234,-0.336273,-0.627563,-111.717,46.0167,-27.4,-2137,-29490
834,160012,9.82393,-0.119629,0.488086,-14.6448,-87.1326,-106.249,0,0,0,0.360901,-0.602234,-0.336273,-0.627563,-111.692,46.0417,-27.4583,-2137,-29490
840,160018,9.78086,-0.110059,0.449805,-14.6448,-87.1326,-106.249,0,0,0,0.360901,-0.602234,-0.336273,-0.627563,-111.683,46.0667,-27.525,-2137,-29490
846,160024,9.80479,-0.105273,0.468945,-14.6448,-87.1326,-106.249,0,0,0,0.360901,-0.602234,-0.336273,-0.627563,-111.683,46.0917,-27.575,-2137,-29490
852,160030,9.79043,-0.13877,0.46416,-14.6448,-87.1326,-106.249,0,0,0,0.360901,-0.602234,-0.336304,-0.627563,-111.692,46.0917,-27.575,-2137,-29490
858,160036,9.8,-0.110059,0.459375,-14.6448,-87.1326,-106.249,0,0,0,0.360901,-0.602234,-0.336304,-0.627563,-111.717,46.0833,-27.6167,-2137,-29490
864,160042,9.80957,-0.0957031,0.483301,-14.6393,-87.1326,-106.249,0,0,0,0.360901,-0.602234,-0.336304,-0.627563,-111.725,46.0667,-27.625,-2137,-29490
870,160048,9.78086,-0.114844,0.468945,-14.6393,-87.1381,-106.249,0,0,0,0.360931,-0.602234,-0.336304,-0.627563,-111.733,46.0583,-27.6083,-2137,-29490
876,160054,9.82393,-0.119629,0.483301,-14.6393,-87.1326,-106.249,0,0,0,0.360931,-0.602234,-0.336304,-0.627563,-111.733,46.0333,-27.6083,-2137,-29490
882,160060,9.8,-0.110059,0.459375,-14.6393,-87.1381,-106.249,0,0,0,0.360931,-0.602234,-0.336304,-0.627563,-111.742,46.025,-27.575,-2137,-29490
888,160066,9.80479,-0.110059,0.46416,-14.6393,-87.1381,-106.249,0,0,0,0.360931,-0.602234,-0.336304,-0.627563,-111.742,46.0083,-27.55,-2137,-29490
894,160072,9.81436,-0.133984,0.478516,-14.6393,-87.1381,-106.249,0,0,0,0.360931,-0.602234,-0.336334,-0.627533,-111.708,45.9917,-27.575,-2137,-29490
900,160078,9.79043,-0.105273,0.478516,-14.6338,-87.1381,-106.249,0,0,0,0.360931,-0.602234,-0.336334,-0.627533,-111.708,46,-27.6083,-2137,-29490
906,160084,9.80479,-0.133984,0.45459,-14.6338,-87.1381,-106.249,0,0,0,0.360962,-0.602234,-0.336334,-0.627533,-111.692,46.0333,-27.6417,-2137,-29490
912,160090,9.80479,-0.13877,0.45459,-14.6338,-87.1381,-106.249,0,0,0,0.360962,-0.602203,-0.336334,-0.627533,-111.692,46.0583,-27.65,-2137,-29490
918,160096,9.79521,-0.133984,0.44502,-14.6338,-87.1381,-106.249,0,0,0,0.360962,-0.602203,-0.336334,-0.627533,-111.708,46.075,-27.6417,-2137,-29490
924,160102,9.79521,-0.124414,0.46416,-14.6338,-87.1381,-106.249,0,0,0,0.360962,-0.602203,-0.336334,-0.627533,-111.7,46.075,-27.6,-2137,-29490
930,160108,9.80479,-0.114844,0.46416,-14.6338,-87.1381,-106.249,0,0,0,0.360962,-0.602203,-0.336334,-0.627533,-111.692,46.0667,-27.5917,-2137,-29490
936,160114,9.79043,-0.13877,0.47373,-14.6338,-87.1381,-106.249,0,0,0,0.360962,-0.602203,-0.336334,-0.627533,-111.683,46.0333,-27.575,-2137,-29490
942,160120,9.8,-0.105273,0.468945,-14.6338,-87.1381,-106.249,0,0,0,0.360962,-0.602203,-0.336334,-0.627533,-111.667,46.0083,-27.5917,-2137,-29490
948,160126,9.79521,-0.105273,0.440234,-14.6338,-87.1381,-106.249,0,0,0,0.360962,-0.602203,-0.336334,-0.627533,-111.675,45.975,-27.6,-2137,-29490
954,160132,9.79521,-0.090918,0.497656,-14.6338,-87.1381,-106.249,0,0,0,0.360962,-0.602203,-0.336334,-0.627533,-111.7,45.9583,-27.6417,-2137,-29490
960,160138,9.79521,-0.105273,0.468945,-14.6338,-87.1381,-106.249,0,0,0,0.360962,-0.602203,-0.336334,-0.627533,-111.7,45.95,-27.65,-2137,-29490
966,160144,9.79043,-0.133984,0.47373,-14.6338,-87.1381,-106.249,0,0,0,0.360962,-0.602203,-0.336365,-0.627533,-111.708,45.9583,-27.675,-2137,-29490
972,160150,9.77607,-0.119629,0.478516,-14.6338,-87.1381,-106.249,0,0,0,0.360962,-0.602203,-0.336365,-0.627533,-111.7,45.9417,-27.7167,-2137,-29490
978,160156,9.77607,-0.0861328,0.435449,-14.6338,-87.1381,-106.249,0,0,0,0.360962,-0.602203,-0.336365,-0.627533,-111.675,45.925,-27.775,-2137,-29490
984,160162,9.80479,-0.119629,0.46416,-14.6283,-87.1381,-106.249,0,0,0,0.360962,-0.602203,-0.336365,-0.627533,-111.658,45.9,-27.9083,-2137,-29490
990,160168,9.8,-0.129199,0.46416,-14.6283,-87.1381,-106.249,0,0,0,0.360962,-0.602203,-0.336365,-0.627533,-111.65,45.9,-27.9833,-2137,-29490
996,160174,9.77607,-0.110059,0.492871,-14.6283,-87.1381,-106.249,0,0,0,0.360992,-0.602203,-0.336365,-0.627502,-111.642,45.9,-28.0333,-2137,-29490
1002,160180,9.79043,-0.124414,0.45459,-14.6283,-87.1381,-106.249,0,0,0,0.360992,-0.602203,-0.336365,-0.627502,-111.642,45.8917,-28,-2137,-29490
1008,160186,9.79043,-0.129199,0.46416,-14.6283,-87.1381,-106.249,0,0,0,0.360992,-0.602203,-0.336395,-0.627502,-111.633,45.875,-27.9417,-2137,-29490
1014,160192,9.78564,-0.129199,0.46416,-14.6283,-87.1381,-106.249,0,0,0,0.360992,-0.602203,-0.336395,-0.627502,-111.617,45.9083,-27.8333,-2137,-29490
1020,160198,9.80957,-0.124414,0.47373,-14.6228,-87.1381,-106.249,0,0,0,0.360992,-0.602203,-0.336395,-0.627502,-111.625,45.925,-27.8417,-2137,-29490
1026,160204,9.80479,-0.124414,0.449805,-14.6228,-87.1381,-106.249,0,0,0,0.360992,-0.602203,-0.336395,-0.627502,-111.625,45.9583,-27.8583,-2137,-29490
1032,160210,9.77607,-0.129199,0.478516,-14.6228,-87.1381,-106.249,0,0,0,0.360992,-0.602203,-0.336395,-0.627502,-111.642,45.95,-27.8667,-2137,-29490
1038,160216,9.8,-0.124414,0.46416,-14.6228,-87.1381,-106.249,0,0,0,0.360992,-0.602203,-0.336395,-0.627502,-111.633,45.9417,-27.9083,-2137,-29490
1044,160222,9.80957,-0.110059,0.46416,-14.6228,-87.1381,-106.249,0,0,0,0.360992,-0.602203,-0.336395,-0.627502,-111.642,45.9167,-27.8583,-2137,-29490
1050,160228,9.80957,-0.124414,0.478516,-14.6228,-87.1381,-106.249,0,0,0,0.360992,-0.602203,-0.336395,-0.627502,-111.625,45.9083,-27.8583,-2137,-29490
1056,160234,9.79043,-0.119629,0.478516,-14.6228,-87.1381,-106.249,0,0,0,0.361023,-0.602203,-0.336426,-0.627502,-111.608,45.9,-27.8417,-2137,-29490
1062,160240,9.80957,-0.105273,0.46416,-14.6228,-87.1381,-106.249,0,0,0,0.361023,-0.602173,-0.336426,-0.627502,-111.592,45.9083,-27.85,-2137,-29490
1068,160246,9.8,-0.114844,0.468945,-14.6228,-87.1381,-106.249,0,0,0,0.361023,-0.602173,-0.336426,-0.627472,-111.592,45.9,-27.8667,-2137,-29490
1074,160252,9.80479,-0.119629,0.46416,-14.6173,-87.1381,-106.249,0,0,0,0.361023,-0.602173,-0.336426,-0.627472,-111.617,45.875,-27.875,-2137,-29490
1080,160258,9.79521,-0.133984,0.45459,-14.6173,-87.1381,-106.249,0,0,0,0.361023,-0.602173,-0.336426,-0.627472,-111.642,45.8417,-27.8667,-2137,-29490
1086,160264,9.79043,-0.133984,0.468945,-14.6173,-87.1381,-106.249,0,0,0,0.361023,-0.602173,-0.336426,-0.627472,-111.633,45.825,-27.9083,-2137,-29490
1092,160270,9.79521,-0.14834,0.47373,-14.6173,-87.1381,-106.249,0,0,0,0.361023,-0.602173,-0.336426,-0.627472,-111.617,45.8083,-27.9333,-2137,-29490
1098,160276,9.8,-0.13877,0.46416,-14.6173,-87.1381,-106.249,0,0,0,0.361023,-0.602173,-0.336426,-0.627472,-111.583,45.7917,-27.9583,-2137,-29490
1104,160282,9.80479,-0.124414,0.478516,-14.6228,-87.1381,-106.249,0,0,0,0.361023,-0.602173,-0.336426,-0.627472,-111.542,45.7917,-27.9667,-2137,-29490
1110,160288,9.80957,-0.129199,0.468945,-14.6228,-87.1381,-106.249,0,0,0,0.361023,-0.602173,-0.336426,-0.627472,-111.533,45.7917,-27.9667,-2137,-29490
1116,160294,9.82393,-0.133984,0.459375,-14.6228,-87.1381,-106.249,0,0,0,0.361023,-0.602203,-0.336426,-0.627472,-111.542,45.7667,-27.9333,-2137,-29490
1122,160300,9.80479,-0.119629,0.468945,-14.6228,-87.1381,-106.249,0,0,0,0.361023,-0.602203,-0.336426,-0.627472,-111.55,45.75,-27.9333,-2137,-29490
1128,160306,9.78564,-0.119629,0.483301,-14.6228,-87.1381,-106.249,0,0,0,0.360992,-0.602203,-0.336426,-0.627502,-111.55,45.7333,-27.9417,-2137,-29490
1134,160312,9.80479,-0.110059,0.44502,-14.6228,-87.1381,-106.249,0,0,0,0.360992,-0.602203,-0.336426,-0.627502,-111.567,45.7167,-27.9583,-2137,-29490
1140,160318,9.7665,-0.124414,0.478516,-14.6228,-87.1381,-106.249,0,0,0,0.360992,-0.602203,-0.336426,-0.627502,-111.583,45.7167,-27.9417,-2137,-29490
1146,160324,9.8,-0.124414,0.47373,-14.6228,-87.1381,-106.249,0,0,0,0.360992,-0.602203,-0.336395,-0.627502,-111.6,45.7083,-27.9333,-2137,-29490
1152,160330,9.79521,-0.124414,0.478516,-14.6283,-87.1381,-106.249,0,0,0,0.360992,-0.602203,-0.336395,-0.627502,-111.633,45.7,-27.95,-2137,-29490
1158,160336,9.82393,-0.129199,0.46416,-14.6283,-87.1381,-106.249,0,0,0,0.360992,-0.602203,-0.336395,-0.627502,-111.675,45.675,-27.9667,-2137,-29490
1164,160342,9.80479,-0.133984,0.47373,-14.6283,-87.1381,-106.249,0,0,0,0.360992,-0.602203,-0.336395,-0.627502,-111.733,45.625,-28.025,-2137,-29490
1170,160348,9.8,-0.105273,0.47373,-14.6283,-87.1381,-106.249,0,0,0,0.360962,-0.602203,-0.336395,-0.627502,-111.75,45.6167,-28,-2137,-29490
1176,160354,9.79521,-0.110059,0.483301,-14.6283,-87.1381,-106.249,0,0,0,0.360962,-0.602203,-0.336395,-0.627502,-111.758,45.625,-28,-2137,-29490
1182,160360,9.78086,-0.100488,0.459375,-14.6283,-87.1381,-106.249,0,0,0,0.360962,-0.602203,-0.336395,-0.627502,-111.742,45.65,-28.025,-2137,-29490
1188,160366,9.8,-0.133984,0.45459,-14.6283,-87.1381,-106.249,0,0,0,0.360962,-0.602203,-0.336395,-0.627502,-111.733,45.6833,-28.075,-2137,-29490
1194,160372,9.78564,-0.133984,0.488086,-14.6283,-87.1381,-106.249,0,0,0,0.360962,-0.602234,-0.336395,-0.627502,-111.708,45.6917,-28.1667,-2137,-29490
1200,160378,9.80957,-0.110059,0.47373,-14.6283,-87.1381,-106.249,0,0,0,0.360962,-0.602234,-0.336395,-0.627502,-111.708,45.7,-28.225,-2137,-29490
1206,160384,9.80957,-0.129199,0.46416,-14.6283,-87.1381,-106.249,0,0,0,0.360962,-0.602234,-0.336395,-0.627502,-111.733,45.7083,-28.225,-2137,-29490
1212,160390,9.8,-0.13877,0.449805,-14.6283,-87.1381,-106.249,0,0,0,0.360962,-0.602234,-0.336395,-0.627502,-111.75,45.7083,-28.2333,-2137,-29490
1218,160396,9.81436,-0.133984,0.492871,-14.6283,-87.1381,-106.249,0,0,0,0.360962,-0.602234,-0.336395,-0.627502,-111.75,45.7167,-28.2667,-2137,-29490
1224,160402,9.79521,-0.105273,0.483301,-14.6338,-87.1381,-106.249,0,0,0,0.360962,-0.602234,-0.336365,-0.627502,-111.742,45.7417,-28.3167,-2137,-29490
1230,160408,9.80957,-0.129199,0.45459,-14.6338,-87.1381,-106.249,0,0,0,0.360962,-0.602234,-0.336365,-0.627502,-111.717,45.75,-28.3417,-2137,-29490
1236,160414,9.79521,-0.14834,0.45459,-14.6338,-87.1381,-106.249,0,0,0,0.360962,-0.602234,-0.336365,-0.627502,-111.7,45.7417,-28.3583,-2137,-29490
1242,160420,9.81914,-0.105273,0.468945,-14.6338,-87.1381,-106.249,0,0,0,0.360931,-0.602234,-0.336365,-0.627502,-111.675,45.7333,-28.3417,-2137,-29490
1248,160426,9.79043,-0.119629,0.478516,-14.6338,-87.1381,-106.249,0,0,0,0.360931,-0.602234,-0.336365,-0.627502,-111.667,45.725,-28.35,-2137,-29490
1254,160432,9.79521,-0.124414,0.45459,-14.6338,-87.1381,-106.249,0,0,0,0.360931,-0.602234,-0.336365,-0.627502,-111.692,45.7417,-28.2667,-2137,-29490
1260,160438,9.79043,-0.124414,0.497656,-14.6338,-87.1381,-106.249,0,0,0,0.360931,-0.602234,-0.336365,-0.627533,-111.7,45.7417,-28.2333,-2137,-29490
1266,160444,9.8,-0.124414,0.47373,-14.6338,-87.1381,-106.249,0,0,0,0.360931,-0.602234,-0.336365,-0.627533,-111.7,45.725,-28.2333,-2137,-29490
1272,160450,9.8,-0.124414,0.459375,-14.6338,-87.1381,-106.249,0,0,0,0.360931,-0.602234,-0.336365,-0.627533,-111.683,45.7167,-28.225,-2137,-29490
1278,160456,9.80479,-0.13877,0.459375,-14.6393,-87.1381,-106.249,0,0,0,0.360931,-0.602234,-0.336334,-0.627533,-111.675,45.7167,-28.2083,-2137,-29490
1284,160462,9.79043,-0.119629,0.440234,-14.6393,-87.1381,-106.249,0,0,0,0.360931,-0.602234,-0.336334,-0.627533,-111.658,45.7417,-28.175,-2137,-29490
1290,160468,9.81914,-0.114844,0.483301,-14.6393,-87.1381,-106.249,0,0,0,0.360901,-0.602264,-0.336334,-0.627533,-111.65,45.7583,-28.15,-2137,-29490
1296,160474,9.80479,-0.14834,0.45459,-14.6393,-87.1381,-106.249,0,0,0,0.360901,-0.602264,-0.336334,-0.627533,-111.65,45.7667,-28.1,-2137,-29490
1302,160480,9.79043,-0.0957031,0.46416,-14.6393,-87.1381,-106.249,0,0,0,0.360901,-0.602264,-0.336334,-0.627533,-111.633,45.7833,-28.075,-2137,-29490
1308,160486,9.81914,-0.133984,0.497656,-14.6393,-87.1381,-106.249,0,0,0,0.360901,-0.602264,-0.336334,-0.627533,-111.617,45.775,-27.9917,-2137,-29490
1314,160492,9.80479,-0.124414,0.435449,-14.6448,-87.1381,-106.249,0,0,0,0.360901,-0.602264,-0.336334,-0.627533,-111.583,45.7667,-27.9,-2137,-29490
1320,160498,9.82871,-0.133984,0.47373,-14.6448,-87.1381,-106.249,0,0,0,0.360901,-0.602264,-0.336304,-0.627533,-111.583,45.75,-27.8917,-2137,-29490
1326,160504,9.80957,-0.114844,0.483301,-14.6448,-87.1381,-106.249,0,0,0,0.36087,-0.602264,-0.336304,-0.627533,-111.608,45.7333,-27.875,-2137,-29490
1332,160510,9.81914,-0.119629,0.478516,-14.6448,-87.1436,-106.249,0,0,0,0.36087,-0.602264,-0.336304,-0.627533,-111.642,45.7167,-27.8667,-2137,-29490
1338,160516,9.8,-0.133984,0.478516,-14.6448,-87.1381,-106.249,0,0,0,0.36087,-0.602264,-0.336304,-0.627533,-111.675,45.6917,-27.8667,-2137,-29490
1344,160522,9.80479,-0.162695,0.47373,-14.6503,-87.1436,-106.249,0,0,0,0.36087,-0.602264,-0.336304,-0.627563,-111.717,45.6417,-27.8333,-2137,-29490
1350,160528,9.81436,-0.110059,0.478516,-14.6503,-87.1381,-106.249,0,0,0,0.36087,-0.602295,-0.336304,-0.627563,-111.717,45.65,-27.8667,-2137,-29490
1356,160534,9.80957,-0.119629,0.47373,-14.6503,-87.1436,-106.249,0,0,0,0.36087,-0.602295,-0.336273,-0.627563,-111.708,45.6583,-27.8667,-2137,-29490
1362,160540,9.8,-0.114844,0.488086,-14.6503,-87.1436,-106.249,0,0,0,0.36084,-0.602295,-0.336273,-0.627563,-111.708,45.6583,-27.85,-2137,-29490
1368,160546,9.79521,-0.114844,0.468945,-14.6503,-87.1436,-106.249,0,0,0,0.36084,-0.602295,-0.336273,-0.627563,-111.708,45.675,-27.825,-2137,-29490
1374,160552,9.82393,-0.110059,0.468945,-14.6503,-87.1436,-106.249,0,0,0,0.36084,-0.602295,-0.336273,-0.627563,-111.742,45.6917,-27.8417,-2137,-29490
1380,160558,9.78564,-0.110059,0.468945,-14.6503,-87.1381,-106.249,0,0,0,0.36084,-0.602295,-0.336273,-0.627563,-111.767,45.7333,-27.875,-2137,-29490
1386,160564,9.77129,-0.124414,0.47373,-14.6503,-87.1381,-106.249,0,0,0,0.36084,-0.602295,-0.336273,-0.627563,-111.783,45.7667,-27.925,-2137,-29490
1392,160570,9.8,-0.129199,0.45459,-14.6503,-87.1381,-106.249,0,0,0,0.36084,-0.602295,-0.336273,-0.627563,-111.792,45.7917,-27.9333,-2137,-29490
1398,160576,9.81914,-0.110059,0.47373,-14.6558,-87.1381,-106.249,0,0,0,0.36084,-0.602295,-0.336243,-0.627563,-111.817,45.8167,-27.95,-2137,-29490
1404,160582,9.81914,-0.119629,0.44502,-14.6558,-87.1436,-106.249,0,0,0,0.36084,-0.602295,-0.336243,-0.627563,-111.817,45.825,-27.95,-2137,-29490
1410,160588,9.80957,-0.119629,0.488086,-14.6558,-87.1436,-106.249,0,0,0,0.36084,-0.602295,-0.336243,-0.627563,-111.808,45.8,-27.925,-2137,-29490
1416,160594,9.80479,-0.110059,0.478516,-14.6558,-87.1436,-106.249,0,0,0,0.36084,-0.602295,-0.336243,-0.627563,-111.783,45.7917,-27.925,-2137,-29490
1422,160600,9.81436,-0.110059,0.468945,-14.6558,-87.1436,-106.249,0,0,0,0.36084,-0.602295,-0.336243,-0.627563,-111.75,45.7833,-27.9167,-2137,-29490
1428,160606,9.79521,-0.13877,0.478516,-14.6558,-87.1436,-106.249,0,0,0,0.36084,-0.602295,-0.336243,-0.627563,-111.717,45.7583,-27.8583,-2137,-29490
1434,160612,9.8,-0.133984,0.497656,-14.6503,-87.1436,-106.249,0,0,0,0.36084,-0.602295,-0.336273,-0.627563,-111.658,45.7583,-27.7917,-2137,-29490
1440,160618,9.79521,-0.124414,0.488086,-14.6503,-87.1436,-106.249,0,0,0,0.36084,-0.602295,-0.336273,-0.627563,-111.642,45.75,-27.7417,-2137,-29490
1446,160624,9.80479,-0.129199,0.45459,-14.6503,-87.1436,-106.249,0,0,0,0.36084,-0.602295,-0.336273,-0.627563,-111.65,45.7333,-27.7167,-2137,-29490
1452,160630,9.78564,-0.124414,0.468945,-14.6503,-87.1436,-106.249,0,0,0,0.36084,-0.602295,-0.336273,-0.627563,-111.667,45.7083,-27.6917,-2137,-29490
1458,160636,9.80957,-0.119629,0.488086,-14.6503,-87.1436,-106.249,0,0,0,0.36084,-0.602295,-0.336273,-0.627563,-111.675,45.6917,-27.675,-2137,-29490
1464,160642,9.8,-0.124414,0.497656,-14.6503,-87.1436,-106.249,0,0,0,0.36084,-0.602295,-0.336273,-0.627563,-111.667,45.65,-27.7083,-2137,-29490
1470,160648,9.77607,-0.0957031,0.468945,-14.6503,-87.1436,-106.249,0,0,0,0.36084,-0.602295,-0.336273,-0.627563,-111.65,45.625,-27.7333,-2137,-29490
1476,160654,9.81914,-0.13877,0.44502,-14.6503,-87.1436,-106.249,0,0,0,0.36084,-0.602295,-0.336273,-0.627563,-111.633,45.6333,-27.75,-2137,-29490
1482,160660,9.81436,-0.124414,0.478516,-14.6503,-87.1436,-106.249,0,0,0,0.36084,-0.602295,-0.336273,-0.627563,-111.608,45.65,-27.7667,-2137,-29490
1488,160666,9.78564,-0.105273,0.502441,-14.6503,-87.1381,-106.249,0,0,0,0.36084,-0.602295,-0.336273,-0.627563,-111.608,45.6917,-27.8,-2137,-29490
1494,160672,9.81436,-0.124414,0.47373,-14.6503,-87.1381,-106.249,0,0,0,0.36084,-0.602295,-0.336273,-0.627563,-111.592,45.7333,-27.8583,-2137,-29490
1500,160678,9.80479,-0.129199,0.435449,-14.6503,-87.1381,-106.249,0,0,0,0.36084,-0.602295,-0.336273,-0.627563,-111.592,45.7417,-27.8917,-2137,-29490
1506,160684,9.79521,-0.090918,0.459375,-14.6503,-87.1381,-106.249,0,0,0,0.36084,-0.602295,-0.336273,-0.627563,-111.6,45.75,-27.8833,-2137,-29490
1512,160690,9.78564,-0.129199,0.468945,-14.6503,-87.1381,-106.249,0,0,0,0.36084,-0.602295,-0.336273,-0.627563,-111.608,45.7667,-27.8667,-2137,-29490
1518,160696,9.82393,-0.114844,0.483301,-14.6503,-87.1381,-106.249,0,0,0,0.36084,-0.602295,-0.336273,-0.627563,-111.625,45.7667,-27.8333,-2137,-29490
1524,160702,9.79043,-0.129199,0.497656,-14.6503,-87.1381,-106.249,0,0,0,0.36084,-0.602295,-0.336273,-0.627563,-111.65,45.7333,-27.7667,-2137,-29490
1530,160708,9.79521,-0.124414,0.478516,-14.6503,-87.1381,-106.249,0,0,0,0.36084,-0.602295,-0.336273,-0.627563,-111.683,45.7167,-27.7667,-2137,-29490
1536,160714,9.80957,-0.114844,0.468945,-14.6503,-87.1381,-106.249,0,0,0,0.36087,-0.602295,-0.336273,-0.627563,-111.7,45.725,-27.7833,-2137,-29490
1542,160720,9.79043,-0.124414,0.478516,-14.6448,-87.1381,-106.249,0,0,0,0.36087,-0.602295,-0.336273,-0.627563,-111.7,45.725,-27.8083,-2145,-29489
1548,160726,9.80479,-0.105273,0.459375,-14.6448,-87.1381,-106.249,0,0,0,0.36087,-0.602264,-0.336304,-0.627563,-111.667,45.7417,-27.8833,-2145,-29489
1554,160732,9.79521,-0.114844,0.492871,-14.6448,-87.1381,-106.249,0,0,0,0.36087,-0.602264,-0.336304,-0.627563,-111.667,45.75,-27.9333,-2145,-29489
1560,160738,9.79521,-0.14834,0.478516,-14.6448,-87.1381,-106.249,0,0,0,0.36087,-0.602264,-0.336304,-0.627533,-111.675,45.7667,-27.9917,-2145,-29489
1566,160744,9.80957,-0.105273,0.459375,-14.6448,-87.1381,-106.249,0,0,0,0.360901,-0.602264,-0.336304,-0.627533,-111.658,45.8,-28.0167,-2145,-29489
1572,160750,9.79521,-0.124414,0.478516,-14.6393,-87.1381,-106.249,0,0,0,0.360901,-0.602264,-0.336304,-0.627533,-111.658,45.8167,-28,-2145,-29489
1578,160756,9.80479,-0.110059,0.492871,-14.6393,-87.1381,-106.249,0,0,0,0.360901,-0.602264,-0.336334,-0.627533,-111.633,45.8083,-27.9083,-2145,-29489
1584,160762,9.78564,-0.129199,0.459375,-14.6393,-87.1381,-106.249,0,0,0,0.360901,-0.602264,-0.336334,-0.627533,-111.633,45.7833,-27.825,-2145,-29489
1590,160768,9.79043,-0.119629,0.488086,-14.6338,-87.1381,-106.249,0,0,0,0.360931,-0.602234,-0.336334,-0.627533,-111.625,45.7667,-27.7667,-2145,-29489
1596,160774,9.81436,-0.129199,0.46416,-14.6338,-87.1381,-106.249,0,0,0,0.360931,-0.602234,-0.336365,-0.627533,-111.642,45.7667,-27.6917,-2145,-29489
1602,160780,9.80957,-0.124414,0.46416,-14.6338,-87.1381,-106.249,0,0,0,0.360931,-0.602234,-0.336365,-0.627533,-111.675,45.7583,-27.6667,-2145,-29489
1608,160786,9.80957,-0.114844,0.488086,-14.6338,-87.1381,-106.249,0,0,0,0.360931,-0.602234,-0.336365,-0.627502,-111.733,45.75,-27.6,-2145,-29489
1614,160792,9.80479,-0.133984,0.459375,-14.6338,-87.1381,-106.249,0,0,0,0.360962,-0.602234,-0.336365,-0.627502,-111.758,45.725,-27.5833,-2145,-29489
1620,160798,9.81436,-0.133984,0.46416,-14.6283,-87.1381,-106.249,0,0,0,0.360962,-0.602234,-0.336365,-0.627502,-111.775,45.7083,-27.5917,-2145,-29489
1626,160804,9.80957,-0.129199,0.459375,-14.6283,-87.1381,-106.249,0,0,0,0.360962,-0.602234,-0.336365,-0.627502,-111.792,45.7,-27.6167,-2145,-29489
1632,160810,9.82393,-0.105273,0.468945,-14.6283,-87.1381,-106.249,0,0,0,0.360962,-0.602234,-0.336365,-0.627502,-111.808,45.675,-27.675,-2145,-29489
1638,160816,9.79521,-0.119629,0.488086,-14.6283,-87.1381,-106.249,0,0,0,0.360962,-0.602234,-0.336395,-0.627502,-111.808,45.675,-27.775,-2145,-29489
1644,160822,9.80479,-0.129199,0.478516,-14.6283,-87.1381,-106.249,0,0,0,0.360962,-0.602234,-0.336395,-0.627502,-111.808,45.675,-27.7917,-2137,-29490
1650,160828,9.8,-0.124414,0.507227,-14.6283,-87.1381,-106.249,0,0,0,0.360962,-0.602203,-0.336395,-0.627502,-111.808,45.675,-27.8333,-2137,-29490
1656,160834,9.79521,-0.129199,0.478516,-14.6283,-87.1381,-106.249,0,0,0,0.360962,-0.602203,-0.336395,-0.627502,-111.808,45.675,-27.8583,-2137,-29490
1662,160840,9.78564,-0.133984,0.47373,-14.6283,-87.1381,-106.249,0,0,0,0.360962,-0.602203,-0.336395,-0.627502,-111.808,45.675,-27.9083,-2137,-29490
1668,160846,9.79521,-0.110059,0.46416,-14.6283,-87.1381,-106.249,0,0,0,0.360962,-0.602203,-0.336395,-0.627502,-111.767,45.675,-28.025,-2137,-29490
1674,160852,9.80479,-0.114844,0.497656,-14.6283,-87.1381,-106.249,0,0,0,0.360962,-0.602203,-0.336395,-0.627502,-111.725,45.6667,-28.0583,-2137,-29490
1680,160858,9.80479,-0.124414,0.47373,-14.6283,-87.1381,-106.249,0,0,0,0.360992,-0.602203,-0.336395,-0.627502,-111.683,45.6667,-28.075,-2137,-29490
1686,160864,9.79521,-0.114844,0.497656,-14.6283,-87.1381,-106.249,0,0,0,0.360992,-0.602203,-0.336395,-0.627502,-111.65,45.6583,-28.1333,-2137,-29490
1692,160870,9.78086,-0.124414,0.492871,-14.6228,-87.1381,-106.249,0,0,0,0.360992,-0.602203,-0.336395,-0.627502,-111.633,45.6667,-28.1917,-2137,-29490
1698,160876,9.80479,-0.114844,0.468945,-14.6228,-87.1381,-106.249,0,0,0,0.360992,-0.602203,-0.336395,-0.627502,-111.65,45.7167,-28.325,-2137,-29490
1704,160882,9.80479,-0.143555,0.449805,-14.6228,-87.1381,-106.249,0,0,0,0.360992,-0.602203,-0.336426,-0.627502,-111.675,45.75,-28.35,-2137,-29490
1710,160888,9.8,-0.110059,0.449805,-14.6228,-87.1381,-106.249,0,0,0,0.360992,-0.602203,-0.336426,-0.627502,-111.675,45.7667,-28.3417,-2137,-29490
1716,160894,9.79521,-0.133984,0.47373,-14.6228,-87.1381,-106.249,0,0,0,0.360992,-0.602203,-0.336426,-0.627502,-111.675,45.775,-28.3167,-2137,-29490
1722,160900,9.80957,-0.143555,0.47373,-14.6228,-87.1381,-106.249,0,0,0,0.360992,-0.602203,-0.336426,-0.627502,-111.658,45.7583,-28.3167,-2137,-29490
1728,160906,9.80957,-0.129199,0.440234,-14.6228,-87.1381,-106.249,0,0,0,0.360992,-0.602203,-0.336395,-0.627502,-111.617,45.7333,-28.375,-2137,-29490
1734,160912,9.79521,-0.13877,0.459375,-14.6283,-87.1381,-106.249,0,0,0,0.360992,-0.602203,-0.336395,-0.627502,-111.6,45.7333,-28.3917,-2137,-29490
1740,160918,9.8,-0.124414,0.44502,-14.6283,-87.1381,-106.249,0,0,0,0.360992,-0.602203,-0.336395,-0.627502,-111.6,45.7333,-28.35,-2137,-29490
1746,160924,9.80479,-0.133984,0.47373,-14.6283,-87.1381,-106.249,0,0,0,0.360992,-0.602203,-0.336395,-0.627502,-111.592,45.7167,-28.2917,-2137,-29490
1752,160930,9.78564,-0.100488,0.468945,-14.6283,-87.1381,-106.249,0,0,0,0.360962,-0.602203,-0.336365,-0.627502,-111.583,45.7083,-28.2583,-2137,-29490
1758,160936,9.8,-0.124414,0.47373,-14.6338,-87.1381,-106.249,0,0,0,0.360962,-0.602234,-0.336365,-0.627502,-111.567,45.6667,-28.2,-2137,-29490
1764,160942,9.81436,-0.114844,0.459375,-14.6338,-87.1381,-106.249,0,0,0,0.360962,-0.602234,-0.336365,-0.627502,-111.567,45.6583,-28.1417,-2137,-29490
1770,160948,9.79521,-0.105273,0.459375,-14.6338,-87.1381,-106.249,0,0,0,0.360962,-0.602234,-0.336365,-0.627502,-111.583,45.6667,-28.0833,-2137,-29490
1776,160954,9.80957,-0.090918,0.44502,-14.6338,-87.1381,-106.249,0,0,0,0.360962,-0.602234,-0.336365,-0.627502,-111.608,45.675,-28,-2145,-29489
1782,160960,9.80957,-0.133984,0.47373,-14.6338,-87.1381,-106.249,0,0,0,0.360962,-0.602234,-0.336365,-0.627502,-111.633,45.6833,-27.9667,-2145,-29489
1788,160966,9.80479,-0.13877,0.488086,-14.6338,-87.1381,-106.249,0,0,0,0.360931,-0.602234,-0.336365,-0.627533,-111.667,45.725,-28.0333,-2145,-29489
1794,160972,9.80957,-0.129199,0.502441,-14.6338,-87.1381,-106.249,0,0,0,0.360931,-0.602234,-0.336365,-0.627533,-111.683,45.7583,-28.0667,-2145,-29489
1800,160978,9.82393,-0.124414,0.483301,-14.6338,-87.1381,-106.249,0,0,0,0.360931,-0.602234,-0.336365,-0.627533,-111.692,45.8083,-28.1333,-2145,-29489
1806,160984,9.8335,-0.14834,0.45459,-14.6338,-87.1381,-106.249,0,0,0,0.360931,-0.602234,-0.336365,-0.627533,-111.675,45.8583,-28.15,-2145,-29489
1812,160990,9.79043,-0.124414,0.483301,-14.6393,-87.1381,-106.249,0,0,0,0.360931,-0.602234,-0.336334,-0.627533,-111.667,45.875,-28.1417,-2145,-29489
1818,160996,9.80957,-0.124414,0.478516,-14.6393,-87.1381,-106.249,0,0,0,0.360931,-0.602234,-0.336334,-0.627533,-111.658,45.875,-28.1167,-2145,-29489
1824,161002,9.77607,-0.110059,0.459375,-14.6393,-87.1381,-106.249,0,0,0,0.360931,-0.602234,-0.336334,-0.627533,-111.683,45.8667,-28.1,-2145,-29489
1830,161008,9.8,-0.114844,0.46416,-14.6393,-87.1381,-106.249,0,0,0,0.360931,-0.602234,-0.336334,-0.627533,-111.692,45.8583,-28.0917,-2145,-29489
1836,161014,9.80479,-0.100488,0.449805,-14.6393,-87.1381,-106.249,0,0,0,0.360901,-0.602234,-0.336334,-0.627533,-111.717,45.875,-28.075,-2145,-29489
1842,161020,9.79043,-0.114844,0.45459,-14.6393,-87.1381,-106.249,0,0,0,0.360901,-0.602264,-0.336334,-0.627533,-111.742,45.875,-28.0417,-2145,-29489
1848,161026,9.76172,-0.124414,0.459375,-14.6393,-87.1381,-106.249,0,0,0,0.360931,-0.602234,-0.336334,-0.627533,-111.783,45.85,-28.0167,-2145,-29489
1854,161032,9.81914,-0.143555,0.435449,-14.6393,-87.1381,-106.249,0,0,0,0.360931,-0.602234,-0.336334,-0.627533,-111.8,45.8333,-28.0333,-2145,-29489
1860,161038,9.79521,-0.13877,0.468945,-14.6393,-87.1381,-106.249,0,0,0,0.360931,-0.602234,-0.336334,-0.627533,-111.808,45.8167,-28.075,-2145,-29489
1866,161044,9.79043,-0.110059,0.492871,-14.6393,-87.1381,-106.249,0,0,0,0.360901,-0.602234,-0.336334,-0.627533,-111.808,45.8083,-28.1083,-2145,-29489
1872,161050,9.81914,-0.100488,0.483301,-14.6393,-87.1381,-106.249,0,0,0,0.360901,-0.602264,-0.336334,-0.627533,-111.8,45.8,-28.1083,-2145,-29489
1878,161056,9.78564,-0.133984,0.47373,-14.6393,-87.1381,-106.249,0,0,0,0.360901,-0.602264,-0.336334,-0.627533,-111.775,45.7583,-28.0167,-2137,-29490
1884,161062,9.82393,-0.105273,0.468945,-14.6393,-87.1381,-106.249,0,0,0,0.360901,-0.602264,-0.336334,-0.627533,-111.767,45.75,-27.9917,-2137,-29490
1890,161068,9.82393,-0.133984,0.497656,-14.6393,-87.1381,-106.249,0,0,0,0.360901,-0.602264,-0.336334,-0.627533,-111.767,45.7417,-27.9583,-2137,-29490
1896,161074,9.79521,-0.119629,0.47373,-14.6393,-87.1381,-106.249,0,0,0,0.360901,-0.602264,-0.336334,-0.627533,-111.767,45.7333,-27.9417,-2137,-29490
1902,161080,9.80957,-0.124414,0.46416,-14.6393,-87.1381,-106.249,0,0,0,0.360901,-0.602264,-0.336334,-0.627533,-111.75,45.7417,-27.9167,-2137,-29490
1908,161086,9.78086,-0.114844,0.459375,-14.6393,-87.1381,-106.249,0,0,0,0.360901,-0.602264,-0.336334,-0.627533,-111.783,45.7083,-27.85,-2137,-29490
1914,161092,9.81436,-0.129199,0.488086,-14.6393,-87.1381,-106.249,0,0,0,0.360901,-0.602264,-0.336334,-0.627533,-111.808,45.6667,-27.825,-2137,-29490
1920,161098,9.80479,-0.090918,0.47373,-14.6393,-87.1381,-106.249,0,0,0,0.360901,-0.602264,-0.336334,-0.627533,-111.85,45.65,-27.825,-2137,-29490
1926,161104,9.80479,-0.114844,0.488086,-14.6393,-87.1381,-106.249,0,0,0,0.360901,-0.602264,-0.336334,-0.627533,-111.858,45.6417,-27.8417,-2137,-29490
1932,161110,9.79043,-0.114844,0.459375,-14.6393,-87.1381,-106.249,0,0,0,0.360901,-0.602264,-0.336334,-0.627533,-111.85,45.6333,-27.875,-2137,-29490
1938,161116,9.77129,-0.105273,0.488086,-14.6393,-87.1381,-106.249,0,0,0,0.360901,-0.602264,-0.336334,-0.627533,-111.85,45.6583,-27.9667,-2137,-29490
1944,161122,9.78564,-0.110059,0.449805,-14.6393,-87.1381,-106.249,0,0,0,0.360901,-0.602264,-0.336334,-0.627533,-111.842,45.675,-28.0333,-2137,-29490
1950,161128,9.8,-0.133984,0.45459,-14.6393,-87.1381,-106.249,0,0,0,0.360901,-0.602264,-0.336334,-0.627533,-111.858,45.7,-28.0167,-2137,-29490
1956,161134,9.79521,-0.119629,0.44502,-14.6393,-87.1381,-106.249,0,0,0,0.360931,-0.602234,-0.336334,-0.627533,-111.842,45.7333,-28,-2137,-29490
1962,161140,9.81436,-0.119629,0.46416,-14.6393,-87.1381,-106.249,0,0,0,0.360931,-0.602234,-0.336334,-0.627533,-111.825,45.7667,-27.9917,-2137,-29490
1968,161146,9.8,-0.143555,0.45459,-14.6393,-87.1381,-106.249,0,0,0,0.360931,-0.602234,-0.336334,-0.627533,-111.808,45.7917,-27.9167,-2137,-29490
1974,161152,9.81436,-0.133984,0.468945,-14.6393,-87.1381,-106.249,0,0,0,0.360931,-0.602234,-0.336334,-0.627533,-111.817,45.7917,-27.875,-2137,-29490
1980,161158,9.77607,-0.114844,0.47373,-14.6393,-87.1381,-106.249,0,0,0,0.360931,-0.602234,-0.336334,-0.627533,-111.842,45.8,-27.8583,-2137,-29490
1986,161164,9.79043,-0.114844,0.478516,-14.6393,-87.1381,-106.249,0,0,0,0.360931,-0.602264,-0.336334,-0.627533,-111.867,45.8,-27.8167,-2137,-29490
1992,161170,9.78564,-0.100488,0.483301,-14.6393,-87.1381,-106.249,0,0,0,0.360931,-0.602264,-0.336334,-0.627533,-111.883,45.7833,-27.8167,-2137,-29490
1998,161176,9.8,-0.110059,0.459375,-14.6393,-87.1381,-106.249,0,0,0,0.360931,-0.602234,-0.336334,-0.627533,-111.867,45.7417,-27.8333,-2137,-29490
2004,161182,9.82393,-0.110059,0.44502,-14.6338,-87.1381,-106.249,0,0,0,0.360931,-0.602234,-0.336365,-0.627533,-111.833,45.7083,-27.825,-2137,-29490
2010,161188,9.80957,-0.110059,0.483301,-14.6338,-87.1381,-106.249,0,0,0,0.360931,-0.602234,-0.336365,-0.627533,-111.8,45.6833,-27.8333,-2137,-29490
2016,161194,9.80479,-0.133984,0.483301,-14.6338,-87.1436,-106.249,0,0,0,0.360931,-0.602234,-0.336365,-0.627502,-111.783,45.675,-27.8417,-2137,-29490
2022,161200,9.80957,-0.119629,0.483301,-14.6338,-87.1436,-106.249,0,0,0,0.360931,-0.602234,-0.336365,-0.627502,-111.767,45.6583,-27.8417,-2137,-29490
2028,161206,9.78564,-0.133984,0.492871,-14.6338,-87.1436,-106.249,0,0,0,0.360931,-0.602234,-0.336365,-0.627502,-111.8,45.65,-27.9167,-2137,-29490
2034,161212,9.80479,-0.119629,0.47373,-14.6338,-87.1436,-106.249,0,0,0,0.360931,-0.602234,-0.336365,-0.627502,-111.808,45.65,-27.9583,-2137,-29490
2040,161218,9.79521,-0.143555,0.497656,-14.6338,-87.1436,-106.249,0,0,0,0.360931,-0.602234,-0.336365,-0.627502,-111.833,45.6583,-27.9833,-2137,-29490
2046,161224,9.80479,-0.114844,0.47373,-14.6338,-87.1436,-106.249,0,0,0,0.360931,-0.602234,-0.336365,-0.627502,-111.842,45.6583,-28.0167,-2137,-29490
2052,161230,9.81914,-0.124414,0.459375,-14.6338,-87.1436,-106.249,0,0,0,0.360962,-0.602234,-0.336395,-0.627502,-111.833,45.6583,-28,-2137,-29490
2058,161236,9.8,-0.0765625,0.459375,-14.6283,-87.1436,-106.249,0,0,0,0.360962,-0.602234,-0.336395,-0.627502,-111.842,45.6333,-27.9583,-2137,-29490
2064,161242,9.80479,-0.114844,0.440234,-14.6283,-87.1436,-106.249,0,0,0,0.360962,-0.602234,-0.336395,-0.627502,-111.833,45.6083,-27.95,-2137,-29490
2070,161248,9.78564,-0.114844,0.478516,-14.6283,-87.1436,-106.249,0,0,0,0.360962,-0.602234,-0.336395,-0.627502,-111.833,45.5917,-27.9583,-2137,-29490
2076,161254,9.80479,-0.110059,0.47373,-14.6283,-87.1436,-106.249,0,0,0,0.360962,-0.602234,-0.336395,-0.627502,-111.85,45.5917,-27.9833,-2137,-29490
2082,161260,9.80479,-0.114844,0.435449,-14.6228,-87.1436,-106.249,0,0,0,0.360992,-0.602203,-0.336426,-0.627472,-111.875,45.575,-27.975,-2137,-29490
2088,161266,9.79043,-0.114844,0.449805,-14.6228,-87.1436,-106.249,0,0,0,0.360992,-0.602203,-0.336426,-0.627472,-111.925,45.575,-27.9833,-2137,-29490
2094,161272,9.79521,-0.119629,0.47373,-14.6228,-87.1436,-106.249,0,0,0,0.360992,-0.602203,-0.336426,-0.627472,-111.942,45.5833,-27.975,-2137,-29490
2100,161278,9.80957,-0.124414,0.492871,-14.6228,-87.1436,-106.249,0,0,0,0.360992,-0.602203,-0.336426,-0.627472,-111.967,45.6083,-28.0167,-2137,-29490
2106,161284,9.80957,-0.133984,0.468945,-14.6228,-87.1436,-106.249,0,0,0,0.360992,-0.602203,-0.336426,-0.627472,-111.975,45.6167,-28.025,-2137,-29490
2112,161290,9.78564,-0.13877,0.488086,-14.6228,-87.1436,-106.249,0,0,0,0.360992,-0.602203,-0.336426,-0.627472,-112,45.625,-28.05,-2137,-29490
2118,161296,9.78086,-0.129199,0.483301,-14.6228,-87.1436,-106.249,0,0,0,0.360992,-0.602203,-0.336426,-0.627472,-112,45.6083,-28.05,-2137,-29490
2124,161302,9.79521,-0.15791,0.468945,-14.6228,-87.1436,-106.249,0,0,0,0.360992,-0.602203,-0.336426,-0.627472,-112.017,45.5917,-28.0833,-2137,-29490
2130,161308,9.78086,-0.114844,0.44502,-14.6228,-87.1436,-106.249,0,0,0,0.360992,-0.602203,-0.336426,-0.627472,-112.025,45.5833,-28.1083,-2137,-29490
2136,161314,9.81914,-0.129199,0.483301,-14.6228,-87.1436,-106.249,0,0,0,0.360992,-0.602203,-0.336426,-0.627472,-112.025,45.575,-28.1333,-2137,-29490
2142,161320,9.79521,-0.114844,0.47373,-14.6228,-87.1436,-106.249,0,0,0,0.360992,-0.602203,-0.336426,-0.627472,-112.033,45.5667,-28.1333,-2137,-29490
2148,161326,9.8,-0.0957031,0.435449,-14.6283,-87.1436,-106.249,0,0,0,0.360962,-0.602203,-0.336426,-0.627472,-112.033,45.575,-28.0667,-2137,-29490
2154,161332,9.81436,-0.114844,0.45459,-14.6283,-87.1436,-106.249,0,0,0,0.360962,-0.602234,-0.336395,-0.627502,-112.042,45.5667,-28.0083,-2137,-29490
2160,161338,9.80957,-0.119629,0.478516,-14.6283,-87.1436,-106.249,0,0,0,0.360962,-0.602234,-0.336395,-0.627502,-112.05,45.55,-27.9833,-2137,-29490
2166,161344,9.80957,-0.105273,0.516797,-14.6283,-87.1436,-106.249,0,0,0,0.360962,-0.602234,-0.336395,-0.627502,-112.067,45.5583,-27.95,-2137,-29490
2172,161350,9.79043,-0.119629,0.468945,-14.6283,-87.1436,-106.249,0,0,0,0.360962,-0.602234,-0.336395,-0.627502,-112.083,45.5583,-27.9417,-2137,-29490
2178,161356,9.79043,-0.143555,0.449805,-14.6283,-87.1436,-106.249,0,0,0,0.360962,-0.602234,-0.336395,-0.627502,-112.125,45.55,-27.8833,-2137,-29490
2184,161362,9.79043,-0.133984,0.478516,-14.6283,-87.1436,-106.249,0,0,0,0.360962,-0.602234,-0.336395,-0.627502,-112.133,45.5333,-27.8583,-2137,-29490
2190,161368,9.78564,-0.143555,0.449805,-14.6283,-87.1436,-106.249,0,0,0,0.360962,-0.602234,-0.336395,-0.627502,-112.15,45.5083,-27.825,-2137,-29490
2196,161374,9.8,-0.0957031,0.468945,-14.6283,-87.1436,-106.249,0,0,0,0.360962,-0.602234,-0.336395,-0.627502,-112.175,45.5,-27.7917,-2137,-29490
2202,161380,9.8,-0.14834,0.478516,-14.6283,-87.1436,-106.249,0,0,0,0.360962,-0.602234,-0.336395,-0.627502,-112.208,45.5083,-27.8083,-2137,-29490
2208,161386,9.79043,-0.13877,0.45459,-14.6338,-87.1436,-106.249,0,0,0,0.360962,-0.602234,-0.336395,-0.627502,-112.275,45.5333,-27.8417,-2137,-29490
2214,161392,9.80479,-0.124414,0.45459,-14.6338,-87.1436,-106.249,0,0,0,0.360931,-0.602234,-0.336395,-0.627502,-112.3,45.5583,-27.85,-2137,-29490
2220,161398,9.79521,-0.13877,0.468945,-14.6338,-87.1436,-106.249,0,0,0,0.360931,-0.602234,-0.336365,-0.627502,-112.292,45.5667,-27.875,-2137,-29490
2226,161404,9.79043,-0.124414,0.488086,-14.6338,-87.1436,-106.249,0,0,0,0.360931,-0.602234,-0.336365,-0.627502,-112.275,45.5667,-27.9333,-2137,-29490
2232,161410,9.8,-0.133984,0.46416,-14.6393,-87.1436,-106.249,0,0,0,0.360931,-0.602264,-0.336365,-0.627502,-112.25,45.5667,-27.9583,-2137,-29490
2238,161416,9.81914,-0.114844,0.45459,-14.6393,-87.1436,-106.249,0,0,0,0.360901,-0.602264,-0.336334,-0.627533,-112.192,45.575,-28,-2137,-29490
2244,161422,9.8,-0.124414,0.47373,-14.6393,-87.1436,-106.249,0,0,0,0.360901,-0.602264,-0.336334,-0.627533,-112.15,45.575,-27.9667,-2137,-29490
2250,161428,9.82393,-0.110059,0.45459,-14.6393,-87.1436,-106.249,0,0,0,0.360901,-0.602264,-0.336334,-0.627533,-112.092,45.5833,-27.975,-2137,-29490
2256,161434,9.79043,-0.110059,0.488086,-14.6448,-87.1436,-106.249,0,0,0,0.360901,-0.602264,-0.336334,-0.627533,-112.05,45.6,-27.9917,-2137,-29490
2262,161440,9.80479,-0.0957031,0.478516,-14.6448,-87.1436,-106.249,0,0,0,0.36087,-0.602264,-0.336334,-0.627533,-112.042,45.625,-27.9667,-2137,-29490
2268,161446,9.80479,-0.114844,0.468945,-14.6448,-87.1436,-106.249,0,0,0,0.36087,-0.602264,-0.336304,-0.627533,-112.05,45.65,-27.975,-2137,-29490
2274,161452,9.79043,-0.119629,0.502441,-14.6448,-87.1436,-106.249,0,0,0,0.36087,-0.602264,-0.336304,-0.627533,-112.067,45.6417,-27.9667,-2137,-29490
2280,161458,9.79521,-0.124414,0.488086,-14.6448,-87.1436,-106.249,0,0,0,0.36087,-0.602264,-0.336304,-0.627533,-112.058,45.6167,-27.95,-2137,-29490
2286,161464,9.78086,-0.13877,0.488086,-14.6448,-87.1436,-106.249,0,0,0,0.36087,-0.602264,-0.336304,-0.627533,-112.042,45.6,-27.9333,-2137,-29490
2292,161470,9.81914,-0.119629,0.478516,-14.6448,-87.1436,-106.249,0,0,0,0.36087,-0.602295,-0.336304,-0.627533,-111.992,45.5833,-27.9417,-2137,-29490
2298,161476,9.8,-0.119629,0.468945,-14.6448,-87.1436,-106.249,0,0,0,0.36087,-0.602295,-0.336304,-0.627533,-111.95,45.5583,-27.975,-2137,-29490
2304,161482,9.78086,-0.119629,0.47373,-14.6448,-87.1436,-106.249,0,0,0,0.36087,-0.602295,-0.336304,-0.627533,-111.942,45.5667,-28,-2137,-29490
2310,161488,9.8,-0.124414,0.488086,-14.6448,-87.1436,-106.249,0,0,0,0.36087,-0.602295,-0.336304,-0.627533,-111.942,45.5667,-28.0333,-2137,-29490
2316,161494,9.77607,-0.129199,0.483301,-14.6448,-87.1436,-106.249,0,0,0,0.36087,-0.602295,-0.336304,-0.627533,-111.942,45.5833,-28.05,-2137,-29490
2322,161500,9.80957,-0.129199,0.488086,-14.6448,-87.1436,-106.249,0,0,0,0.36087,-0.602295,-0.336304,-0.627533,-111.942,45.6083,-28.0833,-2137,-29490
2328,161506,9.8,-0.119629,0.46416,-14.6448,-87.1436,-106.249,0,0,0,0.36087,-0.602295,-0.336304,-0.627533,-111.95,45.6167,-28.1083,-2137,-29490
2334,161512,9.80479,-0.13877,0.459375,-14.6448,-87.1436,-106.249,0,0,0,0.36087,-0.602295,-0.336304,-0.627533,-111.942,45.6,-28.1,-2137,-29490
2340,161518,9.8,-0.114844,0.468945,-14.6448,-87.1436,-106.249,0,0,0,0.36087,-0.602295,-0.336304,-0.627533,-111.933,45.5833,-28.075,-2137,-29490
2346,161524,9.8,-0.13877,0.47373,-14.6448,-87.1436,-106.249,0,0,0,0.36087,-0.602295,-0.336304,-0.627533,-111.925,45.55,-28.025,-2137,-29490
2352,161530,9.78564,-0.124414,0.478516,-14.6503,-87.1436,-106.254,0,0,0,0.36087,-0.602295,-0.336304,-0.627563,-111.933,45.525,-28.0083,-2137,-29490
2358,161536,9.79521,-0.129199,0.488086,-14.6503,-87.1436,-106.249,0,0,0,0.36084,-0.602295,-0.336273,-0.627563,-111.958,45.5167,-28,-2137,-29490
2364,161542,9.82393,-0.114844,0.478516,-14.6503,-87.1436,-106.249,0,0,0,0.36084,-0.602295,-0.336273,-0.627563,-111.975,45.5,-27.975,-2137,-29490
2370,161548,9.80479,-0.114844,0.492871,-14.6503,-87.1436,-106.249,0,0,0,0.36084,-0.602295,-0.336273,-0.627563,-111.992,45.5,-27.9333,-2137,-29490
2376,161554,9.82393,-0.114844,0.47373,-14.6503,-87.1436,-106.249,0,0,0,0.36084,-0.602295,-0.336273,-0.627563,-112,45.525,-27.9083,-2137,-29490
2382,161560,9.79521,-0.129199,0.468945,-14.6503,-87.1436,-106.249,0,0,0,0.36084,-0.602295,-0.336273,-0.627563,-111.967,45.5417,-27.8833,-2137,-29490
2388,161566,9.80957,-0.13877,0.483301,-14.6503,-87.1436,-106.249,0,0,0,0.36084,-0.602295,-0.336273,-0.627563,-111.942,45.5417,-27.8917,-2137,-29490
2394,161572,9.78086,-0.124414,0.488086,-14.6503,-87.1436,-106.249,0,0,0,0.36084,-0.602295,-0.336273,-0.627563,-111.917,45.5167,-27.8917,-2137,-29490
2400,161578,9.80479,-0.0957031,0.478516,-14.6503,-87.1381,-106.249,0,0,0,0.36084,-0.602295,-0.336273,-0.627563,-111.892,45.4917,-27.8833,-2137,-29490
2406,161584,9.80479,-0.100488,0.526367,-14.6503,-87.1381,-106.254,0,0,0,0.36084,-0.602295,-0.336273,-0.627563,-111.875,45.5,-27.8583,-2137,-29490
2412,161590,9.81914,-0.119629,0.46416,-14.6503,-87.1381,-106.249,0,0,0,0.36084,-0.602295,-0.336273,-0.627563,-111.908,45.5583,-27.8833,-2137,-29490
2418,161596,9.80957,-0.124414,0.478516,-14.6503,-87.1381,-106.254,0,0,0,0.36084,-0.602295,-0.336273,-0.627563,-111.958,45.5917,-27.8667,-2137,-29490
2424,161602,9.81914,-0.124414,0.44502,-14.6503,-87.1381,-106.254,0,0,0,0.36084,-0.602295,-0.336273,-0.627563,-111.992,45.6083,-27.8417,-2137,-29490
2430,161608,9.80479,-0.114844,0.46416,-14.6503,-87.1381,-106.249,0,0,0,0.36084,-0.602295,-0.336273,-0.627563,-112.033,45.6167,-27.8,-2137,-29490
2436,161614,9.77607,-0.110059,0.45459,-14.6503,-87.1381,-106.249,0,0,0,0.36087,-0.602295,-0.336273,-0.627563,-112.042,45.6167,-27.775,-2137,-29490
